{"type":"FeatureCollection","features":[{"type":"Feature","id":1,"geometry":{"type":"Point","coordinates":[-77.04580396509732,38.902861705230734],"bbox":[-77.04580396509732,38.902861705230734,-77.04580396509732,38.902861705230734]},"properties":{"OBJECTID_1":1,"NAME":"The Endoscopy Center","ADDRESS":"2021 K STREET NW","WEBURL":"http://doh.dc.gov/node/162782","GIS_ID":"amb_012","SSL":"0076   0083","PHONE":"(202) 775-8692","ADDR_ID":242500,"X_COORD":396029.37,"Y_COORD":137227.38}},{"type":"Feature","id":2,"geometry":{"type":"Point","coordinates":[-77.04290783663063,38.90502316149249],"bbox":[-77.04290783663063,38.90502316149249,-77.04290783663063,38.90502316149249]},"properties":{"OBJECTID_1":2,"NAME":"MedStar Surgery Center","ADDRESS":"1145 19th St NW","WEBURL":"http://doh.dc.gov/node/162782","GIS_ID":"amb_013","SSL":"0140   0913","PHONE":"(202) 223-9040","ADDR_ID":241304,"X_COORD":396275.51,"Y_COORD":137467.26}},{"type":"Feature","id":3,"geometry":{"type":"Point","coordinates":[-77.04717845070229,38.89709554561912],"bbox":[-77.04717845070229,38.89709554561912,-77.04717845070229,38.89709554561912]},"properties":{"OBJECTID_1":3,"NAME":"Washington Surgi-Clinic","ADDRESS":"2112 F STREET NW, Suite 400","WEBURL":"http://doh.dc.gov/node/162782","GIS_ID":"amb_014","SSL":"0081   0102","PHONE":"(202) 659-9403","ADDR_ID":226151,"X_COORD":395907.59,"Y_COORD":136583.08000000002}},{"type":"Feature","id":4,"geometry":{"type":"Point","coordinates":[-77.02710938176219,38.96692690073241],"bbox":[-77.02710938176219,38.96692690073241,-77.02710938176219,38.96692690073241]},"properties":{"OBJECTID_1":4,"NAME":"Premier Surgical Center","ADDRESS":"6323 GEORGIA AVENUE NW","WEBURL":"http://doh.dc.gov/node/162782","GIS_ID":"amb_016","SSL":"2978   0040","PHONE":"(202) 291-0126","ADDR_ID":254165,"X_COORD":397654.86,"Y_COORD":144333.64}},{"type":"Feature","id":5,"geometry":{"type":"Point","coordinates":[-77.03696886973513,38.904077576612174],"bbox":[-77.03696886973513,38.904077576612174,-77.03696886973513,38.904077576612174]},"properties":{"OBJECTID_1":5,"NAME":"Planned Parenthood","ADDRESS":"1108 16TH STREET NW","WEBURL":"http://doh.dc.gov/node/162782","GIS_ID":"amb_017","SSL":"0183   0111","PHONE":"(202) 347-8512","ADDR_ID":276209,"X_COORD":396793.79000000004,"Y_COORD":137358.07}}],"name":"Ambulatory_Surgical_Centers","updated_at":1429023990000,"retrieved_at":1444485104045,"expires_at":1444571504045,"count":5}