{"type":"FeatureCollection","features":[{"type":"Feature","id":1,"geometry":{"type":"Point","coordinates":[-77.00114117677772,38.887038688213984],"bbox":[-77.00114117677772,38.887038688213984,-77.00114117677772,38.887038688213984]},"properties":{"OBJECTID":1,"NAME":"National Capital Bank of Washington - Capitol Hill","ADDRESS":"316 PENNSYLVANIA AVENUE SE","ZIPCODE":"20003","ADDRESS_ID":39317,"Y":135465.63,"X":399901.19,"DIFFX":0,"DIFFY":0}},{"type":"Feature","id":2,"geometry":{"type":"Point","coordinates":[-77.08643905968422,38.958007276435374],"bbox":[-77.08643905968422,38.958007276435374,-77.08643905968422,38.958007276435374]},"properties":{"OBJECTID":2,"NAME":"National Capital Bank of Washington - Friendship Heights","ADDRESS":"5228 44TH STREET NW","ZIPCODE":"20015","ADDRESS_ID":267740,"Y":143347.29,"X":392508.24,"DIFFX":0,"DIFFY":0}},{"type":"Feature","id":3,"geometry":{"type":"Point","coordinates":[-77.04533394621778,38.90168074873736],"bbox":[-77.04533394621778,38.90168074873736,-77.04533394621778,38.90168074873736]},"properties":{"OBJECTID":3,"NAME":"National Cooperative Bank","ADDRESS":"2001 PENNSYLVANIA AVENUE NW","ZIPCODE":"20006","ADDRESS_ID":243321,"Y":137091.99,"X":396067.85000000003,"DIFFX":0,"DIFFY":0}},{"type":"Feature","id":4,"geometry":{"type":"Point","coordinates":[-77.0324111041189,38.90217483328029],"bbox":[-77.0324111041189,38.90217483328029,-77.0324111041189,38.90217483328029]},"properties":{"OBJECTID":4,"NAME":"PNC Bank, NA - 14th and K","ADDRESS":"1400 K STREET NW","ZIPCODE":"20005","ADDRESS_ID":240269,"Y":137146.36000000002,"X":397188.82,"DIFFX":0,"DIFFY":0}},{"type":"Feature","id":5,"geometry":{"type":"Point","coordinates":[-77.03227598610657,38.90981043919212],"bbox":[-77.03227598610657,38.90981043919212,-77.03227598610657,38.90981043919212]},"properties":{"OBJECTID":5,"NAME":"PNC Bank, NA - 14th and P","ADDRESS":"1405 P STREET NW","ZIPCODE":"20005","ADDRESS_ID":303731,"Y":137993.97,"X":397200.84,"DIFFX":0,"DIFFY":0}},{"type":"Feature","id":6,"geometry":{"type":"Point","coordinates":[-77.04431032266058,38.90092092604522],"bbox":[-77.04431032266058,38.90092092604522,-77.04431032266058,38.90092092604522]},"properties":{"OBJECTID":6,"NAME":"PNC Bank, NA - 1919 Pennsylvania Avenue","ADDRESS":"1919 PENNSYLVANIA AVENUE NW","ZIPCODE":"20006","ADDRESS_ID":241082,"Y":137007.6,"X":396156.60000000003,"DIFFX":0,"DIFFY":0}},{"type":"Feature","id":7,"geometry":{"type":"Point","coordinates":[-77.04448220934309,38.903507520574934],"bbox":[-77.04448220934309,38.903507520574934,-77.04448220934309,38.903507520574934]},"properties":{"OBJECTID":7,"NAME":"PNC Bank, NA - 20th and L","ADDRESS":"1920 L STREET NW","ZIPCODE":"20036","ADDRESS_ID":242545,"Y":137294.74,"X":396141.83,"DIFFX":0,"DIFFY":0}},{"type":"Feature","id":8,"geometry":{"type":"Point","coordinates":[-77.0216390780915,38.900713737348546],"bbox":[-77.0216390780915,38.900713737348546,-77.0216390780915,38.900713737348546]},"properties":{"OBJECTID":8,"NAME":"PNC Bank, NA - 7th and Eye","ADDRESS":"833 7TH STREET NW","ZIPCODE":"20001","ADDRESS_ID":300518,"Y":136983.89,"X":398123.16000000003,"DIFFX":0,"DIFFY":0}},{"type":"Feature","id":9,"geometry":{"type":"Point","coordinates":[-76.99475876692345,38.90044005860336],"bbox":[-76.99475876692345,38.90044005860336,-76.99475876692345,38.90044005860336]},"properties":{"OBJECTID":9,"NAME":"PNC Bank, NA - 800 H Street","ADDRESS":"800 H STREET NE","ZIPCODE":"20002","ADDRESS_ID":151153,"Y":136953.3,"X":400454.84,"DIFFX":0,"DIFFY":0}},{"type":"Feature","id":10,"geometry":{"type":"Point","coordinates":[-77.04228054155634,38.923312091158074],"bbox":[-77.04228054155634,38.923312091158074,-77.04228054155634,38.923312091158074]},"properties":{"OBJECTID":10,"NAME":"PNC Bank, NA - Adams Morgan","ADDRESS":"1779 COLUMBIA ROAD NW","ZIPCODE":"20009","ADDRESS_ID":235934,"Y":139493.12,"X":396333.82,"DIFFX":0,"DIFFY":0}},{"type":"Feature","id":11,"geometry":{"type":"Point","coordinates":[-76.98885895629596,38.86641388788587],"bbox":[-76.98885895629596,38.86641388788587,-76.98885895629596,38.86641388788587]},"properties":{"OBJECTID":11,"NAME":"PNC Bank, NA - Anacostia","ADDRESS":"2000 MARTIN LUTHER KING JR AVENUE SE","ZIPCODE":"20020","ADDRESS_ID":151471,"Y":133176.18,"X":400967.07,"DIFFX":0,"DIFFY":0}},{"type":"Feature","id":12,"geometry":{"type":"Point","coordinates":[-76.99111006256179,38.93658990532098],"bbox":[-76.99111006256179,38.93658990532098,-76.99111006256179,38.93658990532098]},"properties":{"OBJECTID":12,"NAME":"PNC Bank, NA - Brookland","ADDRESS":"3806 12TH STREET NE","ZIPCODE":"20017","ADDRESS_ID":156248,"Y":140966.26,"X":400770.95,"DIFFX":0,"DIFFY":0}},{"type":"Feature","id":13,"geometry":{"type":"Point","coordinates":[-76.99694528636108,38.88537084202034],"bbox":[-76.99694528636108,38.88537084202034,-76.99694528636108,38.88537084202034]},"properties":{"OBJECTID":13,"NAME":"PNC Bank, NA - Capitol Hill","ADDRESS":"650 PENNSYLVANIA AVENUE SE","ZIPCODE":"20003","ADDRESS_ID":280033,"Y":135280.49,"X":400265.23,"DIFFX":0,"DIFFY":0}},{"type":"Feature","id":14,"geometry":{"type":"Point","coordinates":[-77.0754239299622,38.963814419018505],"bbox":[-77.0754239299622,38.963814419018505,-77.0754239299622,38.963814419018505]},"properties":{"OBJECTID":14,"NAME":"PNC Bank, NA - Chevy Chase","ADDRESS":"5530 CONNECTICUT AVENUE NW","ZIPCODE":"20015","ADDRESS_ID":263837,"Y":143991.09,"X":393463.49,"DIFFX":0,"DIFFY":0}},{"type":"Feature","id":15,"geometry":{"type":"Point","coordinates":[-77.0589796634529,38.904663449119774],"bbox":[-77.0589796634529,38.904663449119774,-77.0589796634529,38.904663449119774]},"properties":{"OBJECTID":15,"NAME":"Bank of Georgetown - The Winsor Branch","ADDRESS":"1115 30th street nw","ZIPCODE":"20007","ADDRESS_ID":304893,"Y":137423.77,"X":394884.41000000003,"DIFFX":0,"DIFFY":0}},{"type":"Feature","id":16,"geometry":{"type":"Point","coordinates":[-77.01161008996115,38.90040960113047],"bbox":[-77.01161008996115,38.90040960113047,-77.01161008996115,38.90040960113047]},"properties":{"OBJECTID":16,"NAME":"Capital One Bank - First and H Street","ADDRESS":"85 H Street NW","ZIPCODE":"20001","ADDRESS_ID":310066,"Y":136949.97,"X":398993.10000000003,"DIFFX":0,"DIFFY":0}},{"type":"Feature","id":17,"geometry":{"type":"Point","coordinates":[-77.04527865772579,38.90211983756467],"bbox":[-77.04527865772579,38.90211983756467,-77.04527865772579,38.90211983756467]},"properties":{"OBJECTID":17,"NAME":"TD Bank, NA","ADDRESS":"2000 K Street NW","ZIPCODE":"20006","ADDRESS_ID":242502,"Y":137140.73,"X":396072.67,"DIFFX":0,"DIFFY":0}},{"type":"Feature","id":18,"geometry":{"type":"Point","coordinates":[-77.02852325780536,38.89766464030094],"bbox":[-77.02852325780536,38.89766464030094,-77.02852325780536,38.89766464030094]},"properties":{"OBJECTID":18,"NAME":"Atlantic Trust Company","ADDRESS":"1201 F STREET NW","ZIPCODE":"20004","ADDRESS_ID":240934,"Y":136645.58,"X":397525.9,"DIFFX":null,"DIFFY":null}},{"type":"Feature","id":19,"geometry":{"type":"Point","coordinates":[-77.03227603722735,38.897694292102074],"bbox":[-77.03227603722735,38.897694292102074,-77.03227603722735,38.897694292102074]},"properties":{"OBJECTID":19,"NAME":"Bank of America ","ADDRESS":"600 14TH STREET NW","ZIPCODE":"20005","ADDRESS_ID":300970,"Y":136648.98,"X":397200.36,"DIFFX":null,"DIFFY":null}},{"type":"Feature","id":20,"geometry":{"type":"Point","coordinates":[-77.02932031942426,38.89633111476305],"bbox":[-77.02932031942426,38.89633111476305,-77.02932031942426,38.89633111476305]},"properties":{"OBJECTID":20,"NAME":"Carolina Premier Bank ","ADDRESS":"1299 PENNSYLVANIA AVENUE NW","ZIPCODE":"20004","ADDRESS_ID":285503,"Y":136497.57,"X":397456.71,"DIFFX":null,"DIFFY":null}},{"type":"Feature","id":21,"geometry":{"type":"Point","coordinates":[-77.01835491740452,38.90349680088984],"bbox":[-77.01835491740452,38.90349680088984,-77.01835491740452,38.90349680088984]},"properties":{"OBJECTID":21,"NAME":"Wells Fargo Bank - Mt Vernon Square","ADDRESS":"490 L Street NW","ZIPCODE":"20001","ADDRESS_ID":304767,"Y":137292.77,"X":398408.10000000003,"DIFFX":0,"DIFFY":0}},{"type":"Feature","id":22,"geometry":{"type":"Point","coordinates":[-77.03222740717337,38.916614361186106],"bbox":[-77.03222740717337,38.916614361186106,-77.03222740717337,38.916614361186106]},"properties":{"OBJECTID":22,"NAME":"Wells Fargo Bank - U Street","ADDRESS":"1934 14TH ST NW","ZIPCODE":"20009","ADDRESS_ID":309040,"Y":138749.26,"X":397205.32,"DIFFX":0,"DIFFY":0}},{"type":"Feature","id":23,"geometry":{"type":"Point","coordinates":[-77.0322259415902,38.91439182505319],"bbox":[-77.0322259415902,38.91439182505319,-77.0322259415902,38.91439182505319]},"properties":{"OBJECTID":23,"NAME":"BB&T - U Street","ADDRESS":"1804 14TH ST NW","ZIPCODE":"20009","ADDRESS_ID":240081,"Y":138502.54,"X":397205.36,"DIFFX":0,"DIFFY":0}},{"type":"Feature","id":24,"geometry":{"type":"Point","coordinates":[-77.04243628127286,38.90286949914021],"bbox":[-77.04243628127286,38.90286949914021,-77.04243628127286,38.90286949914021]},"properties":{"OBJECTID":24,"NAME":"Amalgamated Bank","ADDRESS":"1825 K STREET NW","ZIPCODE":"20006","ADDRESS_ID":240969,"Y":137223.83000000002,"X":396319.26,"DIFFX":0,"DIFFY":0}},{"type":"Feature","id":25,"geometry":{"type":"Point","coordinates":[-77.03052293750412,38.902933665347966],"bbox":[-77.03052293750412,38.902933665347966,-77.03052293750412,38.902933665347966]},"properties":{"OBJECTID":25,"NAME":"American Bank, FSB","ADDRESS":"1301 K STREET NW","ZIPCODE":"20005","ADDRESS_ID":240647,"Y":137230.54,"X":397352.63,"DIFFX":0,"DIFFY":0}},{"type":"Feature","id":26,"geometry":{"type":"Point","coordinates":[-77.03983206311317,38.90161447089871],"bbox":[-77.03983206311317,38.90161447089871,-77.03983206311317,38.90161447089871]},"properties":{"OBJECTID":26,"NAME":"Asian Development Bank ","ADDRESS":"900 17TH STREET NW","ZIPCODE":"20006","ADDRESS_ID":279977,"Y":137084.41,"X":396545.09,"DIFFX":0,"DIFFY":0}},{"type":"Feature","id":27,"geometry":{"type":"Point","coordinates":[-77.03391171194819,38.8991321040158],"bbox":[-77.03391171194819,38.8991321040158,-77.03391171194819,38.8991321040158]},"properties":{"OBJECTID":27,"NAME":"Bank of America - 15th and Pennsylvania Avenue","ADDRESS":"1501 PENNSYLVANIA AVENUE NW","ZIPCODE":"20005","ADDRESS_ID":279202,"Y":136808.64,"X":397058.53,"DIFFX":0,"DIFFY":0}},{"type":"Feature","id":28,"geometry":{"type":"Point","coordinates":[-77.04533394621778,38.90168074873736],"bbox":[-77.04533394621778,38.90168074873736,-77.04533394621778,38.90168074873736]},"properties":{"OBJECTID":28,"NAME":"Bank of America - 2001 Pennsylvania Avenue","ADDRESS":"2001 PENNSYLVANIA AVENUE NW","ZIPCODE":"20006","ADDRESS_ID":243321,"Y":137091.99,"X":396067.85000000003,"DIFFX":0,"DIFFY":0}},{"type":"Feature","id":29,"geometry":{"type":"Point","coordinates":[-77.0437685041801,38.921610051006354],"bbox":[-77.0437685041801,38.921610051006354,-77.0437685041801,38.921610051006354]},"properties":{"OBJECTID":29,"NAME":"Bank of America - Adams Morgan","ADDRESS":"1835 COLUMBIA ROAD NW","ZIPCODE":"20009","ADDRESS_ID":295012,"Y":139304.24,"X":396204.7,"DIFFX":0,"DIFFY":0}},{"type":"Feature","id":30,"geometry":{"type":"Point","coordinates":[-76.98924004501605,38.86544569930964],"bbox":[-76.98924004501605,38.86544569930964,-76.98924004501605,38.86544569930964]},"properties":{"OBJECTID":30,"NAME":"Bank of America - Anacostia","ADDRESS":"2100 MARTIN LUTHER KING JR AVENUE SE","ZIPCODE":"20020","ADDRESS_ID":51883,"Y":133068.7,"X":400934.01,"DIFFX":0,"DIFFY":0}},{"type":"Feature","id":31,"geometry":{"type":"Point","coordinates":[-77.00327697495044,38.88729268411995],"bbox":[-77.00327697495044,38.88729268411995,-77.00327697495044,38.88729268411995]},"properties":{"OBJECTID":31,"NAME":"Bank of America - Capitol Hill","ADDRESS":"201 PENNSYLVANIA AVENUE SE","ZIPCODE":"20003","ADDRESS_ID":52920,"Y":135493.83000000002,"X":399715.89,"DIFFX":0,"DIFFY":0}},{"type":"Feature","id":32,"geometry":{"type":"Point","coordinates":[-77.05756542731017,38.934687295931326],"bbox":[-77.05756542731017,38.934687295931326,-77.05756542731017,38.934687295931326]},"properties":{"OBJECTID":32,"NAME":"Bank of America - Cleveland Park","ADDRESS":"3401 CONNECTICUT AVENUE NW","ZIPCODE":"20008","ADDRESS_ID":275650,"Y":140756.59,"X":395009.18,"DIFFX":0,"DIFFY":0}},{"type":"Feature","id":33,"geometry":{"type":"Point","coordinates":[-77.03298601467985,38.929308227973344],"bbox":[-77.03298601467985,38.929308227973344,-77.03298601467985,38.929308227973344]},"properties":{"OBJECTID":33,"NAME":"Bank of America - Columbia Heights","ADDRESS":"3100 14TH STREET NW","ZIPCODE":"20010","ADDRESS_ID":306304,"Y":140158.41,"X":397140.04000000004,"DIFFX":0,"DIFFY":0}},{"type":"Feature","id":34,"geometry":{"type":"Point","coordinates":[-77.04445361337713,38.90923459062185],"bbox":[-77.04445361337713,38.90923459062185,-77.04445361337713,38.90923459062185]},"properties":{"OBJECTID":34,"NAME":"Bank of America - Dupont Circle","ADDRESS":"3 DUPONT CIRCLE NW","ZIPCODE":"20036","ADDRESS_ID":302539,"Y":137930.49,"X":396144.62,"DIFFX":0,"DIFFY":0}},{"type":"Feature","id":35,"geometry":{"type":"Point","coordinates":[-77.03977286498989,38.90109849226735],"bbox":[-77.03977286498989,38.90109849226735,-77.03977286498989,38.90109849226735]},"properties":{"OBJECTID":35,"NAME":"Bank of America - Farragut Square","ADDRESS":"888 17TH STREET NW","ZIPCODE":"20006","ADDRESS_ID":218778,"Y":137027.13,"X":396550.2,"DIFFX":0,"DIFFY":0}},{"type":"Feature","id":36,"geometry":{"type":"Point","coordinates":[-77.08358042447891,38.95724707541395],"bbox":[-77.08358042447891,38.95724707541395,-77.08358042447891,38.95724707541395]},"properties":{"OBJECTID":36,"NAME":"Bank of America - Friendship Heights","ADDRESS":"5201 WISCONSIN AVENUE NW","ZIPCODE":"20015","ADDRESS_ID":274083,"Y":143262.67,"X":392755.93,"DIFFX":0,"DIFFY":0}},{"type":"Feature","id":37,"geometry":{"type":"Point","coordinates":[-77.06330073665629,38.90780627379832],"bbox":[-77.06330073665629,38.90780627379832,-77.06330073665629,38.90780627379832]},"properties":{"OBJECTID":37,"NAME":"Bank of America - Georgetown","ADDRESS":"1339 WISCONSIN AVENUE NW","ZIPCODE":"20007","ADDRESS_ID":223694,"Y":137772.9,"X":394509.85000000003,"DIFFX":0,"DIFFY":0}},{"type":"Feature","id":38,"geometry":{"type":"Point","coordinates":[-77.02413750845867,38.93312099531168],"bbox":[-77.02413750845867,38.93312099531168,-77.02413750845867,38.93312099531168]},"properties":{"OBJECTID":38,"NAME":"Bank of America - Georgia Avenue","ADDRESS":"3500 GEORGIA AVENUE NW","ZIPCODE":"20010","ADDRESS_ID":232241,"Y":140581.42,"X":397907.39,"DIFFX":0,"DIFFY":0}},{"type":"Feature","id":39,"geometry":{"type":"Point","coordinates":[-77.04204265731188,38.90300485689319],"bbox":[-77.04204265731188,38.90300485689319,-77.04204265731188,38.90300485689319]},"properties":{"OBJECTID":39,"NAME":"Bank of America - K Street","ADDRESS":"1801 K STREET NW","ZIPCODE":"20006","ADDRESS_ID":279398,"Y":137238.84,"X":396353.41000000003,"DIFFX":0,"DIFFY":0}},{"type":"Feature","id":40,"geometry":{"type":"Point","coordinates":[-77.0300019228716,38.898741490007765],"bbox":[-77.0300019228716,38.898741490007765,-77.0300019228716,38.898741490007765]},"properties":{"OBJECTID":40,"NAME":"Bank of America - Metro Center","ADDRESS":"700 13TH STREET NW","ZIPCODE":"20005","ADDRESS_ID":240654,"Y":136765.16,"X":397397.67,"DIFFX":0,"DIFFY":0}},{"type":"Feature","id":41,"geometry":{"type":"Point","coordinates":[-76.95066854364106,38.89246789609231],"bbox":[-76.95066854364106,38.89246789609231,-76.95066854364106,38.89246789609231]},"properties":{"OBJECTID":41,"NAME":"Bank of America - Minnesota Avenue","ADDRESS":"3821 MINNESOTA AVENUE NE","ZIPCODE":"20019","ADDRESS_ID":30095,"Y":136069.47,"X":404279.85000000003,"DIFFX":0,"DIFFY":0}},{"type":"Feature","id":42,"geometry":{"type":"Point","coordinates":[-77.03739672985046,38.92964200900677],"bbox":[-77.03739672985046,38.92964200900677,-77.03739672985046,38.92964200900677]},"properties":{"OBJECTID":42,"NAME":"Bank of America - Mount Pleasant","ADDRESS":"3131 MOUNT PLEASANT STREET NW","ZIPCODE":"20010","ADDRESS_ID":284590,"Y":140195.61000000002,"X":396757.61,"DIFFX":0,"DIFFY":0}},{"type":"Feature","id":43,"geometry":{"type":"Point","coordinates":[-77.02546906096528,38.90278371629783],"bbox":[-77.02546906096528,38.90278371629783,-77.02546906096528,38.90278371629783]},"properties":{"OBJECTID":43,"NAME":"Bank of America - Mt Vernon Square","ADDRESS":"901 K STREET NW","ZIPCODE":"20001","ADDRESS_ID":306492,"Y":137213.76,"X":397791,"DIFFX":0,"DIFFY":0}},{"type":"Feature","id":44,"geometry":{"type":"Point","coordinates":[-76.9951863526649,38.90040530472839],"bbox":[-76.9951863526649,38.90040530472839,-76.9951863526649,38.90040530472839]},"properties":{"OBJECTID":44,"NAME":"Bank of America - Northeast","ADDRESS":"722 H STREET NE","ZIPCODE":"20002","ADDRESS_ID":149093,"Y":136949.44,"X":400417.75,"DIFFX":0,"DIFFY":0}},{"type":"Feature","id":45,"geometry":{"type":"Point","coordinates":[-77.02650745573378,38.89505440042805],"bbox":[-77.02650745573378,38.89505440042805,-77.02650745573378,38.89505440042805]},"properties":{"OBJECTID":45,"NAME":"Bank of America - Pennsylvania Avenue","ADDRESS":"1001 PENNSYLVANIA AVENUE NW","ZIPCODE":"20004","ADDRESS_ID":239376,"Y":136355.77,"X":397700.68,"DIFFX":0,"DIFFY":0}},{"type":"Feature","id":46,"geometry":{"type":"Point","coordinates":[-76.99317329997865,38.921967571992596],"bbox":[-76.99317329997865,38.921967571992596,-76.99317329997865,38.921967571992596]},"properties":{"OBJECTID":46,"NAME":"Bank of America - Rhode Island Avenue","ADDRESS":"915 RHODE ISLAND AVENUE NE","ZIPCODE":"20018","ADDRESS_ID":82316,"Y":139343.04,"X":400592.19,"DIFFX":0,"DIFFY":0}},{"type":"Feature","id":47,"geometry":{"type":"Point","coordinates":[-77.06263695166281,38.94347705639947],"bbox":[-77.06263695166281,38.94347705639947,-77.06263695166281,38.94347705639947]},"properties":{"OBJECTID":47,"NAME":"Bank of America - Van Ness","ADDRESS":"4201 CONNECTICUT AVENUE NW","ZIPCODE":"20008","ADDRESS_ID":220631,"Y":141732.62,"X":394570.14,"DIFFX":0,"DIFFY":0}},{"type":"Feature","id":48,"geometry":{"type":"Point","coordinates":[-77.03365239737401,38.903427454583834],"bbox":[-77.03365239737401,38.903427454583834,-77.03365239737401,38.903427454583834]},"properties":{"OBJECTID":48,"NAME":"Bank of America - Vermont Avenue","ADDRESS":"1090 VERMONT AVENUE NW","ZIPCODE":"20005","ADDRESS_ID":240259,"Y":137285.45,"X":397081.2,"DIFFX":0,"DIFFY":0}},{"type":"Feature","id":49,"geometry":{"type":"Point","coordinates":[-77.00699215244485,38.87626345969587],"bbox":[-77.00699215244485,38.87626345969587,-77.00699215244485,38.87626345969587]},"properties":{"OBJECTID":49,"NAME":"Bank of America - Waterfront","ADDRESS":"55 M STREET SE","ZIPCODE":"20003","ADDRESS_ID":306664,"Y":134269.52,"X":399393.47000000003,"DIFFX":0,"DIFFY":0}},{"type":"Feature","id":50,"geometry":{"type":"Point","coordinates":[-77.03973726698472,38.90403991310637],"bbox":[-77.03973726698472,38.90403991310637,-77.03973726698472,38.90403991310637]},"properties":{"OBJECTID":50,"NAME":"Bank of Georgetown - Connecticut Avenue Branch","ADDRESS":"1101 CONNECTICUT AVENUE NW","ZIPCODE":"20036","ADDRESS_ID":241795,"Y":137353.65,"X":396553.43,"DIFFX":0,"DIFFY":0}},{"type":"Feature","id":51,"geometry":{"type":"Point","coordinates":[-77.03129994386212,38.90103539879858],"bbox":[-77.03129994386212,38.90103539879858,-77.03129994386212,38.90103539879858]},"properties":{"OBJECTID":51,"NAME":"Bank of Georgetown - Franklin Square Branch","ADDRESS":"1350 I STREET NW","ZIPCODE":"20005","ADDRESS_ID":240651,"Y":137019.84,"X":397285.16000000003,"DIFFX":0,"DIFFY":0}},{"type":"Feature","id":52,"geometry":{"type":"Point","coordinates":[-77.06245364642196,38.90277898725167],"bbox":[-77.06245364642196,38.90277898725167,-77.06245364642196,38.90277898725167]},"properties":{"OBJECTID":52,"NAME":"Bank of Georgetown - Georgetown Branch","ADDRESS":"1001 WISCONSIN AVENUE NW","ZIPCODE":"20007","ADDRESS_ID":295206,"Y":137214.78,"X":394582.94,"DIFFX":0,"DIFFY":0}},{"type":"Feature","id":53,"geometry":{"type":"Point","coordinates":[-77.02339098961956,38.896003827384696],"bbox":[-77.02339098961956,38.896003827384696,-77.02339098961956,38.896003827384696]},"properties":{"OBJECTID":53,"NAME":"Bank of Georgetown - Penn Quarter Branch","ADDRESS":"822 E STREET NW","ZIPCODE":"20004","ADDRESS_ID":301061,"Y":136461.09,"X":397971.06,"DIFFX":0,"DIFFY":0}},{"type":"Feature","id":54,"geometry":{"type":"Point","coordinates":[-77.03066269532367,38.91721761993415],"bbox":[-77.03066269532367,38.91721761993415,-77.03066269532367,38.91721761993415]},"properties":{"OBJECTID":54,"NAME":"Bank of Georgetown - U Street Ellington Plaza Branch","ADDRESS":"1301 U STREET NW","ZIPCODE":"20009","ADDRESS_ID":297578,"Y":138816.18,"X":397341.04000000004,"DIFFX":0,"DIFFY":0}},{"type":"Feature","id":55,"geometry":{"type":"Point","coordinates":[-77.04244564819227,38.92306610408237],"bbox":[-77.04244564819227,38.92306610408237,-77.04244564819227,38.92306610408237]},"properties":{"OBJECTID":55,"NAME":"BB&T - Adams Morgan","ADDRESS":"1801 ADAMS MILL ROAD NW","ZIPCODE":"20009","ADDRESS_ID":218493,"Y":139465.82,"X":396319.49,"DIFFX":0,"DIFFY":0}},{"type":"Feature","id":56,"geometry":{"type":"Point","coordinates":[-77.00145652065187,38.88653745836227],"bbox":[-77.00145652065187,38.88653745836227,-77.00145652065187,38.88653745836227]},"properties":{"OBJECTID":56,"NAME":"BB&T - Capitol Hill","ADDRESS":"317 PENNSYLVANIA AVENUE SE","ZIPCODE":"20003","ADDRESS_ID":278338,"Y":135409.99,"X":399873.83,"DIFFX":0,"DIFFY":0}},{"type":"Feature","id":57,"geometry":{"type":"Point","coordinates":[-77.03962107781088,38.90594675065987],"bbox":[-77.03962107781088,38.90594675065987,-77.03962107781088,38.90594675065987]},"properties":{"OBJECTID":57,"NAME":"BB&T - Connecticut Avenue","ADDRESS":"1730 RHODE ISLAND AVENUE NW","ZIPCODE":"20036","ADDRESS_ID":241782,"Y":137565.32,"X":396563.60000000003,"DIFFX":0,"DIFFY":0}},{"type":"Feature","id":58,"geometry":{"type":"Point","coordinates":[-77.03797978802966,38.90096891819152],"bbox":[-77.03797978802966,38.90096891819152,-77.03797978802966,38.90096891819152]},"properties":{"OBJECTID":58,"NAME":"BB&T - Farragut Square","ADDRESS":"815 CONNECTICUT AVENUE NW","ZIPCODE":"20006","ADDRESS_ID":218768,"Y":137012.68,"X":396705.73,"DIFFX":0,"DIFFY":0}},{"type":"Feature","id":59,"geometry":{"type":"Point","coordinates":[-77.08429125258776,38.95725151964651],"bbox":[-77.08429125258776,38.95725151964651,-77.08429125258776,38.95725151964651]},"properties":{"OBJECTID":59,"NAME":"BB&T - Friendship Heights","ADDRESS":"5200 WISCONSIN AVENUE NW","ZIPCODE":"20015","ADDRESS_ID":265898,"Y":143263.22,"X":392694.32,"DIFFX":0,"DIFFY":0}},{"type":"Feature","id":60,"geometry":{"type":"Point","coordinates":[-77.02074218456806,38.89955560508149],"bbox":[-77.02074218456806,38.89955560508149,-77.02074218456806,38.89955560508149]},"properties":{"OBJECTID":60,"NAME":"BB&T - Gallery Place","ADDRESS":"614 H STREET NW","ZIPCODE":"20001","ADDRESS_ID":295092,"Y":136855.31,"X":398200.93,"DIFFX":0,"DIFFY":0}},{"type":"Feature","id":61,"geometry":{"type":"Point","coordinates":[-77.06356000767988,38.908294025239684],"bbox":[-77.06356000767988,38.908294025239684,-77.06356000767988,38.908294025239684]},"properties":{"OBJECTID":61,"NAME":"BB&T - Georgetown","ADDRESS":"1365 WISCONSIN AVENUE NW","ZIPCODE":"20007","ADDRESS_ID":223699,"Y":137827.06,"X":394487.4,"DIFFX":0,"DIFFY":0}},{"type":"Feature","id":62,"geometry":{"type":"Point","coordinates":[-77.0009575146668,38.90036261016465],"bbox":[-77.0009575146668,38.90036261016465,-77.0009575146668,38.90036261016465]},"properties":{"OBJECTID":62,"NAME":"BB&T - H Street","ADDRESS":"360 H STREET NE","ZIPCODE":"20002","ADDRESS_ID":308512,"Y":136944.69,"X":399917.14,"DIFFX":0,"DIFFY":0}},{"type":"Feature","id":63,"geometry":{"type":"Point","coordinates":[-77.04408634623917,38.90281745037971],"bbox":[-77.04408634623917,38.90281745037971,-77.04408634623917,38.90281745037971]},"properties":{"OBJECTID":63,"NAME":"BB&T - K Street Main","ADDRESS":"1909 K STREET NW","ZIPCODE":"20006","ADDRESS_ID":243209,"Y":137218.12,"X":396176.13,"DIFFX":0,"DIFFY":0}},{"type":"Feature","id":64,"geometry":{"type":"Point","coordinates":[-77.03242970011328,38.928876254909824],"bbox":[-77.03242970011328,38.928876254909824,-77.03242970011328,38.928876254909824]},"properties":{"OBJECTID":64,"NAME":"BB&T - Kenyon Square","ADDRESS":"3101 14TH STREET NW","ZIPCODE":"20010","ADDRESS_ID":294813,"Y":140110.44,"X":397188.26,"DIFFX":0,"DIFFY":0}},{"type":"Feature","id":65,"geometry":{"type":"Point","coordinates":[-77.02926284281422,38.89784858833426],"bbox":[-77.02926284281422,38.89784858833426,-77.02926284281422,38.89784858833426]},"properties":{"OBJECTID":65,"NAME":"BB&T - Metro Center","ADDRESS":"601 13TH STREET NW","ZIPCODE":"20005","ADDRESS_ID":240933,"Y":136666.02,"X":397461.75,"DIFFX":0,"DIFFY":0}},{"type":"Feature","id":66,"geometry":{"type":"Point","coordinates":[-77.02669467696259,38.901566773940104],"bbox":[-77.02669467696259,38.901566773940104,-77.02669467696259,38.901566773940104]},"properties":{"OBJECTID":66,"NAME":"BB&T - New York Avenue","ADDRESS":"1099 NEW YORK AVENUE NW","ZIPCODE":"20001","ADDRESS_ID":306169,"Y":137078.7,"X":397684.65,"DIFFX":0,"DIFFY":0}},{"type":"Feature","id":67,"geometry":{"type":"Point","coordinates":[-77.04136516382002,38.901098209546674],"bbox":[-77.04136516382002,38.901098209546674,-77.04136516382002,38.901098209546674]},"properties":{"OBJECTID":67,"NAME":"Capital Bank","ADDRESS":"1776 I STREET NW","ZIPCODE":"20006","ADDRESS_ID":218481,"Y":137027.16,"X":396412.08,"DIFFX":0,"DIFFY":0}},{"type":"Feature","id":68,"geometry":{"type":"Point","coordinates":[-77.03983549359953,38.90218352770895],"bbox":[-77.03983549359953,38.90218352770895,-77.03983549359953,38.90218352770895]},"properties":{"OBJECTID":68,"NAME":"Capital One Bank - 1700 K Street","ADDRESS":"1700 K STREET NW","ZIPCODE":"20006","ADDRESS_ID":243334,"Y":137147.58000000002,"X":396544.82,"DIFFX":0,"DIFFY":0}},{"type":"Feature","id":69,"geometry":{"type":"Point","coordinates":[-77.03888748421524,38.90405587360212],"bbox":[-77.03888748421524,38.90405587360212,-77.03888748421524,38.90405587360212]},"properties":{"OBJECTID":69,"NAME":"Capital One Bank - 17th and L","ADDRESS":"1100 17TH STREET NW","ZIPCODE":"20036","ADDRESS_ID":241793,"Y":137355.39,"X":396627.14,"DIFFX":0,"DIFFY":0}},{"type":"Feature","id":70,"geometry":{"type":"Point","coordinates":[-77.0422396805165,38.90533767938724],"bbox":[-77.0422396805165,38.90533767938724,-77.0422396805165,38.90533767938724]},"properties":{"OBJECTID":70,"NAME":"Capital One Bank - 18th and M","ADDRESS":"1800 M STREET NW","ZIPCODE":"20036","ADDRESS_ID":241302,"Y":137497.81,"X":396336.44,"DIFFX":0,"DIFFY":0}},{"type":"Feature","id":71,"geometry":{"type":"Point","coordinates":[-77.0252666944609,38.90202336484941],"bbox":[-77.0252666944609,38.90202336484941,-77.0252666944609,38.90202336484941]},"properties":{"OBJECTID":71,"NAME":"Capital One Bank - 901 New York Avenue","ADDRESS":"901 NEW YORK AVENUE NW","ZIPCODE":"20001","ADDRESS_ID":300397,"Y":137129.35,"X":397808.53,"DIFFX":0,"DIFFY":0}},{"type":"Feature","id":72,"geometry":{"type":"Point","coordinates":[-77.08841713128702,38.93908921390882],"bbox":[-77.08841713128702,38.93908921390882,-77.08841713128702,38.93908921390882]},"properties":{"OBJECTID":72,"NAME":"Capital One Bank - American University","ADDRESS":"4400 MASSACHUSETTS AVENUE NW","ZIPCODE":"20016","ADDRESS_ID":223994,"Y":141247.38,"X":392334.76,"DIFFX":0,"DIFFY":0}},{"type":"Feature","id":73,"geometry":{"type":"Point","coordinates":[-76.96756957303384,38.858614120177116],"bbox":[-76.96756957303384,38.858614120177116,-76.96756957303384,38.858614120177116]},"properties":{"OBJECTID":73,"NAME":"Capital One Bank - Anacostia","ADDRESS":"2831 ALABAMA AVENUE SE","ZIPCODE":"20020","ADDRESS_ID":278276,"Y":132310.79,"X":402814.97000000003,"DIFFX":0,"DIFFY":0}},{"type":"Feature","id":74,"geometry":{"type":"Point","coordinates":[-77.00076092862396,38.8868437499492],"bbox":[-77.00076092862396,38.8868437499492,-77.00076092862396,38.8868437499492]},"properties":{"OBJECTID":74,"NAME":"Capital One Bank - Capitol Hill","ADDRESS":"336 PENNSYLVANIA AVENUE SE","ZIPCODE":"20003","ADDRESS_ID":300706,"Y":135443.99,"X":399934.18,"DIFFX":0,"DIFFY":0}},{"type":"Feature","id":75,"geometry":{"type":"Point","coordinates":[-77.07675051138676,38.96627650215412],"bbox":[-77.07675051138676,38.96627650215412,-77.07675051138676,38.96627650215412]},"properties":{"OBJECTID":75,"NAME":"Capital One Bank - Chevy Chase Circle","ADDRESS":"5714 CONNECTICUT AVENUE NW","ZIPCODE":"20015","ADDRESS_ID":285262,"Y":144264.5,"X":393348.75,"DIFFX":0,"DIFFY":0}},{"type":"Feature","id":76,"geometry":{"type":"Point","coordinates":[-77.05837158858641,38.936314606385224],"bbox":[-77.05837158858641,38.936314606385224,-77.05837158858641,38.936314606385224]},"properties":{"OBJECTID":76,"NAME":"Capital One Bank - Cleveland Park","ADDRESS":"3519 CONNECTICUT AVENUE NW","ZIPCODE":"20008","ADDRESS_ID":295765,"Y":140937.28,"X":394939.4,"DIFFX":0,"DIFFY":0}},{"type":"Feature","id":77,"geometry":{"type":"Point","coordinates":[-77.02842462182342,38.897191815272414],"bbox":[-77.02842462182342,38.897191815272414,-77.02842462182342,38.897191815272414]},"properties":{"OBJECTID":77,"NAME":"Capital One Bank - Columbia Square/12th and F Streets","ADDRESS":"1200 F STREET NW","ZIPCODE":"20004","ADDRESS_ID":300895,"Y":136593.09,"X":397534.44,"DIFFX":0,"DIFFY":0}},{"type":"Feature","id":78,"geometry":{"type":"Point","coordinates":[-77.02740709565835,38.895163464315004],"bbox":[-77.02740709565835,38.895163464315004,-77.02740709565835,38.895163464315004]},"properties":{"OBJECTID":78,"NAME":"Citibank ","ADDRESS":"1101 PENNSYLVANIA AVENUE NW","ZIPCODE":"20004","ADDRESS_ID":242893,"Y":136367.9,"X":397622.64,"DIFFX":null,"DIFFY":null}},{"type":"Feature","id":79,"geometry":{"type":"Point","coordinates":[-77.0039444585427,38.87695905072511],"bbox":[-77.0039444585427,38.87695905072511,-77.0039444585427,38.87695905072511]},"properties":{"OBJECTID":79,"NAME":"Capital One Bank - Federal Gateway Plaza","ADDRESS":"1100 NEW JERSEY AVENUE SE","ZIPCODE":"20003","ADDRESS_ID":285822,"Y":134346.72,"X":399657.93,"DIFFX":0,"DIFFY":0}},{"type":"Feature","id":80,"geometry":{"type":"Point","coordinates":[-77.0646083852759,38.910199526447336],"bbox":[-77.0646083852759,38.910199526447336,-77.0646083852759,38.910199526447336]},"properties":{"OBJECTID":80,"NAME":"Capital One Bank - Georgetown","ADDRESS":"1545 WISCONSIN AVENUE NW","ZIPCODE":"20007","ADDRESS_ID":223930,"Y":138038.65,"X":394396.62,"DIFFX":0,"DIFFY":0}},{"type":"Feature","id":81,"geometry":{"type":"Point","coordinates":[-77.02238230128947,38.894445937652996],"bbox":[-77.02238230128947,38.894445937652996,-77.02238230128947,38.894445937652996]},"properties":{"OBJECTID":81,"NAME":"Capital One Bank - Market Square","ADDRESS":"701 PENNSYLVANIA AVENUE NW","ZIPCODE":"20004","ADDRESS_ID":279889,"Y":136288.13,"X":398058.52,"DIFFX":0,"DIFFY":0}},{"type":"Feature","id":82,"geometry":{"type":"Point","coordinates":[-77.03329284409146,38.90200639928406],"bbox":[-77.03329284409146,38.90200639928406,-77.03329284409146,38.90200639928406]},"properties":{"OBJECTID":82,"NAME":"Capital One Bank - McPherson Square","ADDRESS":"925 15TH STREET NW","ZIPCODE":"20005","ADDRESS_ID":218798,"Y":137127.69,"X":397112.33,"DIFFX":0,"DIFFY":0}},{"type":"Feature","id":83,"geometry":{"type":"Point","coordinates":[-77.01870038554635,38.90331063348326],"bbox":[-77.01870038554635,38.90331063348326,-77.01870038554635,38.90331063348326]},"properties":{"OBJECTID":83,"NAME":"Capital One Bank - Mt Vernon Triangle/City VISTA","ADDRESS":"1075 5TH STREET NW","ZIPCODE":"20001","ADDRESS_ID":305164,"Y":137272.11000000002,"X":398378.13,"DIFFX":0,"DIFFY":0}},{"type":"Feature","id":84,"geometry":{"type":"Point","coordinates":[-77.04428485649683,38.910223861131755],"bbox":[-77.04428485649683,38.910223861131755,-77.04428485649683,38.910223861131755]},"properties":{"OBJECTID":84,"NAME":"PNC Bank, NA - Dupont Circle","ADDRESS":"1913 MASSACHUSETTS AVENUE NW","ZIPCODE":"20036","ADDRESS_ID":300942,"Y":138040.3,"X":396159.31,"DIFFX":0,"DIFFY":0}},{"type":"Feature","id":85,"geometry":{"type":"Point","coordinates":[-77.06253974374982,38.905384067605965],"bbox":[-77.06253974374982,38.905384067605965,-77.06253974374982,38.905384067605965]},"properties":{"OBJECTID":85,"NAME":"PNC Bank, NA - Georgetown F&M","ADDRESS":"1201 WISCONSIN AVENUE NW","ZIPCODE":"20007","ADDRESS_ID":272025,"Y":137503.97,"X":394575.67,"DIFFX":0,"DIFFY":0}},{"type":"Feature","id":86,"geometry":{"type":"Point","coordinates":[-77.02738352745786,38.89953162601445],"bbox":[-77.02738352745786,38.89953162601445,-77.02738352745786,38.89953162601445]},"properties":{"OBJECTID":86,"NAME":"PNC Bank, NA - H Street","ADDRESS":"1100 H STREET NW","ZIPCODE":"20005","ADDRESS_ID":239128,"Y":136852.8,"X":397624.83,"DIFFX":0,"DIFFY":0}},{"type":"Feature","id":87,"geometry":{"type":"Point","coordinates":[-77.02050371595686,38.893306903845854],"bbox":[-77.02050371595686,38.893306903845854,-77.02050371595686,38.893306903845854]},"properties":{"OBJECTID":87,"NAME":"PNC Bank, NA - Judiciary Square","ADDRESS":"601 PENNSYLVANIA AVENUE NW","ZIPCODE":"20004","ADDRESS_ID":226088,"Y":136161.65,"X":398221.46,"DIFFX":0,"DIFFY":0}},{"type":"Feature","id":88,"geometry":{"type":"Point","coordinates":[-77.03137409653789,38.89637517260673],"bbox":[-77.03137409653789,38.89637517260673,-77.03137409653789,38.89637517260673]},"properties":{"OBJECTID":88,"NAME":"PNC Bank, NA - National Place","ADDRESS":"1331 PENNSYLVANIA AVENUE NW","ZIPCODE":"20004","ADDRESS_ID":279081,"Y":136502.52,"X":397278.55,"DIFFX":0,"DIFFY":0}},{"type":"Feature","id":89,"geometry":{"type":"Point","coordinates":[-76.99882693365323,38.910092168694156],"bbox":[-76.99882693365323,38.910092168694156,-76.99882693365323,38.910092168694156]},"properties":{"OBJECTID":89,"NAME":"PNC Bank, NA - Northeast","ADDRESS":"1348 4TH STREET NE","ZIPCODE":"20002","ADDRESS_ID":286090,"Y":138024.75,"X":400101.94,"DIFFX":0,"DIFFY":0}},{"type":"Feature","id":90,"geometry":{"type":"Point","coordinates":[-77.03298470112703,38.930457598800835],"bbox":[-77.03298470112703,38.930457598800835,-77.03298470112703,38.930457598800835]},"properties":{"OBJECTID":90,"NAME":"PNC Bank, NA - Park Road","ADDRESS":"3300 14TH STREET NW","ZIPCODE":"20010","ADDRESS_ID":234465,"Y":140286,"X":397140.2,"DIFFX":0,"DIFFY":0}},{"type":"Feature","id":91,"geometry":{"type":"Point","coordinates":[-77.0397447415984,38.9004882755417],"bbox":[-77.0397447415984,38.9004882755417,-77.0397447415984,38.9004882755417]},"properties":{"OBJECTID":91,"NAME":"PNC Bank, NA - PNC Place","ADDRESS":"800 17TH STREET NW","ZIPCODE":"20006","ADDRESS_ID":218758,"Y":136959.39,"X":396552.61,"DIFFX":0,"DIFFY":0}},{"type":"Feature","id":92,"geometry":{"type":"Point","coordinates":[-77.02627759114648,38.98171182625396],"bbox":[-77.02627759114648,38.98171182625396,-77.02627759114648,38.98171182625396]},"properties":{"OBJECTID":92,"NAME":"PNC Bank, NA - Shepherd Park","ADDRESS":"7601 GEORGIA AVENUE NW","ZIPCODE":"20012","ADDRESS_ID":253715,"Y":145975.5,"X":397723.39,"DIFFX":0,"DIFFY":0}},{"type":"Feature","id":93,"geometry":{"type":"Point","coordinates":[-77.00736145463998,38.829955138207396],"bbox":[-77.00736145463998,38.829955138207396,-77.00736145463998,38.829955138207396]},"properties":{"OBJECTID":93,"NAME":"PNC Bank, NA - Southeast","ADDRESS":"4100 SOUTH CAPITOL STREET SE","ZIPCODE":"20032","ADDRESS_ID":27051,"Y":129128.97,"X":399361.01,"DIFFX":0,"DIFFY":0}},{"type":"Feature","id":94,"geometry":{"type":"Point","coordinates":[-77.09549506886778,38.945296125945696],"bbox":[-77.09549506886778,38.945296125945696,-77.09549506886778,38.945296125945696]},"properties":{"OBJECTID":94,"NAME":"PNC Bank, NA - Spring Valley","ADDRESS":"4835 MASSACHUSETTS AVENUE NW","ZIPCODE":"20016","ADDRESS_ID":269570,"Y":141937.02,"X":391721.85000000003,"DIFFX":0,"DIFFY":0}},{"type":"Feature","id":95,"geometry":{"type":"Point","coordinates":[-77.05351618100278,38.90401171268535],"bbox":[-77.05351618100278,38.90401171268535,-77.05351618100278,38.90401171268535]},"properties":{"OBJECTID":95,"NAME":"PNC Bank, NA - West End","ADDRESS":"1100 25TH STREET NW","ZIPCODE":"20037","ADDRESS_ID":274069,"Y":137351.13,"X":395358.26,"DIFFX":0,"DIFFY":0}},{"type":"Feature","id":96,"geometry":{"type":"Point","coordinates":[-77.08514853965073,38.958745189604876],"bbox":[-77.08514853965073,38.958745189604876,-77.08514853965073,38.958745189604876]},"properties":{"OBJECTID":96,"NAME":"PNC Bank, NA - Wisconsin and Jenifer","ADDRESS":"5252 WISCONSIN AVENUE NW","ZIPCODE":"20015","ADDRESS_ID":265899,"Y":143429.1,"X":392620.17,"DIFFX":0,"DIFFY":0}},{"type":"Feature","id":97,"geometry":{"type":"Point","coordinates":[-77.04113134066105,38.90464875567813],"bbox":[-77.04113134066105,38.90464875567813,-77.04113134066105,38.90464875567813]},"properties":{"OBJECTID":97,"NAME":"Premier Bank - Corporate and Lending Offices","ADDRESS":"1130 CONNECTICUT AVENUE NW","ZIPCODE":"20036","ADDRESS_ID":241787,"Y":137421.29,"X":396432.54000000004,"DIFFX":0,"DIFFY":0}},{"type":"Feature","id":98,"geometry":{"type":"Point","coordinates":[-77.03874436183118,38.91139349130237],"bbox":[-77.03874436183118,38.91139349130237,-77.03874436183118,38.91139349130237]},"properties":{"OBJECTID":98,"NAME":"Premier Bank - Dupont Circle Office","ADDRESS":"1604 17TH STREET NW","ZIPCODE":"20009","ADDRESS_ID":241674,"Y":138169.92,"X":396639.9,"DIFFX":0,"DIFFY":0}},{"type":"Feature","id":99,"geometry":{"type":"Point","coordinates":[-77.03512046872042,38.902959849129196],"bbox":[-77.03512046872042,38.902959849129196,-77.03512046872042,38.902959849129196]},"properties":{"OBJECTID":99,"NAME":"Premier Bank - K Street Office","ADDRESS":"1501 K STREET NW","ZIPCODE":"20005","ADDRESS_ID":279201,"Y":137233.59,"X":396953.84,"DIFFX":0,"DIFFY":0}},{"type":"Feature","id":100,"geometry":{"type":"Point","coordinates":[-77.03781327727157,38.90219573046993],"bbox":[-77.03781327727157,38.90219573046993,-77.03781327727157,38.90219573046993]},"properties":{"OBJECTID":100,"NAME":"Presidential Bank, FSB","ADDRESS":"1660 K STREET NW","ZIPCODE":"20006","ADDRESS_ID":279290,"Y":137148.86000000002,"X":396720.23,"DIFFX":0,"DIFFY":0}},{"type":"Feature","id":101,"geometry":{"type":"Point","coordinates":[-77.00534259266857,38.87675990953741],"bbox":[-77.00534259266857,38.87675990953741,-77.00534259266857,38.87675990953741]},"properties":{"OBJECTID":101,"NAME":"SunTrust Bank - 100 M Street","ADDRESS":"100 M STREET SE","ZIPCODE":"20003","ADDRESS_ID":76100,"Y":134324.62,"X":399536.61,"DIFFX":0,"DIFFY":0}},{"type":"Feature","id":102,"geometry":{"type":"Point","coordinates":[-77.02915135610438,38.902895640066646],"bbox":[-77.02915135610438,38.902895640066646,-77.02915135610438,38.902895640066646]},"properties":{"OBJECTID":102,"NAME":"SunTrust Bank - 1275 K Street","ADDRESS":"1275 K STREET NW","ZIPCODE":"20005","ADDRESS_ID":243281,"Y":137226.28,"X":397471.60000000003,"DIFFX":0,"DIFFY":0}},{"type":"Feature","id":103,"geometry":{"type":"Point","coordinates":[-77.0428671762697,38.92216718971618],"bbox":[-77.0428671762697,38.92216718971618,-77.0428671762697,38.92216718971618]},"properties":{"OBJECTID":103,"NAME":"SunTrust Bank - Adams Morgan","ADDRESS":"1800 COLUMBIA ROAD NW","ZIPCODE":"20009","ADDRESS_ID":235413,"Y":139366.05,"X":396282.89,"DIFFX":0,"DIFFY":0}},{"type":"Feature","id":104,"geometry":{"type":"Point","coordinates":[-76.98568739715452,38.86714763780035],"bbox":[-76.98568739715452,38.86714763780035,-76.98568739715452,38.86714763780035]},"properties":{"OBJECTID":104,"NAME":"SunTrust Bank - Anacostia","ADDRESS":"1340 GOOD HOPE ROAD SE","ZIPCODE":"20020","ADDRESS_ID":66569,"Y":133257.67,"X":401242.3,"DIFFX":0,"DIFFY":0}},{"type":"Feature","id":105,"geometry":{"type":"Point","coordinates":[-77.00180289691502,38.88730289567067],"bbox":[-77.00180289691502,38.88730289567067,-77.00180289691502,38.88730289567067]},"properties":{"OBJECTID":105,"NAME":"SunTrust Bank - Capitol Hill","ADDRESS":"300 PENNSYLVANIA AVENUE SE","ZIPCODE":"20003","ADDRESS_ID":278302,"Y":135494.96,"X":399843.78,"DIFFX":0,"DIFFY":0}},{"type":"Feature","id":106,"geometry":{"type":"Point","coordinates":[-77.07271306807378,38.933277791777805],"bbox":[-77.07271306807378,38.933277791777805,-77.07271306807378,38.933277791777805]},"properties":{"OBJECTID":106,"NAME":"SunTrust Bank - Cathedral","ADDRESS":"3236 WISCONSIN AVENUE NW","ZIPCODE":"20016","ADDRESS_ID":284616,"Y":140601.06,"X":393695.73,"DIFFX":0,"DIFFY":0}},{"type":"Feature","id":107,"geometry":{"type":"Point","coordinates":[-77.04131342660789,38.905321615407836],"bbox":[-77.04131342660789,38.905321615407836,-77.04131342660789,38.905321615407836]},"properties":{"OBJECTID":107,"NAME":"SunTrust Bank - Connecticut and M","ADDRESS":"1150 CONNECTICUT AVENUE NW","ZIPCODE":"20036","ADDRESS_ID":241786,"Y":137495.99,"X":396416.78,"DIFFX":0,"DIFFY":0}},{"type":"Feature","id":108,"geometry":{"type":"Point","coordinates":[-77.07020832481527,38.95495047413548],"bbox":[-77.07020832481527,38.95495047413548,-77.07020832481527,38.95495047413548]},"properties":{"OBJECTID":108,"NAME":"SunTrust Bank - Connecticut and Nebraska","ADDRESS":"5000 CONNECTICUT AVENUE NW","ZIPCODE":"20008","ADDRESS_ID":285038,"Y":143006.75,"X":393914.75,"DIFFX":0,"DIFFY":0}},{"type":"Feature","id":109,"geometry":{"type":"Point","coordinates":[-77.04282138058284,38.90908467079433],"bbox":[-77.04282138058284,38.90908467079433,-77.04282138058284,38.90908467079433]},"properties":{"OBJECTID":109,"NAME":"SunTrust Bank - Dupont Circle","ADDRESS":"1369 CONNECTICUT AVENUE NW","ZIPCODE":"20036","ADDRESS_ID":241264,"Y":137913.78,"X":396286.18,"DIFFX":0,"DIFFY":0}},{"type":"Feature","id":110,"geometry":{"type":"Point","coordinates":[-77.03292432385963,38.89935993771018],"bbox":[-77.03292432385963,38.89935993771018,-77.03292432385963,38.89935993771018]},"properties":{"OBJECTID":110,"NAME":"SunTrust Bank - Fifteenth and New York","ADDRESS":"1445 NEW YORK AVENUE NW","ZIPCODE":"20005","ADDRESS_ID":218285,"Y":136833.9,"X":397144.19,"DIFFX":0,"DIFFY":0}},{"type":"Feature","id":111,"geometry":{"type":"Point","coordinates":[-77.08518407888248,38.933648437367026],"bbox":[-77.08518407888248,38.933648437367026,-77.08518407888248,38.933648437367026]},"properties":{"OBJECTID":111,"NAME":"SunTrust Bank - Foxhall Square","ADDRESS":"3301 NEW MEXICO AVENUE NW","ZIPCODE":"20016","ADDRESS_ID":223997,"Y":140643.14,"X":392614.49,"DIFFX":0,"DIFFY":0}},{"type":"Feature","id":112,"geometry":{"type":"Point","coordinates":[-77.05895538615363,38.90541989285898],"bbox":[-77.05895538615363,38.90541989285898,-77.05895538615363,38.90541989285898]},"properties":{"OBJECTID":112,"NAME":"SunTrust Bank - Georgetown","ADDRESS":"2929 M STREET NW","ZIPCODE":"20007","ADDRESS_ID":272083,"Y":137507.74,"X":394886.57,"DIFFX":0,"DIFFY":0}},{"type":"Feature","id":113,"geometry":{"type":"Point","coordinates":[-77.06756091263733,38.91612588552242],"bbox":[-77.06756091263733,38.91612588552242,-77.06756091263733,38.91612588552242]},"properties":{"OBJECTID":113,"NAME":"SunTrust Bank - Georgetown Safeway","ADDRESS":"1855 WISCONSIN AVENUE NW","ZIPCODE":"20007","ADDRESS_ID":224665,"Y":138696.71,"X":394141.03,"DIFFX":0,"DIFFY":0}},{"type":"Feature","id":114,"geometry":{"type":"Point","coordinates":[-76.97977232815262,38.90057508209077],"bbox":[-76.97977232815262,38.90057508209077,-76.97977232815262,38.90057508209077]},"properties":{"OBJECTID":114,"NAME":"SunTrust Bank - Hechinger Mall Safeway","ADDRESS":"1601 MARYLAND AVENUE NE","ZIPCODE":"20002","ADDRESS_ID":297814,"Y":136968.47,"X":401754.81,"DIFFX":0,"DIFFY":0}},{"type":"Feature","id":115,"geometry":{"type":"Point","coordinates":[-77.02511570764113,38.88444824487952],"bbox":[-77.02511570764113,38.88444824487952,-77.02511570764113,38.88444824487952]},"properties":{"OBJECTID":115,"NAME":"SunTrust Bank - Lenfant Plaza","ADDRESS":"965 LENFANT PLAZA SW","ZIPCODE":"20024","ADDRESS_ID":304542,"Y":135178.37,"X":397821.09,"DIFFX":0,"DIFFY":0}},{"type":"Feature","id":116,"geometry":{"type":"Point","coordinates":[-77.02730068727055,38.89814841133254],"bbox":[-77.02730068727055,38.89814841133254,-77.02730068727055,38.89814841133254]},"properties":{"OBJECTID":116,"NAME":"SunTrust Bank - Metro Center","ADDRESS":"1100 G STREET NW","ZIPCODE":"20005","ADDRESS_ID":303213,"Y":136699.25,"X":397631.97000000003,"DIFFX":0,"DIFFY":0}},{"type":"Feature","id":117,"geometry":{"type":"Point","coordinates":[-77.0438106903606,38.90318338343718],"bbox":[-77.0438106903606,38.90318338343718,-77.0438106903606,38.90318338343718]},"properties":{"OBJECTID":117,"NAME":"SunTrust Bank - Nineteenth and K","ADDRESS":"1020 19TH STREET NW","ZIPCODE":"20036","ADDRESS_ID":242546,"Y":137258.73,"X":396200.06,"DIFFX":0,"DIFFY":0}},{"type":"Feature","id":118,"geometry":{"type":"Point","coordinates":[-77.00000159288561,38.920251505073686],"bbox":[-77.00000159288561,38.920251505073686,-77.00000159288561,38.920251505073686]},"properties":{"OBJECTID":118,"NAME":"SunTrust Bank - Rhode Island Avenue","ADDRESS":"410 RHODE ISLAND AVENUE NE","ZIPCODE":"20002","ADDRESS_ID":288105,"Y":139152.52,"X":400000.06,"DIFFX":0,"DIFFY":0}},{"type":"Feature","id":119,"geometry":{"type":"Point","coordinates":[-77.03983206311317,38.90161447089871],"bbox":[-77.03983206311317,38.90161447089871,-77.03983206311317,38.90161447089871]},"properties":{"OBJECTID":119,"NAME":"Suntrust Bank - Seventeeth and Eye","ADDRESS":"900 17TH STREET NW","ZIPCODE":"20006","ADDRESS_ID":279977,"Y":137084.41,"X":396545.09,"DIFFX":0,"DIFFY":0}},{"type":"Feature","id":120,"geometry":{"type":"Point","coordinates":[-77.02903777613348,38.916716000655455],"bbox":[-77.02903777613348,38.916716000655455,-77.02903777613348,38.916716000655455]},"properties":{"OBJECTID":120,"NAME":"SunTrust Bank - Thirteenth and U","ADDRESS":"1250 U STREET NW","ZIPCODE":"20009","ADDRESS_ID":297746,"Y":138760.45,"X":397481.94,"DIFFX":0,"DIFFY":0}},{"type":"Feature","id":121,"geometry":{"type":"Point","coordinates":[-77.04967691721997,38.90510873410143],"bbox":[-77.04967691721997,38.90510873410143,-77.04967691721997,38.90510873410143]},"properties":{"OBJECTID":121,"NAME":"SunTrust Bank - Twenty-third and M","ADDRESS":"2250 M STREET NW","ZIPCODE":"20037","ADDRESS_ID":303499,"Y":137472.72,"X":395691.34,"DIFFX":0,"DIFFY":0}},{"type":"Feature","id":122,"geometry":{"type":"Point","coordinates":[-77.00987584238324,38.897542218848955],"bbox":[-77.00987584238324,38.897542218848955,-77.00987584238324,38.897542218848955]},"properties":{"OBJECTID":122,"NAME":"SunTrust Bank - Two Mass Avenue","ADDRESS":"2 MASSACHUSETTS AVENUE NW","ZIPCODE":"20001","ADDRESS_ID":237154,"Y":136631.65,"X":399143.5,"DIFFX":0,"DIFFY":0}},{"type":"Feature","id":123,"geometry":{"type":"Point","coordinates":[-77.02159307289953,38.901070657049395],"bbox":[-77.02159307289953,38.901070657049395,-77.02159307289953,38.901070657049395]},"properties":{"OBJECTID":123,"NAME":"TD Bank, NA","ADDRESS":"901 7TH STREET NW","ZIPCODE":"20001","ADDRESS_ID":279981,"Y":137023.51,"X":398127.16000000003,"DIFFX":0,"DIFFY":0}},{"type":"Feature","id":124,"geometry":{"type":"Point","coordinates":[-77.00546476150171,38.906972816630045],"bbox":[-77.00546476150171,38.906972816630045,-77.00546476150171,38.906972816630045]},"properties":{"OBJECTID":124,"NAME":"TD Bank, NA","ADDRESS":"1275 1ST STREET NE","ZIPCODE":"20002","ADDRESS_ID":303729,"Y":137678.49,"X":399526.21,"DIFFX":0,"DIFFY":0}},{"type":"Feature","id":125,"geometry":{"type":"Point","coordinates":[-77.03429866026643,38.90981995225042],"bbox":[-77.03429866026643,38.90981995225042,-77.03429866026643,38.90981995225042]},"properties":{"OBJECTID":125,"NAME":"TD Bank, NA","ADDRESS":"1489 P STREET NW","ZIPCODE":"20005","ADDRESS_ID":308302,"Y":137995.09,"X":397025.41000000003,"DIFFX":0,"DIFFY":0}},{"type":"Feature","id":126,"geometry":{"type":"Point","coordinates":[-77.03496897680286,38.90341968105406],"bbox":[-77.03496897680286,38.90341968105406,-77.03496897680286,38.90341968105406]},"properties":{"OBJECTID":126,"NAME":"TD Bank, NA","ADDRESS":"1030 15TH STREET NW","ZIPCODE":"20005","ADDRESS_ID":278796,"Y":137284.63,"X":396967,"DIFFX":0,"DIFFY":0}},{"type":"Feature","id":127,"geometry":{"type":"Point","coordinates":[-77.03169178908485,38.89765364418086],"bbox":[-77.03169178908485,38.89765364418086,-77.03169178908485,38.89765364418086]},"properties":{"OBJECTID":127,"NAME":"TD Bank, NA","ADDRESS":"605 14TH STREET NW","ZIPCODE":"20005","ADDRESS_ID":279848,"Y":136644.45,"X":397251.04000000004,"DIFFX":0,"DIFFY":0}},{"type":"Feature","id":128,"geometry":{"type":"Point","coordinates":[-77.03911705390786,38.90053731272394],"bbox":[-77.03911705390786,38.90053731272394,-77.03911705390786,38.90053731272394]},"properties":{"OBJECTID":128,"NAME":"TD Bank, NA","ADDRESS":"801 17TH STREET NW","ZIPCODE":"20006","ADDRESS_ID":218760,"Y":136964.81,"X":396607.06,"DIFFX":0,"DIFFY":0}},{"type":"Feature","id":129,"geometry":{"type":"Point","coordinates":[-76.99284069515913,38.92111004964491],"bbox":[-76.99284069515913,38.92111004964491,-76.99284069515913,38.92111004964491]},"properties":{"OBJECTID":129,"NAME":"TD Bank, NA","ADDRESS":"905 RHODE ISLAND AVENUE NE","ZIPCODE":"20018","ADDRESS_ID":308598,"Y":139247.85,"X":400621.04000000004,"DIFFX":0,"DIFFY":0}},{"type":"Feature","id":130,"geometry":{"type":"Point","coordinates":[-77.04561847803738,38.913952891581914],"bbox":[-77.04561847803738,38.913952891581914,-77.04561847803738,38.913952891581914]},"properties":{"OBJECTID":130,"NAME":"TD Bank, NA","ADDRESS":"1753 CONNECTICUT AVENUE NW","ZIPCODE":"20009","ADDRESS_ID":300676,"Y":138454.31,"X":396043.85000000003,"DIFFX":0,"DIFFY":0}},{"type":"Feature","id":131,"geometry":{"type":"Point","coordinates":[-77.04765127769974,38.90581358063636],"bbox":[-77.04765127769974,38.90581358063636,-77.04765127769974,38.90581358063636]},"properties":{"OBJECTID":131,"NAME":"TD Bank, NA","ADDRESS":"1200 NEW HAMPSHIRE AVENUE NW","ZIPCODE":"20036","ADDRESS_ID":242474,"Y":137550.87,"X":395867.08,"DIFFX":0,"DIFFY":0}},{"type":"Feature","id":132,"geometry":{"type":"Point","coordinates":[-77.06489339382593,38.91094967358067],"bbox":[-77.06489339382593,38.91094967358067,-77.06489339382593,38.91094967358067]},"properties":{"OBJECTID":132,"NAME":"TD Bank, NA","ADDRESS":"1611 WISCONSIN AVENUE NW","ZIPCODE":"20007","ADDRESS_ID":272964,"Y":138121.94,"X":394371.96,"DIFFX":0,"DIFFY":0}},{"type":"Feature","id":133,"geometry":{"type":"Point","coordinates":[-77.08136131865524,38.9529089062634],"bbox":[-77.08136131865524,38.9529089062634,-77.08136131865524,38.9529089062634]},"properties":{"OBJECTID":133,"NAME":"TD Bank, NA","ADDRESS":"4849 WISCONSIN AVENUE NW","ZIPCODE":"20016","ADDRESS_ID":284993,"Y":142780.92,"X":392947.84,"DIFFX":0,"DIFFY":0}},{"type":"Feature","id":134,"geometry":{"type":"Point","coordinates":[-77.02648772133807,38.89871900806348],"bbox":[-77.02648772133807,38.89871900806348,-77.02648772133807,38.89871900806348]},"properties":{"OBJECTID":134,"NAME":"United Bank - G Street","ADDRESS":"1001 G STREET NW","ZIPCODE":"20001","ADDRESS_ID":239369,"Y":136762.57,"X":397702.51,"DIFFX":0,"DIFFY":0}},{"type":"Feature","id":135,"geometry":{"type":"Point","coordinates":[-77.04286642049793,38.90153484398554],"bbox":[-77.04286642049793,38.90153484398554,-77.04286642049793,38.90153484398554]},"properties":{"OBJECTID":135,"NAME":"United Bank - International Square","ADDRESS":"1875 I STREET NW","ZIPCODE":"20006","ADDRESS_ID":279443,"Y":137075.69,"X":396281.88,"DIFFX":0,"DIFFY":0}},{"type":"Feature","id":136,"geometry":{"type":"Point","coordinates":[-77.03818170225695,38.90300582225263],"bbox":[-77.03818170225695,38.90300582225263,-77.03818170225695,38.90300582225263]},"properties":{"OBJECTID":136,"NAME":"United Bank - K Street","ADDRESS":"1667 K STREET NW","ZIPCODE":"20006","ADDRESS_ID":279291,"Y":137238.8,"X":396688.31,"DIFFX":0,"DIFFY":0}},{"type":"Feature","id":137,"geometry":{"type":"Point","coordinates":[-77.0289111775901,38.89569513594025],"bbox":[-77.0289111775901,38.89569513594025,-77.0289111775901,38.89569513594025]},"properties":{"OBJECTID":137,"NAME":"United Bank - Pennsylvania Avenue","ADDRESS":"1275 PENNSYLVANIA AVENUE NW","ZIPCODE":"20004","ADDRESS_ID":300418,"Y":136426.96,"X":397492.18,"DIFFX":0,"DIFFY":0}},{"type":"Feature","id":138,"geometry":{"type":"Point","coordinates":[-77.09717243522013,38.94570858444121],"bbox":[-77.09717243522013,38.94570858444121,-77.09717243522013,38.94570858444121]},"properties":{"OBJECTID":138,"NAME":"United Bank - Spring Valley","ADDRESS":"4900 MASSACHUSETTS AVENUE NW","ZIPCODE":"20016","ADDRESS_ID":269772,"Y":141982.96,"X":391576.49,"DIFFX":0,"DIFFY":0}},{"type":"Feature","id":139,"geometry":{"type":"Point","coordinates":[-77.04384358979254,38.90512827485337],"bbox":[-77.04384358979254,38.90512827485337,-77.04384358979254,38.90512827485337]},"properties":{"OBJECTID":139,"NAME":"WashingtonFirst Bank - 19th Street","ADDRESS":"1146 19TH STREET NW","ZIPCODE":"20036","ADDRESS_ID":241070,"Y":137474.63,"X":396197.31,"DIFFX":0,"DIFFY":0}},{"type":"Feature","id":140,"geometry":{"type":"Point","coordinates":[-77.03933900900275,38.90331937947914],"bbox":[-77.03933900900275,38.90331937947914,-77.03933900900275,38.90331937947914]},"properties":{"OBJECTID":140,"NAME":"WashingtonFirst Bank - Connecticut Avenue","ADDRESS":"1025 CONNECTICUT AVENUE NW","ZIPCODE":"20036","ADDRESS_ID":241803,"Y":137273.65,"X":396587.94,"DIFFX":0,"DIFFY":0}},{"type":"Feature","id":141,"geometry":{"type":"Point","coordinates":[-77.03034999204917,38.9010008771982],"bbox":[-77.03034999204917,38.9010008771982,-77.03034999204917,38.9010008771982]},"properties":{"OBJECTID":141,"NAME":"Wells Fargo Bank - 13th and I","ADDRESS":"1300 I STREET NW","ZIPCODE":"20005","ADDRESS_ID":240649,"Y":137015.98,"X":397367.56,"DIFFX":0,"DIFFY":0}},{"type":"Feature","id":142,"geometry":{"type":"Point","coordinates":[-77.02995562790905,38.896384193013844],"bbox":[-77.02995562790905,38.896384193013844,-77.02995562790905,38.896384193013844]},"properties":{"OBJECTID":142,"NAME":"Wells Fargo Bank - 13th and Pennsylvania","ADDRESS":"1301 PENNSYLVANIA AVENUE NW","ZIPCODE":"20004","ADDRESS_ID":279023,"Y":136503.48,"X":397401.60000000003,"DIFFX":0,"DIFFY":0}},{"type":"Feature","id":143,"geometry":{"type":"Point","coordinates":[-77.03157664930113,38.89926833440203],"bbox":[-77.03157664930113,38.89926833440203,-77.03157664930113,38.89926833440203]},"properties":{"OBJECTID":143,"NAME":"Wells Fargo Bank - 14th and New York","ADDRESS":"1350 NEW YORK AVENUE NW","ZIPCODE":"20005","ADDRESS_ID":243198,"Y":136823.69,"X":397261.09,"DIFFX":0,"DIFFY":0}},{"type":"Feature","id":144,"geometry":{"type":"Point","coordinates":[-77.03995791109759,38.89865698302562],"bbox":[-77.03995791109759,38.89865698302562,-77.03995791109759,38.89865698302562]},"properties":{"OBJECTID":144,"NAME":"Wells Fargo Bank - 17th and Pennsylvania","ADDRESS":"1700 PENNSYLVANIA AVENUE NW","ZIPCODE":"20006","ADDRESS_ID":218408,"Y":136756.11000000002,"X":396534.03,"DIFFX":0,"DIFFY":0}},{"type":"Feature","id":145,"geometry":{"type":"Point","coordinates":[-77.04208981823146,38.90223795847889],"bbox":[-77.04208981823146,38.90223795847889,-77.04208981823146,38.90223795847889]},"properties":{"OBJECTID":145,"NAME":"Wells Fargo Bank - 18th and K","ADDRESS":"1800 K STREET NW","ZIPCODE":"20006","ADDRESS_ID":300930,"Y":137153.71,"X":396349.28,"DIFFX":0,"DIFFY":0}},{"type":"Feature","id":146,"geometry":{"type":"Point","coordinates":[-77.04295035087468,38.905369490012966],"bbox":[-77.04295035087468,38.905369490012966,-77.04295035087468,38.905369490012966]},"properties":{"OBJECTID":146,"NAME":"Wells Fargo Bank - 19th and M","ADDRESS":"1850 M STREET NW","ZIPCODE":"20036","ADDRESS_ID":241300,"Y":137501.37,"X":396274.8,"DIFFX":0,"DIFFY":0}},{"type":"Feature","id":147,"geometry":{"type":"Point","coordinates":[-77.04578709088626,38.90341531137656],"bbox":[-77.04578709088626,38.90341531137656,-77.04578709088626,38.90341531137656]},"properties":{"OBJECTID":147,"NAME":"Wells Fargo Bank - 20th and L","ADDRESS":"2000 L STREET NW","ZIPCODE":"20036","ADDRESS_ID":243349,"Y":137284.56,"X":396028.64,"DIFFX":0,"DIFFY":0}},{"type":"Feature","id":148,"geometry":{"type":"Point","coordinates":[-77.04299021210784,38.922918618923475],"bbox":[-77.04299021210784,38.922918618923475,-77.04299021210784,38.922918618923475]},"properties":{"OBJECTID":148,"NAME":"Wells Fargo Bank - Adams Morgan","ADDRESS":"1804 ADAMS MILL ROAD NW","ZIPCODE":"20009","ADDRESS_ID":243236,"Y":139449.47,"X":396272.26,"DIFFX":0,"DIFFY":0}},{"type":"Feature","id":149,"geometry":{"type":"Point","coordinates":[-77.02106338094872,38.88596957119761],"bbox":[-77.02106338094872,38.88596957119761,-77.02106338094872,38.88596957119761]},"properties":{"OBJECTID":149,"NAME":"Wells Fargo Bank - Capital Gallery","ADDRESS":"600 MARYLAND AVENUE SW","ZIPCODE":"20024","ADDRESS_ID":5831,"Y":135347.16,"X":398172.72000000003,"DIFFX":0,"DIFFY":0}},{"type":"Feature","id":150,"geometry":{"type":"Point","coordinates":[-77.00286202597539,38.88709676275092],"bbox":[-77.00286202597539,38.88709676275092,-77.00286202597539,38.88709676275092]},"properties":{"OBJECTID":150,"NAME":"Wells Fargo Bank - Capitol Hill","ADDRESS":"215 PENNSYLVANIA AVENUE SE","ZIPCODE":"20003","ADDRESS_ID":278073,"Y":135472.08000000002,"X":399751.89,"DIFFX":0,"DIFFY":0}},{"type":"Feature","id":151,"geometry":{"type":"Point","coordinates":[-77.0506673925454,38.896530818264154],"bbox":[-77.0506673925454,38.896530818264154,-77.0506673925454,38.896530818264154]},"properties":{"OBJECTID":151,"NAME":"Wells Fargo Bank - Columbia Plaza offsite","ADDRESS":"502 23RD STREET NW","ZIPCODE":"20037","ADDRESS_ID":298794,"Y":136520.55,"X":395604.9,"DIFFX":0,"DIFFY":0}},{"type":"Feature","id":152,"geometry":{"type":"Point","coordinates":[-77.04064022937455,38.90408014007463],"bbox":[-77.04064022937455,38.90408014007463,-77.04064022937455,38.90408014007463]},"properties":{"OBJECTID":152,"NAME":"Wells Fargo Bank - Connecticut and L","ADDRESS":"1100 CONNECTICUT AVENUE NW","ZIPCODE":"20036","ADDRESS_ID":243303,"Y":137358.15,"X":396475.11,"DIFFX":0,"DIFFY":0}},{"type":"Feature","id":153,"geometry":{"type":"Point","coordinates":[-77.04267355565243,38.90751862361822],"bbox":[-77.04267355565243,38.90751862361822,-77.04267355565243,38.90751862361822]},"properties":{"OBJECTID":153,"NAME":"Wells Fargo Bank - Connecticut and N","ADDRESS":"1300 CONNECTICUT AVENUE NW","ZIPCODE":"20036","ADDRESS_ID":218073,"Y":137739.93,"X":396298.92,"DIFFX":0,"DIFFY":0}},{"type":"Feature","id":154,"geometry":{"type":"Point","coordinates":[-77.02740709565835,38.895163464315004],"bbox":[-77.02740709565835,38.895163464315004,-77.02740709565835,38.895163464315004]},"properties":{"OBJECTID":154,"NAME":"Citibank ","ADDRESS":"1101 PENNSYLVANIA AVENUE NW","ZIPCODE":"20004","ADDRESS_ID":242893,"Y":136367.9,"X":397622.64,"DIFFX":null,"DIFFY":null}},{"type":"Feature","id":155,"geometry":{"type":"Point","coordinates":[-77.0400070724291,38.902860807444334],"bbox":[-77.0400070724291,38.902860807444334,-77.0400070724291,38.902860807444334]},"properties":{"OBJECTID":155,"NAME":"Citibank ","ADDRESS":"1000 CONNECTICUT AVENUE NW","ZIPCODE":"20036","ADDRESS_ID":243406,"Y":137222.77,"X":396529.97,"DIFFX":null,"DIFFY":null}},{"type":"Feature","id":156,"geometry":{"type":"Point","coordinates":[-77.03808004150459,38.9034793346171],"bbox":[-77.03808004150459,38.9034793346171,-77.03808004150459,38.9034793346171]},"properties":{"OBJECTID":156,"NAME":"Colombo Bank","ADDRESS":"1660 L STREET NW","ZIPCODE":"20036","ADDRESS_ID":242035,"Y":137291.36,"X":396697.15,"DIFFX":null,"DIFFY":null}},{"type":"Feature","id":157,"geometry":{"type":"Point","coordinates":[-77.07663440050332,38.96614190496201],"bbox":[-77.07663440050332,38.96614190496201,-77.07663440050332,38.96614190496201]},"properties":{"OBJECTID":157,"NAME":"Citibank - Chevy Chase","ADDRESS":"5700 CONNECTICUT AVENUE NW","ZIPCODE":"20015","ADDRESS_ID":274635,"Y":144249.55000000002,"X":393358.8,"DIFFX":0,"DIFFY":0}},{"type":"Feature","id":158,"geometry":{"type":"Point","coordinates":[-77.0321435392817,38.93034360780672],"bbox":[-77.0321435392817,38.93034360780672,-77.0321435392817,38.93034360780672]},"properties":{"OBJECTID":158,"NAME":"Citibank - Columbia Heights","ADDRESS":"3241 14TH STREET NW","ZIPCODE":"20010","ADDRESS_ID":302794,"Y":140273.32,"X":397213.13,"DIFFX":0,"DIFFY":0}},{"type":"Feature","id":159,"geometry":{"type":"Point","coordinates":[-77.04025274052215,38.902847300603284],"bbox":[-77.04025274052215,38.902847300603284,-77.04025274052215,38.902847300603284]},"properties":{"OBJECTID":159,"NAME":"Citibank - Connecticut and K","ADDRESS":"1717 K STREET NW","ZIPCODE":"20006","ADDRESS_ID":298465,"Y":137221.28,"X":396508.66000000003,"DIFFX":0,"DIFFY":0}},{"type":"Feature","id":160,"geometry":{"type":"Point","coordinates":[-77.04144140089859,38.90691208458782],"bbox":[-77.04144140089859,38.90691208458782,-77.04144140089859,38.90691208458782]},"properties":{"OBJECTID":160,"NAME":"Citibank - Dupont Circle","ADDRESS":"1225 CONNECTICUT AVENUE NW","ZIPCODE":"20036","ADDRESS_ID":241767,"Y":137672.55,"X":396405.76,"DIFFX":0,"DIFFY":0}},{"type":"Feature","id":161,"geometry":{"type":"Point","coordinates":[-76.94970889023784,38.89382198580181],"bbox":[-76.94970889023784,38.89382198580181,-76.94970889023784,38.89382198580181]},"properties":{"OBJECTID":161,"NAME":"Citibank - East River Park","ADDRESS":"3917 MINNESOTA AVENUE NE","ZIPCODE":"20019","ADDRESS_ID":29135,"Y":136219.83000000002,"X":404363.02,"DIFFX":0,"DIFFY":0}},{"type":"Feature","id":162,"geometry":{"type":"Point","coordinates":[-77.04136526283945,38.899877396506184],"bbox":[-77.04136526283945,38.899877396506184,-77.04136526283945,38.899877396506184]},"properties":{"OBJECTID":162,"NAME":"Citibank - Farragut West","ADDRESS":"1775 PENNSYLVANIA AVENUE NW","ZIPCODE":"20006","ADDRESS_ID":279383,"Y":136891.64,"X":396412.01,"DIFFX":0,"DIFFY":0}},{"type":"Feature","id":163,"geometry":{"type":"Point","coordinates":[-77.04962274225817,38.90098229917366],"bbox":[-77.04962274225817,38.90098229917366,-77.04962274225817,38.90098229917366]},"properties":{"OBJECTID":163,"NAME":"Citibank - Foggy Bottom","ADDRESS":"2221 I STREET NW","ZIPCODE":"20037","ADDRESS_ID":307441,"Y":137014.65,"X":395695.79000000004,"DIFFX":0,"DIFFY":0}},{"type":"Feature","id":164,"geometry":{"type":"Point","coordinates":[-77.08244491198194,38.95495662839753],"bbox":[-77.08244491198194,38.95495662839753,-77.08244491198194,38.95495662839753]},"properties":{"OBJECTID":164,"NAME":"Citibank - Friendship Heights","ADDRESS":"5001 WISCONSIN AVENUE NW","ZIPCODE":"20016","ADDRESS_ID":266053,"Y":143008.32,"X":392854.12,"DIFFX":0,"DIFFY":0}},{"type":"Feature","id":165,"geometry":{"type":"Point","coordinates":[-77.06782390840687,38.91634535639951],"bbox":[-77.06782390840687,38.91634535639951,-77.06782390840687,38.91634535639951]},"properties":{"OBJECTID":165,"NAME":"Citibank - Georgetown North","ADDRESS":"1901 WISCONSIN AVENUE NW","ZIPCODE":"20007","ADDRESS_ID":279450,"Y":138721.09,"X":394118.24,"DIFFX":0,"DIFFY":0}},{"type":"Feature","id":166,"geometry":{"type":"Point","coordinates":[-77.03393851820272,38.90289506806791],"bbox":[-77.03393851820272,38.90289506806791,-77.03393851820272,38.90289506806791]},"properties":{"OBJECTID":166,"NAME":"Citibank - McPherson Square","ADDRESS":"1000 VERMONT AVENUE NW","ZIPCODE":"20005","ADDRESS_ID":240261,"Y":137226.36000000002,"X":397056.36,"DIFFX":0,"DIFFY":0}},{"type":"Feature","id":167,"geometry":{"type":"Point","coordinates":[-77.0325156634527,38.898118429517965],"bbox":[-77.0325156634527,38.898118429517965,-77.0325156634527,38.898118429517965]},"properties":{"OBJECTID":167,"NAME":"Citibank - Metropolitan Square","ADDRESS":"1400 G STREET NW","ZIPCODE":"20005","ADDRESS_ID":301002,"Y":136696.07,"X":397179.59,"DIFFX":0,"DIFFY":0}},{"type":"Feature","id":168,"geometry":{"type":"Point","coordinates":[-77.10415228068807,38.92699871903159],"bbox":[-77.10415228068807,38.92699871903159,-77.10415228068807,38.92699871903159]},"properties":{"OBJECTID":168,"NAME":"Citibank - Palisades","ADDRESS":"5250 MACARTHUR BOULEVARD NW","ZIPCODE":"20016","ADDRESS_ID":285144,"Y":139906.67,"X":390969.05,"DIFFX":0,"DIFFY":0}},{"type":"Feature","id":169,"geometry":{"type":"Point","coordinates":[-76.99373377833231,38.920250886762446],"bbox":[-76.99373377833231,38.920250886762446,-76.99373377833231,38.920250886762446]},"properties":{"OBJECTID":169,"NAME":"Citibank - Rhode Island","ADDRESS":"1060 BRENTWOOD ROAD NE","ZIPCODE":"20018","ADDRESS_ID":302477,"Y":139152.47,"X":400543.60000000003,"DIFFX":0,"DIFFY":0}},{"type":"Feature","id":170,"geometry":{"type":"Point","coordinates":[-77.03333065058851,38.91679403819056],"bbox":[-77.03333065058851,38.91679403819056,-77.03333065058851,38.91679403819056]},"properties":{"OBJECTID":170,"NAME":"City First Bank of DC, NA","ADDRESS":"1432 U STREET NW","ZIPCODE":"20009","ADDRESS_ID":279168,"Y":138769.24,"X":397109.65,"DIFFX":0,"DIFFY":0}},{"type":"Feature","id":171,"geometry":{"type":"Point","coordinates":[-77.04213645921189,38.90683760716667],"bbox":[-77.04213645921189,38.90683760716667,-77.04213645921189,38.90683760716667]},"properties":{"OBJECTID":171,"NAME":"EagleBank - Dupont Circle","ADDRESS":"1228 CONNECTICUT AVENUE NW","ZIPCODE":"20036","ADDRESS_ID":302357,"Y":137664.31,"X":396345.47000000003,"DIFFX":0,"DIFFY":0}},{"type":"Feature","id":172,"geometry":{"type":"Point","coordinates":[-77.02219075281467,38.898635224782375],"bbox":[-77.02219075281467,38.898635224782375,-77.02219075281467,38.898635224782375]},"properties":{"OBJECTID":172,"NAME":"EagleBank - Gallery Place","ADDRESS":"700 7TH STREET NW","ZIPCODE":"20001","ADDRESS_ID":243354,"Y":136753.17,"X":398075.25,"DIFFX":0,"DIFFY":0}},{"type":"Feature","id":173,"geometry":{"type":"Point","coordinates":[-77.06296595395847,38.90379485493511],"bbox":[-77.06296595395847,38.90379485493511,-77.06296595395847,38.90379485493511]},"properties":{"OBJECTID":173,"NAME":"EagleBank - Georgetown","ADDRESS":"1044 WISCONSIN AVENUE NW","ZIPCODE":"20007","ADDRESS_ID":278800,"Y":137327.58000000002,"X":394538.58,"DIFFX":0,"DIFFY":0}},{"type":"Feature","id":174,"geometry":{"type":"Point","coordinates":[-77.0452601909529,38.902995006628906],"bbox":[-77.0452601909529,38.902995006628906,-77.0452601909529,38.902995006628906]},"properties":{"OBJECTID":174,"NAME":"EagleBank - K Street","ADDRESS":"2001 K STREET NW","ZIPCODE":"20006","ADDRESS_ID":242788,"Y":137237.88,"X":396074.32,"DIFFX":0,"DIFFY":0}},{"type":"Feature","id":175,"geometry":{"type":"Point","coordinates":[-77.0330737635196,38.90291747664863],"bbox":[-77.0330737635196,38.90291747664863,-77.0330737635196,38.90291747664863]},"properties":{"OBJECTID":175,"NAME":"EagleBank - McPherson Square","ADDRESS":"1425 K STREET NW","ZIPCODE":"20005","ADDRESS_ID":240264,"Y":137228.82,"X":397131.37,"DIFFX":0,"DIFFY":0}},{"type":"Feature","id":176,"geometry":{"type":"Point","coordinates":[-77.0403934375346,38.89947019830451],"bbox":[-77.0403934375346,38.89947019830451,-77.0403934375346,38.89947019830451]},"properties":{"OBJECTID":176,"NAME":"First Citizens Bank","ADDRESS":"1717 PENNSYLVANIA AVENUE NW","ZIPCODE":"20006","ADDRESS_ID":279332,"Y":136846.4,"X":396496.29000000004,"DIFFX":0,"DIFFY":0}},{"type":"Feature","id":177,"geometry":{"type":"Point","coordinates":[-77.06666933405259,38.91425779810774],"bbox":[-77.06666933405259,38.91425779810774,-77.06666933405259,38.91425779810774]},"properties":{"OBJECTID":177,"NAME":"HSBC Bank USA - Georgetown","ADDRESS":"1715 WISCONSIN AVENUE NW","ZIPCODE":"20007","ADDRESS_ID":261691,"Y":138489.28,"X":394218.2,"DIFFX":0,"DIFFY":0}},{"type":"Feature","id":178,"geometry":{"type":"Point","coordinates":[-77.04113134066105,38.90464875567813],"bbox":[-77.04113134066105,38.90464875567813,-77.04113134066105,38.90464875567813]},"properties":{"OBJECTID":178,"NAME":"HSBC Bank USA - Washington DC","ADDRESS":"1130 CONNECTICUT AVENUE NW","ZIPCODE":"20036","ADDRESS_ID":241787,"Y":137421.29,"X":396432.54000000004,"DIFFX":0,"DIFFY":0}},{"type":"Feature","id":179,"geometry":{"type":"Point","coordinates":[-77.02374282219071,38.90746806275753],"bbox":[-77.02374282219071,38.90746806275753,-77.02374282219071,38.90746806275753]},"properties":{"OBJECTID":179,"NAME":"Independence Federal Savings Bank - Main Office","ADDRESS":"1301 9TH STREET NW","ZIPCODE":"20001","ADDRESS_ID":239905,"Y":137733.72,"X":397940.87,"DIFFX":0,"DIFFY":0}},{"type":"Feature","id":180,"geometry":{"type":"Point","coordinates":[-76.98808432506493,38.86752725116468],"bbox":[-76.98808432506493,38.86752725116468,-76.98808432506493,38.86752725116468]},"properties":{"OBJECTID":180,"NAME":"Industrial Bank, NA - Anacostia Gateway","ADDRESS":"1800 MARTIN LUTHER KING JR AVENUE SE","ZIPCODE":"20020","ADDRESS_ID":56153,"Y":133299.78,"X":401034.28,"DIFFX":0,"DIFFY":0}},{"type":"Feature","id":181,"geometry":{"type":"Point","coordinates":[-77.03040504101101,38.89762272717034],"bbox":[-77.03040504101101,38.89762272717034,-77.03040504101101,38.89762272717034]},"properties":{"OBJECTID":181,"NAME":"Industrial Bank, NA - F Street","ADDRESS":"1317 F STREET NW","ZIPCODE":"20004","ADDRESS_ID":240661,"Y":136640.98,"X":397362.66000000003,"DIFFX":0,"DIFFY":0}},{"type":"Feature","id":182,"geometry":{"type":"Point","coordinates":[-77.02742445377329,38.94930889132415],"bbox":[-77.02742445377329,38.94930889132415,-77.02742445377329,38.94930889132415]},"properties":{"OBJECTID":182,"NAME":"Industrial Bank, NA - Georgia Avenue","ADDRESS":"4812 GEORGIA AVENUE NW","ZIPCODE":"20011","ADDRESS_ID":252851,"Y":142378.5,"X":397622.94,"DIFFX":0,"DIFFY":0}},{"type":"Feature","id":183,"geometry":{"type":"Point","coordinates":[-76.93747113132389,38.89161271811508],"bbox":[-76.93747113132389,38.89161271811508,-76.93747113132389,38.89161271811508]},"properties":{"OBJECTID":183,"NAME":"Industrial Bank, NA - J.H. Mitchell","ADDRESS":"125 45TH STREET NE","ZIPCODE":"20019","ADDRESS_ID":285981,"Y":135975.24,"X":405424.83,"DIFFX":0,"DIFFY":0}},{"type":"Feature","id":184,"geometry":{"type":"Point","coordinates":[-77.03240582453643,38.91745181655676],"bbox":[-77.03240582453643,38.91745181655676,-77.03240582453643,38.91745181655676]},"properties":{"OBJECTID":184,"NAME":"Industrial Bank, NA - Reeves Municipal Center","ADDRESS":"2000 14TH STREET NW","ZIPCODE":"20009","ADDRESS_ID":239976,"Y":138842.23,"X":397189.88,"DIFFX":0,"DIFFY":0}},{"type":"Feature","id":185,"geometry":{"type":"Point","coordinates":[-77.02738684122211,38.9171699688464],"bbox":[-77.02738684122211,38.9171699688464,-77.02738684122211,38.9171699688464]},"properties":{"OBJECTID":185,"NAME":"Industrial Bank, NA - U Street","ADDRESS":"2000 11TH STREET NW","ZIPCODE":"20001","ADDRESS_ID":218578,"Y":138810.8,"X":397625.13,"DIFFX":0,"DIFFY":0}},{"type":"Feature","id":186,"geometry":{"type":"Point","coordinates":[-77.04304103670088,38.9039527128448],"bbox":[-77.04304103670088,38.9039527128448,-77.04304103670088,38.9039527128448]},"properties":{"OBJECTID":186,"NAME":"M&T Bank Corporation - 19th and L Streets","ADDRESS":"1899 L STREET NW","ZIPCODE":"20036","ADDRESS_ID":241298,"Y":137344.1,"X":396266.86,"DIFFX":0,"DIFFY":0}},{"type":"Feature","id":187,"geometry":{"type":"Point","coordinates":[-77.07641722374424,38.96569776014891],"bbox":[-77.07641722374424,38.96569776014891,-77.07641722374424,38.96569776014891]},"properties":{"OBJECTID":187,"NAME":"M&T Bank Corporation - Chevy Chase Circle","ADDRESS":"5630 CONNECTICUT AVENUE NW","ZIPCODE":"20015","ADDRESS_ID":263863,"Y":144200.23,"X":393377.58,"DIFFX":0,"DIFFY":0}},{"type":"Feature","id":188,"geometry":{"type":"Point","coordinates":[-77.06408280117451,38.90821491660503],"bbox":[-77.06408280117451,38.90821491660503,-77.06408280117451,38.90821491660503]},"properties":{"OBJECTID":188,"NAME":"M&T Bank Corporation - Georgetown","ADDRESS":"1420 WISCONSIN AVENUE NW","ZIPCODE":"20007","ADDRESS_ID":277048,"Y":137818.31,"X":394442.05,"DIFFX":0,"DIFFY":0}},{"type":"Feature","id":189,"geometry":{"type":"Point","coordinates":[-77.02763116143986,38.968599672760455],"bbox":[-77.02763116143986,38.968599672760455,-77.02763116143986,38.968599672760455]},"properties":{"OBJECTID":189,"NAME":"M&T Bank Corporation - Georgia Avenue","ADDRESS":"6434 GEORGIA AVENUE NW","ZIPCODE":"20012","ADDRESS_ID":253291,"Y":144519.96,"X":397605.67,"DIFFX":0,"DIFFY":0}},{"type":"Feature","id":190,"geometry":{"type":"Point","coordinates":[-76.9650545868695,38.860170410601796],"bbox":[-76.9650545868695,38.860170410601796,-76.9650545868695,38.860170410601796]},"properties":{"OBJECTID":190,"NAME":"M&T Bank Corporation - Good Hope Market","ADDRESS":"2865 ALABAMA AVENUE SE","ZIPCODE":"20020","ADDRESS_ID":278292,"Y":132483.63,"X":403033.19,"DIFFX":0,"DIFFY":0}},{"type":"Feature","id":191,"geometry":{"type":"Point","coordinates":[-77.03823973925934,38.902234687923674],"bbox":[-77.03823973925934,38.902234687923674,-77.03823973925934,38.902234687923674]},"properties":{"OBJECTID":191,"NAME":"M&T Bank Corporation - K Street","ADDRESS":"1680 K STREET NW","ZIPCODE":"20006","ADDRESS_ID":300674,"Y":137153.2,"X":396683.24,"DIFFX":0,"DIFFY":0}},{"type":"Feature","id":192,"geometry":{"type":"Point","coordinates":[-77.02758511230758,38.89674024700725],"bbox":[-77.02758511230758,38.89674024700725,-77.02758511230758,38.89674024700725]},"properties":{"OBJECTID":192,"NAME":"M&T Bank Corporation - Metro Centre","ADDRESS":"555 12TH STREET NW","ZIPCODE":"20004","ADDRESS_ID":239135,"Y":136542.94,"X":397607.25,"DIFFX":0,"DIFFY":0}},{"type":"Feature","id":193,"geometry":{"type":"Point","coordinates":[-77.02128458119788,38.89955028265964],"bbox":[-77.02128458119788,38.89955028265964,-77.02128458119788,38.89955028265964]},"properties":{"OBJECTID":193,"NAME":"SunTrust Bank ","ADDRESS":"624 H STREET NW","ZIPCODE":"20001","ADDRESS_ID":242976,"Y":136854.73,"X":398153.88,"DIFFX":null,"DIFFY":null}},{"type":"Feature","id":194,"geometry":{"type":"Point","coordinates":[-77.02910814893227,38.899567692863826],"bbox":[-77.02910814893227,38.899567692863826,-77.02910814893227,38.899567692863826]},"properties":{"OBJECTID":194,"NAME":"The Bank of New York Mellon","ADDRESS":"1250 H STREET NW","ZIPCODE":"20005","ADDRESS_ID":240931,"Y":136856.85,"X":397475.23,"DIFFX":null,"DIFFY":null}},{"type":"Feature","id":195,"geometry":{"type":"Point","coordinates":[-77.03129994386212,38.90103539879858],"bbox":[-77.03129994386212,38.90103539879858,-77.03129994386212,38.90103539879858]},"properties":{"OBJECTID":195,"NAME":"M&T Bank Corporation - Washington DC","ADDRESS":"1350 I STREET NW","ZIPCODE":"20005","ADDRESS_ID":240651,"Y":137019.84,"X":397285.16000000003,"DIFFX":0,"DIFFY":0}},{"type":"Feature","id":196,"geometry":{"type":"Point","coordinates":[-77.05232227101845,38.92430957178473],"bbox":[-77.05232227101845,38.92430957178473,-77.05232227101845,38.92430957178473]},"properties":{"OBJECTID":196,"NAME":"M&T Bank Corporation - Woodley Park","ADDRESS":"2620 CONNECTICUT AVENUE NW","ZIPCODE":"20008","ADDRESS_ID":219094,"Y":139604.3,"X":395463.11,"DIFFX":0,"DIFFY":0}},{"type":"Feature","id":197,"geometry":{"type":"Point","coordinates":[-77.03844615443663,38.900409886984335],"bbox":[-77.03844615443663,38.900409886984335,-77.03844615443663,38.900409886984335]},"properties":{"OBJECTID":197,"NAME":"JP Morgan Chase Bank","ADDRESS":"800 CONNECTICUT AVENUE NW","ZIPCODE":"20006","ADDRESS_ID":301059,"Y":136950.64,"X":396665.25,"DIFFX":null,"DIFFY":null}},{"type":"Feature","id":198,"geometry":{"type":"Point","coordinates":[-77.07596192179413,38.96506711884259],"bbox":[-77.07596192179413,38.96506711884259,-77.07596192179413,38.96506711884259]},"properties":{"OBJECTID":198,"NAME":"American Bank ","ADDRESS":"5600 CONNECTICUT AVENUE NW","ZIPCODE":"20015","ADDRESS_ID":263862,"Y":144130.19,"X":393416.98,"DIFFX":null,"DIFFY":null}},{"type":"Feature","id":199,"geometry":{"type":"Point","coordinates":[-77.09640665778218,38.944566607031426],"bbox":[-77.09640665778218,38.944566607031426,-77.09640665778218,38.944566607031426]},"properties":{"OBJECTID":199,"NAME":"Bank of America ","ADDRESS":"4301 49TH STREET NW","ZIPCODE":"20016","ADDRESS_ID":266468,"Y":141856.12,"X":391642.74,"DIFFX":null,"DIFFY":null}},{"type":"Feature","id":200,"geometry":{"type":"Point","coordinates":[-77.07344386131905,38.92232988718769],"bbox":[-77.07344386131905,38.92232988718769,-77.07344386131905,38.92232988718769]},"properties":{"OBJECTID":200,"NAME":"Wells Fargo Bank","ADDRESS":"3700 CALVERT STREET NW","ZIPCODE":"20007","ADDRESS_ID":271794,"Y":139385.8,"X":393631.39,"DIFFX":null,"DIFFY":null}},{"type":"Feature","id":201,"geometry":{"type":"Point","coordinates":[-77.06482463678529,38.94566550819816],"bbox":[-77.06482463678529,38.94566550819816,-77.06482463678529,38.94566550819816]},"properties":{"OBJECTID":201,"NAME":"Wells Fargo Bank","ADDRESS":"4302 CONNECTICUT AVENUE NW","ZIPCODE":"20008","ADDRESS_ID":304857,"Y":141975.69,"X":394380.66,"DIFFX":null,"DIFFY":null}},{"type":"Feature","id":202,"geometry":{"type":"Point","coordinates":[-77.08386437165154,38.956373340333975],"bbox":[-77.08386437165154,38.956373340333975,-77.08386437165154,38.956373340333975]},"properties":{"OBJECTID":202,"NAME":"Wells Fargo Bank","ADDRESS":"5100 WISCONSIN AVENUE NW","ZIPCODE":"20016","ADDRESS_ID":265883,"Y":143165.7,"X":392731.23,"DIFFX":null,"DIFFY":null}},{"type":"Feature","id":203,"geometry":{"type":"Point","coordinates":[-77.07599508408492,38.96630068725647],"bbox":[-77.07599508408492,38.96630068725647,-77.07599508408492,38.96630068725647]},"properties":{"OBJECTID":203,"NAME":"Wells Fargo Bank","ADDRESS":"5701 CONNECTICUT AVENUE NW","ZIPCODE":"20015","ADDRESS_ID":263948,"Y":144267.13,"X":393414.22,"DIFFX":null,"DIFFY":null}},{"type":"Feature","id":204,"geometry":{"type":"Point","coordinates":[-77.09574544905884,38.945512029994056],"bbox":[-77.09574544905884,38.945512029994056,-77.09574544905884,38.945512029994056]},"properties":{"OBJECTID":204,"NAME":"Wells Fargo Bank","ADDRESS":"4841 MASSACHUSETTS AVENUE NW","ZIPCODE":"20016","ADDRESS_ID":284990,"Y":141961.01,"X":391700.17,"DIFFX":null,"DIFFY":null}},{"type":"Feature","id":205,"geometry":{"type":"Point","coordinates":[-77.10328865090806,38.927108846536626],"bbox":[-77.10328865090806,38.927108846536626,-77.10328865090806,38.927108846536626]},"properties":{"OBJECTID":205,"NAME":"Wells Fargo Bank","ADDRESS":"5201 MACARTHUR BOULEVARD NW","ZIPCODE":"20016","ADDRESS_ID":307557,"Y":139918.81,"X":391043.95,"DIFFX":null,"DIFFY":null}},{"type":"Feature","id":206,"geometry":{"type":"Point","coordinates":[-77.02770770725498,38.968109786338],"bbox":[-77.02770770725498,38.968109786338,-77.02770770725498,38.968109786338]},"properties":{"OBJECTID":206,"NAME":"SunTrust Bank ","ADDRESS":"6422 GEORGIA AVENUE NW","ZIPCODE":"20012","ADDRESS_ID":285336,"Y":144465.58,"X":397599.02,"DIFFX":null,"DIFFY":null}},{"type":"Feature","id":207,"geometry":{"type":"Point","coordinates":[-77.06155619763331,38.960421474737316],"bbox":[-77.06155619763331,38.960421474737316,-77.06155619763331,38.960421474737316]},"properties":{"OBJECTID":207,"NAME":"United Bank","ADDRESS":"3050 MILITARY ROAD NW","ZIPCODE":"20015","ADDRESS_ID":274717,"Y":143613.54,"X":394665.1,"DIFFX":null,"DIFFY":null}},{"type":"Feature","id":208,"geometry":{"type":"Point","coordinates":[-77.00428504597872,38.92748609911532],"bbox":[-77.00428504597872,38.92748609911532,-77.00428504597872,38.92748609911532]},"properties":{"OBJECTID":208,"NAME":"Wells Fargo Bank","ADDRESS":"125 MICHIGAN AVENUE NE","ZIPCODE":"20017","ADDRESS_ID":285983,"Y":139955.63,"X":399628.64,"DIFFX":null,"DIFFY":null}},{"type":"Feature","id":209,"geometry":{"type":"Point","coordinates":[-76.9702688975994,38.91959119652892],"bbox":[-76.9702688975994,38.91959119652892,-76.9702688975994,38.91959119652892]},"properties":{"OBJECTID":209,"NAME":"Wells Fargo Bank","ADDRESS":"2119 BLADENSBURG ROAD NE","ZIPCODE":"20018","ADDRESS_ID":51509,"Y":139079.64,"X":402578.48,"DIFFX":null,"DIFFY":null}},{"type":"Feature","id":210,"geometry":{"type":"Point","coordinates":[-76.96667323466005,38.85903221903893],"bbox":[-76.96667323466005,38.85903221903893,-76.96667323466005,38.85903221903893]},"properties":{"OBJECTID":210,"NAME":"SunTrust Bank ","ADDRESS":"2845 ALABAMA AVENUE SE","ZIPCODE":"20020","ADDRESS_ID":278282,"Y":132357.23,"X":402892.75,"DIFFX":null,"DIFFY":null}},{"type":"Feature","id":211,"geometry":{"type":"Point","coordinates":[-76.96019792279188,38.86990064775765],"bbox":[-76.96019792279188,38.86990064775765,-76.96019792279188,38.86990064775765]},"properties":{"OBJECTID":211,"NAME":"Wells Fargo Bank","ADDRESS":"3200 PENNSYLVANIA AVENUE SE","ZIPCODE":"20020","ADDRESS_ID":287751,"Y":133563.93,"X":403454.24,"DIFFX":null,"DIFFY":null}},{"type":"Feature","id":212,"geometry":{"type":"Point","coordinates":[-77.00178625597563,38.82119605839522],"bbox":[-77.00178625597563,38.82119605839522,-77.00178625597563,38.82119605839522]},"properties":{"OBJECTID":212,"NAME":"Bank of America ","ADDRESS":"4675 SOUTH CAPITOL STREET SW","ZIPCODE":"20032","ADDRESS_ID":276659,"Y":128156.63,"X":399845.08,"DIFFX":null,"DIFFY":null}},{"type":"Feature","id":213,"geometry":{"type":"Point","coordinates":[-76.98134333573314,38.846169639347025],"bbox":[-76.98134333573314,38.846169639347025,-76.98134333573314,38.846169639347025]},"properties":{"OBJECTID":213,"NAME":"Wells Fargo Bank","ADDRESS":"1545 ALABAMA AVENUE SE","ZIPCODE":"20032","ADDRESS_ID":304503,"Y":130929.03,"X":401619.77,"DIFFX":null,"DIFFY":null}},{"type":"Feature","id":214,"geometry":{"type":"Point","coordinates":[-77.03372413073923,38.90981903850089],"bbox":[-77.03372413073923,38.90981903850089,-77.03372413073923,38.90981903850089]},"properties":{"OBJECTID":214,"NAME":"Wells Fargo Bank - DESOTO","ADDRESS":"1447 P STREET NW","ZIPCODE":"20005","ADDRESS_ID":306675,"Y":137994.97,"X":397075.24,"DIFFX":0,"DIFFY":0}},{"type":"Feature","id":215,"geometry":{"type":"Point","coordinates":[-77.03062508918626,38.89811839997021],"bbox":[-77.03062508918626,38.89811839997021,-77.03062508918626,38.89811839997021]},"properties":{"OBJECTID":215,"NAME":"Wells Fargo Bank - G Street","ADDRESS":"1310 G STREET NW","ZIPCODE":"20005","ADDRESS_ID":240663,"Y":136696.01,"X":397343.59,"DIFFX":0,"DIFFY":0}},{"type":"Feature","id":216,"geometry":{"type":"Point","coordinates":[-77.05825530570773,38.90537691386384],"bbox":[-77.05825530570773,38.90537691386384,-77.05825530570773,38.90537691386384]},"properties":{"OBJECTID":216,"NAME":"Wells Fargo Bank - Georgetown","ADDRESS":"2901 M STREET NW","ZIPCODE":"20007","ADDRESS_ID":272085,"Y":137502.93,"X":394947.29000000004,"DIFFX":0,"DIFFY":0}},{"type":"Feature","id":217,"geometry":{"type":"Point","coordinates":[-77.0351389922198,38.90218134136401],"bbox":[-77.0351389922198,38.90218134136401,-77.0351389922198,38.90218134136401]},"properties":{"OBJECTID":217,"NAME":"Wells Fargo Bank - K Street","ADDRESS":"1510 K STREET NW","ZIPCODE":"20005","ADDRESS_ID":304082,"Y":137147.17,"X":396952.2,"DIFFX":0,"DIFFY":0}},{"type":"Feature","id":218,"geometry":{"type":"Point","coordinates":[-77.02350839978435,38.89443607748351],"bbox":[-77.02350839978435,38.89443607748351,-77.02350839978435,38.89443607748351]},"properties":{"OBJECTID":218,"NAME":"Wells Fargo Bank - Market Square","ADDRESS":"801 PENNSYLVANIA AVENUE NW","ZIPCODE":"20004","ADDRESS_ID":279946,"Y":136287.06,"X":397960.83,"DIFFX":0,"DIFFY":0}},{"type":"Feature","id":219,"geometry":{"type":"Point","coordinates":[-77.00790436461021,38.876796248209345],"bbox":[-77.00790436461021,38.876796248209345,-77.00790436461021,38.876796248209345]},"properties":{"OBJECTID":219,"NAME":"Wells Fargo Bank - Navy Yard Metro","ADDRESS":"20 M STREET SE","ZIPCODE":"20003","ADDRESS_ID":301132,"Y":134328.67,"X":399314.32,"DIFFX":0,"DIFFY":0}},{"type":"Feature","id":220,"geometry":{"type":"Point","coordinates":[-77.00635797511066,38.90609499782535],"bbox":[-77.00635797511066,38.90609499782535,-77.00635797511066,38.90609499782535]},"properties":{"OBJECTID":220,"NAME":"Wells Fargo Bank - NOMA Capitol Plaza","ADDRESS":"1200 1ST STREET NE","ZIPCODE":"20002","ADDRESS_ID":302635,"Y":137581.05,"X":399448.73,"DIFFX":0,"DIFFY":0}},{"type":"Feature","id":221,"geometry":{"type":"Point","coordinates":[-77.00982753551285,38.8958298226922],"bbox":[-77.00982753551285,38.8958298226922,-77.00982753551285,38.8958298226922]},"properties":{"OBJECTID":221,"NAME":"Wells Fargo Bank - North Capitol and E","ADDRESS":"444 NORTH CAPITOL STREET NW","ZIPCODE":"20001","ADDRESS_ID":279785,"Y":136441.56,"X":399147.67,"DIFFX":0,"DIFFY":0}},{"type":"Feature","id":222,"geometry":{"type":"Point","coordinates":[-77.02173277124894,38.915743066178564],"bbox":[-77.02173277124894,38.915743066178564,-77.02173277124894,38.915743066178564]},"properties":{"OBJECTID":222,"NAME":"Wells Fargo Bank - The Dunbar at Howard","ADDRESS":"1901 7TH STREET NW","ZIPCODE":"20001","ADDRESS_ID":306547,"Y":138652.27,"X":398115.43,"DIFFX":0,"DIFFY":0}},{"type":"Feature","id":223,"geometry":{"type":"Point","coordinates":[-77.0324413326389,38.930869610836254],"bbox":[-77.0324413326389,38.930869610836254,-77.0324413326389,38.930869610836254]},"properties":{"OBJECTID":223,"NAME":"Wells Fargo Bank - Tivoli Square","ADDRESS":"3325 14TH STREET NW","ZIPCODE":"20010","ADDRESS_ID":300784,"Y":140331.72,"X":397187.33,"DIFFX":0,"DIFFY":0}},{"type":"Feature","id":224,"geometry":{"type":"Point","coordinates":[-77.0403934375346,38.89947019830451],"bbox":[-77.0403934375346,38.89947019830451,-77.0403934375346,38.89947019830451]},"properties":{"OBJECTID":224,"NAME":"Capital One Bank - Pennsylvania Avenue","ADDRESS":"1717 PENNSYLVANIA AVENUE NW","ZIPCODE":"20006","ADDRESS_ID":279332,"Y":136846.4,"X":396496.29000000004,"DIFFX":0,"DIFFY":0}},{"type":"Feature","id":225,"geometry":{"type":"Point","coordinates":[-77.09613763319915,38.944980309118066],"bbox":[-77.09613763319915,38.944980309118066,-77.09613763319915,38.944980309118066]},"properties":{"OBJECTID":225,"NAME":"Capital One Bank - Spring Valley","ADDRESS":"4860 MASSACHUSETTS AVENUE NW","ZIPCODE":"20016","ADDRESS_ID":266470,"Y":141902.02,"X":391666.11,"DIFFX":0,"DIFFY":0}},{"type":"Feature","id":226,"geometry":{"type":"Point","coordinates":[-77.07689926523821,38.94169715324728],"bbox":[-77.07689926523821,38.94169715324728,-77.07689926523821,38.94169715324728]},"properties":{"OBJECTID":226,"NAME":"Capital One Bank - Tenley Town","ADDRESS":"4000 WISCONSIN AVENUE NW","ZIPCODE":"20016","ADDRESS_ID":222230,"Y":141535.98,"X":393333.56,"DIFFX":0,"DIFFY":0}},{"type":"Feature","id":227,"geometry":{"type":"Point","coordinates":[-77.06730094174529,38.915566617831196],"bbox":[-77.06730094174529,38.915566617831196,-77.06730094174529,38.915566617831196]},"properties":{"OBJECTID":227,"NAME":"Cardinal Bank - Georgetown","ADDRESS":"1825 WISCONSIN AVENUE NW","ZIPCODE":"20007","ADDRESS_ID":309641,"Y":138634.61000000002,"X":394163.53,"DIFFX":0,"DIFFY":0}},{"type":"Feature","id":228,"geometry":{"type":"Point","coordinates":[-77.04123805994588,38.90218880637099],"bbox":[-77.04123805994588,38.90218880637099,-77.04123805994588,38.90218880637099]},"properties":{"OBJECTID":228,"NAME":"Cardinal Bank - K Street","ADDRESS":"1776 K STREET NW","ZIPCODE":"20006","ADDRESS_ID":236718,"Y":137148.22,"X":396423.16000000003,"DIFFX":0,"DIFFY":0}},{"type":"Feature","id":229,"geometry":{"type":"Point","coordinates":[-77.02442759504397,38.89951066147832],"bbox":[-77.02442759504397,38.89951066147832,-77.02442759504397,38.89951066147832]},"properties":{"OBJECTID":229,"NAME":"Citibank - 9th and H St NW","ADDRESS":"750 9TH STREET NW","ZIPCODE":"20001","ADDRESS_ID":279928,"Y":136850.4,"X":397881.24,"DIFFX":0,"DIFFY":0}},{"type":"Feature","id":230,"geometry":{"type":"Point","coordinates":[-76.99770840168148,38.88568191894946],"bbox":[-76.99770840168148,38.88568191894946,-76.99770840168148,38.88568191894946]},"properties":{"OBJECTID":230,"NAME":"Citibank - Capitol Hill","ADDRESS":"600 PENNSYLVANIA AVENUE SE","ZIPCODE":"20003","ADDRESS_ID":5839,"Y":135315.02,"X":400199.02,"DIFFX":0,"DIFFY":0}},{"type":"Feature","id":231,"geometry":{"type":"Point","coordinates":[-77.04686187605897,38.90282790068586],"bbox":[-77.04686187605897,38.90282790068586,-77.04686187605897,38.90282790068586]},"properties":{"OBJECTID":231,"NAME":"Congressional Bank","ADDRESS":"2101 K STREET NW","ZIPCODE":"20037","ADDRESS_ID":218615,"Y":137219.4,"X":395935.38,"DIFFX":null,"DIFFY":null}},{"type":"Feature","id":232,"geometry":{"type":"Point","coordinates":[-77.04528451164248,38.908071924465425],"bbox":[-77.04528451164248,38.908071924465425,-77.04528451164248,38.908071924465425]},"properties":{"OBJECTID":232,"NAME":"John Marshall Bank ","ADDRESS":"1330 NEW HAMPSHIRE AVENUE NW","ZIPCODE":"20036","ADDRESS_ID":226576,"Y":137801.46,"X":396072.49,"DIFFX":null,"DIFFY":null}},{"type":"Feature","id":233,"geometry":{"type":"Point","coordinates":[-77.03844615443663,38.900409886984335],"bbox":[-77.03844615443663,38.900409886984335,-77.03844615443663,38.900409886984335]},"properties":{"OBJECTID":233,"NAME":"JP Morgan Chase Bank","ADDRESS":"800 CONNECTICUT AVENUE NW","ZIPCODE":"20006","ADDRESS_ID":301059,"Y":136950.64,"X":396665.25,"DIFFX":null,"DIFFY":null}}],"name":"Bank_Locations","updated_at":1429022177000,"retrieved_at":1444415749917,"expires_at":1444502149917,"count":233}