{
"type": "FeatureCollection",
"crs": { "type": "name", "properties": { "name": "urn:ogc:def:crs:OGC:1.3:CRS84" } },
                                                                                
"features": [
{ "type": "Feature", "properties": { "OBJECTID": 1, "NAME": "One Judiciary Squre", "HOURS": "CALL FOR HOURS", "PHONE": "202-724-8613", "TYPE": "General Weekday Cooling Center", "ADDRESS": "441 4TH STREET NW", "XCOORD": 398635.86, "YCOORD": 136399.72, "WARD": "Ward 2", "ZIPCODE": 20001, "MARID": 285552 }, "geometry": { "type": "Point", "coordinates": [ -77.015727352990353, 38.895452267172132 ] } },
{ "type": "Feature", "properties": { "OBJECTID": 2, "NAME": "Frank D. Reeves Center (Lobby)", "HOURS": "CALL FOR HOURS", "PHONE": "202-671-0576", "TYPE": "General Weekday Cooling Center", "ADDRESS": "2000 14TH STREET NW", "XCOORD": 397189.88, "YCOORD": 138842.23, "WARD": "Ward 1", "ZIPCODE": 20009, "MARID": 239976 }, "geometry": { "type": "Point", "coordinates": [ -77.032405824536426, 38.917451816556763 ] } },
{ "type": "Feature", "properties": { "OBJECTID": 3, "NAME": "King Office Building (Lobby)", "HOURS": "CALL FOR HOURS", "PHONE": "202-279-1800", "TYPE": "General Weekday Cooling Center", "ADDRESS": "3720 MARTIN LUTHER KING JR AVENUE SE", "XCOORD": 399462.71, "YCOORD": 129919.8, "WARD": "Ward 8", "ZIPCODE": 20032, "MARID": 278424 }, "geometry": { "type": "Point", "coordinates": [ -77.006190805141927, 38.837079367810155 ] } },
{ "type": "Feature", "properties": { "OBJECTID": 4, "NAME": "Open Door Shelter for Women", "HOURS": "CALL FOR HOURS", "PHONE": " ", "TYPE": "Department of Human Services Emergency Homeless Cooling Facility", "ADDRESS": "425 2ND STREET NW", "XCOORD": 398846.5, "YCOORD": 136406.27, "WARD": "Ward 6", "ZIPCODE": 20001, "MARID": 299726 }, "geometry": { "type": "Point", "coordinates": [ -77.013299219786091, 38.895511573694968 ] } },
{ "type": "Feature", "properties": { "OBJECTID": 5, "NAME": "Catholic Charities 801 East Men’s Shelte", "HOURS": "CALL FOR HOURS", "PHONE": " ", "TYPE": "Department of Human Services Emergency Homeless Cooling Facility", "ADDRESS": "2700 BLOCK MLK AVE SE", "XCOORD": 400574.76, "YCOORD": 131419.57, "WARD": "Ward 8", "ZIPCODE": 20032, "MARID": 308313 }, "geometry": { "type": "Point", "coordinates": [ -76.993380921340005, 38.850589942469753 ] } },
{ "type": "Feature", "properties": { "OBJECTID": 6, "NAME": "House of Ruth Madison\/Empowerment Center (Women)", "HOURS": "CALL FOR HOURS", "PHONE": " ", "TYPE": "Department of Human Services Emergency Homeless Cooling Facility", "ADDRESS": "651 10TH STREET NE", "XCOORD": 400661.51, "YCOORD": 136757.58, "WARD": "Ward 6", "ZIPCODE": 20002, "MARID": 1409 }, "geometry": { "type": "Point", "coordinates": [ -76.992376408513763, 38.898676811049853 ] } },
{ "type": "Feature", "properties": { "OBJECTID": 7, "NAME": "New York Avenue Men’s Emergency Shelter", "HOURS": "CALL FOR HOURS", "PHONE": " ", "TYPE": "Department of Human Services Emergency Homeless Cooling Facility", "ADDRESS": "1355 NEW YORK AVENUE NE", "XCOORD": 401228.95, "YCOORD": 138578.06, "WARD": "Ward 5", "ZIPCODE": 20002, "MARID": 66060 }, "geometry": { "type": "Point", "coordinates": [ -76.985831714163837, 38.915075720316892 ] } },
{ "type": "Feature", "properties": { "OBJECTID": 8, "NAME": "Adam’s Place Emergency Shelter (Men)", "HOURS": "CALL FOR HOURS", "PHONE": " ", "TYPE": "Department of Human Services Emergency Homeless Cooling Facility", "ADDRESS": "2210 ADAMS PLACE NE", "XCOORD": 402178.73, "YCOORD": 139083.8, "WARD": "Ward 5", "ZIPCODE": 20018, "MARID": 50358 }, "geometry": { "type": "Point", "coordinates": [ -76.974878546235971, 38.919629752981216 ] } },
{ "type": "Feature", "properties": { "OBJECTID": 9, "NAME": "John L. Young Center for Women", "HOURS": "CALL FOR HOURS", "PHONE": " ", "TYPE": "Department of Human Services Emergency Homeless Cooling Facility", "ADDRESS": "425 2ND STREET NW", "XCOORD": 398846.5, "YCOORD": 136406.27, "WARD": "Ward 6", "ZIPCODE": 20001, "MARID": 299726 }, "geometry": { "type": "Point", "coordinates": [ -77.013299219786091, 38.895511573694968 ] } },
{ "type": "Feature", "properties": { "OBJECTID": 10, "NAME": "Harriet Tubman Emergency Shelter  DC General Building #27 (Women)", "HOURS": "CALL FOR HOURS", "PHONE": " ", "TYPE": "Department of Human Services Emergency Homeless Cooling Facility", "ADDRESS": "1900 MASSACHUSETTS AVENUE SE", "XCOORD": 402119.23, "YCOORD": 135264.83, "WARD": "Ward 7", "ZIPCODE": 20003, "MARID": 301068 }, "geometry": { "type": "Point", "coordinates": [ -76.975576443652599, 38.885227257488914 ] } },
{ "type": "Feature", "properties": { "OBJECTID": 11, "NAME": "Arthur Capper", "HOURS": "CALL FOR HOURS", "PHONE": "202-546-1024", "TYPE": "Public Housing Cooling Centers for Senior Citizen", "ADDRESS": "900 5TH STREET SE", "XCOORD": 400069.73, "YCOORD": 134551.26, "WARD": "Ward 6", "ZIPCODE": 20003, "MARID": 302625 }, "geometry": { "type": "Point", "coordinates": [ -76.999198660004936, 38.878801691848885 ] } },
{ "type": "Feature", "properties": { "OBJECTID": 12, "NAME": "Carroll Apartments", "HOURS": "CALL FOR HOURS", "PHONE": "202-727-4069", "TYPE": "Public Housing Cooling Centers for Senior Citizen", "ADDRESS": "410 M STREET SE", "XCOORD": 400004.03, "YCOORD": 134320.02, "WARD": "Ward 6", "ZIPCODE": 20003, "MARID": 155956 }, "geometry": { "type": "Point", "coordinates": [ -76.999955838648745, 38.876718593201844 ] } },
{ "type": "Feature", "properties": { "OBJECTID": 13, "NAME": "Fort Lincoln", "HOURS": "CALL FOR HOURS", "PHONE": "202-576-6370", "TYPE": "Public Housing Cooling Centers for Senior Citizen", "ADDRESS": "2855 BLADENSBURG ROAD NE", "XCOORD": 403387.22, "YCOORD": 140020.95, "WARD": "Ward 5", "ZIPCODE": 20018, "MARID": 289764 }, "geometry": { "type": "Point", "coordinates": [ -76.960938380289292, 38.928068073756037 ] } },
{ "type": "Feature", "properties": { "OBJECTID": 14, "NAME": "Garfield", "HOURS": "CALL FOR HOURS", "PHONE": "202-362-7452", "TYPE": "Public Housing Cooling Centers for Senior Citizen", "ADDRESS": "2301 11TH STREET NW", "XCOORD": 397760.5, "YCOORD": 139291.0, "WARD": "Ward 1", "ZIPCODE": 20001, "MARID": 284334 }, "geometry": { "type": "Point", "coordinates": [ -77.025827460499329, 38.921496123502713 ] } },
{ "type": "Feature", "properties": { "OBJECTID": 15, "NAME": "Horizon House", "HOURS": "CALL FOR HOURS", "PHONE": "202-682-9395", "TYPE": "Public Housing Cooling Centers for Senior Citizen", "ADDRESS": "1150 12TH STREET NW", "XCOORD": 397545.37, "YCOORD": 137482.76, "WARD": "Ward 2", "ZIPCODE": 20005, "MARID": 278887 }, "geometry": { "type": "Point", "coordinates": [ -77.028301803438879, 38.905206311651646 ] } },
{ "type": "Feature", "properties": { "OBJECTID": 16, "NAME": "James Apartments", "HOURS": "CALL FOR HOURS", "PHONE": "202-673-2387", "TYPE": "Public Housing Cooling Centers for Senior Citizen", "ADDRESS": "1425 N STREET NW", "XCOORD": 397129.35, "YCOORD": 137738.4, "WARD": "Ward 2", "ZIPCODE": 20005, "MARID": 240239 }, "geometry": { "type": "Point", "coordinates": [ -77.033099181621438, 38.907507945683328 ] } },
{ "type": "Feature", "properties": { "OBJECTID": 17, "NAME": "Knox Hill", "HOURS": "CALL FOR HOURS", "PHONE": "202-727-4005", "TYPE": "Public Housing Cooling Centers for Senior Citizen", "ADDRESS": "2700 JASPER STREET SE", "XCOORD": 402672.65, "YCOORD": 131606.43, "WARD": "Ward 8", "ZIPCODE": 20020, "MARID": 278227 }, "geometry": { "type": "Point", "coordinates": [ -76.969212051138172, 38.852269387084938 ] } },
{ "type": "Feature", "properties": { "OBJECTID": 18, "NAME": "LeDroit", "HOURS": "CALL FOR HOURS", "PHONE": "202-238-0483", "TYPE": "Public Housing Cooling Centers for Senior Citizen", "ADDRESS": "2125 4TH STREET NW", "XCOORD": 398490.77, "YCOORD": 139039.13, "WARD": "Ward 1", "ZIPCODE": 20001, "MARID": 284228 }, "geometry": { "type": "Point", "coordinates": [ -77.017405674025113, 38.919228754176046 ] } },
{ "type": "Feature", "properties": { "OBJECTID": 19, "NAME": "Sibley Plaza", "HOURS": "CALL FOR HOURS", "PHONE": "202-289-0095", "TYPE": "Public Housing Cooling Centers for Senior Citizen", "ADDRESS": "1140 NORTH CAPITOL STREET NW", "XCOORD": 399177.1, "YCOORD": 137473.68, "WARD": "Ward 6", "ZIPCODE": 20002, "MARID": 285576 }, "geometry": { "type": "Point", "coordinates": [ -77.009489517617922, 38.905127558713772 ] } },
{ "type": "Feature", "properties": { "OBJECTID": 20, "NAME": "Regency House", "HOURS": "CALL FOR HOURS", "PHONE": "202-362-4445", "TYPE": "Public Housing Cooling Centers for Senior Citizen", "ADDRESS": "5201 CONNECTICUT AVENUE NW", "XCOORD": 393835.5, "YCOORD": 143332.99, "WARD": "Ward 3", "ZIPCODE": 20015, "MARID": 264202 }, "geometry": { "type": "Point", "coordinates": [ -77.07112557093987, 38.957888776939207 ] } }
]
}
