{
"type": "FeatureCollection",
"crs": { "type": "name", "properties": { "name": "urn:ogc:def:crs:OGC:1.3:CRS84" } },
                                                                                
"features": [
{ "type": "Feature", "properties": { "OBJECTID": 1, "NAME": "BMA of Columbia Heights", "ADDRESS": "106 Irving St NW", "PHONE": "(202) 829-0060", "GIS_ID": "dia_1", "WEB_URL": null }, "geometry": { "type": "Point", "coordinates": [ -77.015237651785483, 38.930971112632896 ] } },
{ "type": "Feature", "properties": { "OBJECTID": 2, "NAME": "BMA of Capitol Hill", "ADDRESS": "900 M St SE", "PHONE": "(202) 547-2880", "GIS_ID": "dia_2", "WEB_URL": null }, "geometry": { "type": "Point", "coordinates": [ -76.99342836056266, 38.876700661886581 ] } },
{ "type": "Feature", "properties": { "OBJECTID": 3, "NAME": "BMA of Dupont Circle", "ADDRESS": "11 Dupont Circle NW", "PHONE": "(202) 483-0176", "GIS_ID": "dia_3", "WEB_URL": null }, "geometry": { "type": "Point", "coordinates": [ -77.042424080520775, 38.910219696118517 ] } },
{ "type": "Feature", "properties": { "OBJECTID": 4, "NAME": "Capitol Dialysis LLC", "ADDRESS": "140 Q St NE", "PHONE": "(202) 636-9411", "GIS_ID": "dia_4", "WEB_URL": null }, "geometry": { "type": "Point", "coordinates": [ -77.005034292660341, 38.911320524726577 ] } },
{ "type": "Feature", "properties": { "OBJECTID": 5, "NAME": "Capitol Dialysis NW", "ADDRESS": "3333 Wisconsin Ave NW", "PHONE": "(202) 362-1511", "GIS_ID": "dia_5", "WEB_URL": null }, "geometry": { "type": "Point", "coordinates": [ -77.072183975285697, 38.933874523748813 ] } },
{ "type": "Feature", "properties": { "OBJECTID": 6, "NAME": "Da Vita Georgetown", "ADDRESS": "3223 K St NW", "PHONE": "(202) 333-5211", "GIS_ID": "dia_6", "WEB_URL": "http:\/\/www.davita.com\/" }, "geometry": { "type": "Point", "coordinates": [ -77.063797623020406, 38.90294179876922 ] } },
{ "type": "Feature", "properties": { "OBJECTID": 7, "NAME": "Da Vita Union Plaza", "ADDRESS": "810 1st St NE", "PHONE": "(202) 842-3127", "GIS_ID": "dia_7", "WEB_URL": "http:\/\/www.davita.com\/" }, "geometry": { "type": "Point", "coordinates": [ -77.007026726490793, 38.900550533241898 ] } },
{ "type": "Feature", "properties": { "OBJECTID": 8, "NAME": "Da Vita of Lee Street", "ADDRESS": "5155 Lee St NE", "PHONE": "(202) 398-1047", "GIS_ID": "dia_8", "WEB_URL": "http:\/\/www.davita.com\/" }, "geometry": { "type": "Point", "coordinates": [ -76.925155788958563, 38.904490323367412 ] } },
{ "type": "Feature", "properties": { "OBJECTID": 9, "NAME": "Gambro Healthcare of DC", "ADDRESS": "4907 Georgia Ave NW", "PHONE": "(202) 829-6295", "GIS_ID": "dia_9", "WEB_URL": "http:\/\/www.gambro.com\/" }, "geometry": { "type": "Point", "coordinates": [ -77.026886050560108, 38.949939505719549 ] } },
{ "type": "Feature", "properties": { "OBJECTID": 10, "NAME": "Gambro Healthcare of GW", "ADDRESS": "3857 Pennsylvania Ave SE", "PHONE": "(202) 581-9440", "GIS_ID": "dia_10", "WEB_URL": "http:\/\/www.gambro.com\/" }, "geometry": { "type": "Point", "coordinates": [ -76.950623057045661, 38.865112885136192 ] } },
{ "type": "Feature", "properties": { "OBJECTID": 11, "NAME": "Gambro Healthcare of Brentwood", "ADDRESS": "1231 Brentwood Rd NE", "PHONE": "(202) 635-4141", "GIS_ID": "dia_11", "WEB_URL": "http:\/\/www.gambro.com\/" }, "geometry": { "type": "Point", "coordinates": [ -76.988671095401742, 38.921443154040247 ] } },
{ "type": "Feature", "properties": { "OBJECTID": 12, "NAME": "Gambro Healthcare N Street", "ADDRESS": "1920 N St NW", "PHONE": "(202) 861-2250", "GIS_ID": "dia_12", "WEB_URL": "http:\/\/www.gambro.com\/" }, "geometry": { "type": "Point", "coordinates": [ -77.044194583092079, 38.907059974566195 ] } },
{ "type": "Feature", "properties": { "OBJECTID": 13, "NAME": "Gambro Healthcare Eighth St", "ADDRESS": "300 8th St NE", "PHONE": "(202) 543-9105", "GIS_ID": "dia_13", "WEB_URL": "http:\/\/www.gambro.com\/" }, "geometry": { "type": "Point", "coordinates": [ -76.995301323970494, 38.894014856499709 ] } },
{ "type": "Feature", "properties": { "OBJECTID": 14, "NAME": "BMA of Southeast", "ADDRESS": "1350 Southern Ave SE", "PHONE": "(202) 561-0828", "GIS_ID": "dia_14", "WEB_URL": null }, "geometry": { "type": "Point", "coordinates": [ -76.983246952809765, 38.836195131944471 ] } },
{ "type": "Feature", "properties": { "OBJECTID": 15, "NAME": "BMA of Northeast", "ADDRESS": "817 Varnum St NE", "PHONE": "(202) 832-4481", "GIS_ID": "dia_15", "WEB_URL": null }, "geometry": { "type": "Point", "coordinates": [ -76.996772973461475, 38.942400963034984 ] } },
{ "type": "Feature", "properties": { "OBJECTID": 16, "NAME": "Greater Southeast Community Hospital", "ADDRESS": "1310 Southern Ave SE", "PHONE": "(202) 574-6564", "GIS_ID": "dia_16", "WEB_URL": "http:\/\/www.greatersoutheastorg.verizonsupersite.com\/home\/" }, "geometry": { "type": "Point", "coordinates": [ -76.984858239052187, 38.835642142652361 ] } },
{ "type": "Feature", "properties": { "OBJECTID": 17, "NAME": "Georgetown Hospital", "ADDRESS": "3800 Reservoir Rd NW", "PHONE": "(202) 784-3664", "GIS_ID": "dia_17", "WEB_URL": "http:\/\/www.georgetownuniversityhospital.org\/" }, "geometry": { "type": "Point", "coordinates": [ -77.075594825707086, 38.909329989018126 ] } },
{ "type": "Feature", "properties": { "OBJECTID": 18, "NAME": "Washington Hospital Center", "ADDRESS": "110 Irving St NW", "PHONE": "(202) 877-6101", "GIS_ID": "dia_18", "WEB_URL": "http:\/\/www.whcenter.org\/" }, "geometry": { "type": "Point", "coordinates": [ -77.014437827664466, 38.928539456617457 ] } },
{ "type": "Feature", "properties": { "OBJECTID": 19, "NAME": "Howard University Hospital", "ADDRESS": "2112 Georgia Ave NW", "PHONE": "(202) 865-7365", "GIS_ID": "dia_19", "WEB_URL": "http:\/\/www.huhosp.org\/" }, "geometry": { "type": "Point", "coordinates": [ -77.022462107950759, 38.918232642241101 ] } },
{ "type": "Feature", "properties": { "OBJECTID": 20, "NAME": "Childrens National Medical Center", "ADDRESS": "111 Michigan Ave NW", "PHONE": "(202) 884-5148", "GIS_ID": "dia_20", "WEB_URL": "http:\/\/www.dcchildrens.com\/" }, "geometry": { "type": "Point", "coordinates": [ -77.014528160730379, 38.927164317219336 ] } },
{ "type": "Feature", "properties": { "OBJECTID": 21, "NAME": "BMA of MLK", "ADDRESS": "2051 Martin Luther King Jr Ave SE", "PHONE": "(202) 889-1919", "GIS_ID": "dia_21", "WEB_URL": null }, "geometry": { "type": "Point", "coordinates": [ -76.989625156068513, 38.865628379755861 ] } },
{ "type": "Feature", "properties": { "OBJECTID": 22, "NAME": "BMA of East River Park", "ADDRESS": "3929 Minnesota Ave NE", "PHONE": "(202) 397-2700", "GIS_ID": "dia_22", "WEB_URL": null }, "geometry": { "type": "Point", "coordinates": [ -76.949785273112127, 38.893956000168998 ] } },
{ "type": "Feature", "properties": { "OBJECTID": 23, "NAME": "Grant Park Dialysis", "ADDRESS": "5000 Nannie Helen Burroughs Ave SE", "PHONE": "(202) 399-7700", "GIS_ID": "dia_23", "WEB_URL": "http:\/\/www.davita.com\/" }, "geometry": { "type": "Point", "coordinates": [ -76.929298505368735, 38.89848339036196 ] } },
{ "type": "Feature", "properties": { "OBJECTID": 24, "NAME": "BMA of Anacostia", "ADDRESS": "1444 I St NW", "PHONE": "(202) 397-2700", "GIS_ID": "dia_24", "WEB_URL": null }, "geometry": { "type": "Point", "coordinates": [ -77.032739694652832, 38.901140942466249 ] } }
]
}
