{"type":"FeatureCollection","features":[{"type":"Feature","properties":{"OBJECTID":1,"NAME":"Capital One","ADDRESS":"925 15TH STREET NW"},"geometry":{"type":"Point","coordinates":[-77.03329283832718,38.90200639928569]}},{"type":"Feature","properties":{"OBJECTID":2,"NAME":"PNC","ADDRESS":"1400 K STREET NW"},"geometry":{"type":"Point","coordinates":[-77.03241109835463,38.90217483328189]}},{"type":"Feature","properties":{"OBJECTID":3,"NAME":"Bank of Georgetown","ADDRESS":"1001 WISCONSIN AVENUE NW"},"geometry":{"type":"Point","coordinates":[-77.06245365218629,38.902778987248595]}},{"type":"Feature","properties":{"OBJECTID":4,"NAME":"PNC","ADDRESS":"1348 4TH STREET NE"},"geometry":{"type":"Point","coordinates":[-76.99882692788832,38.91009216869413]}},{"type":"Feature","properties":{"OBJECTID":5,"NAME":"PNC","ADDRESS":"1201 WISCONSIN AVENUE NW"},"geometry":{"type":"Point","coordinates":[-77.06253974951437,38.90538406760288]}},{"type":"Feature","properties":{"OBJECTID":6,"NAME":"Treasury Dept. FCU","ADDRESS":"1 COLUMBUS CIRCLE NE"},"geometry":{"type":"Point","coordinates":[-77.00443985578632,38.89677657075668]}},{"type":"Feature","properties":{"OBJECTID":7,"NAME":"Bank of America","ADDRESS":"1330 MARYLAND AVENUE SW"},"geometry":{"type":"Point","coordinates":[-77.03045117037682,38.883609556025576]}},{"type":"Feature","properties":{"OBJECTID":8,"NAME":"Wells Fargo","ADDRESS":"1350 CONNECTICUT AVENUE NW"},"geometry":{"type":"Point","coordinates":[-77.04308170960878,38.90831282998837]}},{"type":"Feature","properties":{"OBJECTID":9,"NAME":"PNC","ADDRESS":"800 17TH STREET NW"},"geometry":{"type":"Point","coordinates":[-77.03974473583425,38.90048827554364]}},{"type":"Feature","properties":{"OBJECTID":10,"NAME":"Wells Fargo","ADDRESS":"1700 PENNSYLVANIA AVENUE NW"},"geometry":{"type":"Point","coordinates":[-77.03995790533357,38.89865698302762]}},{"type":"Feature","properties":{"OBJECTID":11,"NAME":"Bank of America","ADDRESS":"801 22ND STREET NW"},"geometry":{"type":"Point","coordinates":[-77.04855949741984,38.89999732139214]}},{"type":"Feature","properties":{"OBJECTID":12,"NAME":"Wells Fargo","ADDRESS":"1850 M STREET NW"},"geometry":{"type":"Point","coordinates":[-77.04295034511013,38.90536949001509]}},{"type":"Feature","properties":{"OBJECTID":13,"NAME":"Bank of America","ADDRESS":"4201 CONNECTICUT AVENUE NW"},"geometry":{"type":"Point","coordinates":[-77.06263695743043,38.94347705639641]}},{"type":"Feature","properties":{"OBJECTID":14,"NAME":"Bank of America","ADDRESS":"700 13TH STREET NW"},"geometry":{"type":"Point","coordinates":[-77.03000192863561,38.898741490006294]}},{"type":"Feature","properties":{"OBJECTID":15,"NAME":"Bank of America","ADDRESS":"1225 1ST STREET NW"},"geometry":{"type":"Point","coordinates":[-77.01195147412183,38.90682864987058]}},{"type":"Feature","properties":{"OBJECTID":16,"NAME":"PNC","ADDRESS":"800 FLORIDA AVENUE NE"},"geometry":{"type":"Point","coordinates":[-76.99493199737786,38.905783462255435]}},{"type":"Feature","properties":{"OBJECTID":17,"NAME":"Bank of America","ADDRESS":"1710 M STREET NW"},"geometry":{"type":"Point","coordinates":[-77.0389157714124,38.905410360206496]}},{"type":"Feature","properties":{"OBJECTID":18,"NAME":"United Bank","ADDRESS":"4900 MASSACHUSETTS AVENUE NW"},"geometry":{"type":"Point","coordinates":[-77.09717242945231,38.94570858444602]}},{"type":"Feature","properties":{"OBJECTID":19,"NAME":"PNC","ADDRESS":"5530 CONNECTICUT AVENUE NW"},"geometry":{"type":"Point","coordinates":[-77.07542392419293,38.963814419022256]}},{"type":"Feature","properties":{"OBJECTID":20,"NAME":"PNC","ADDRESS":"1913 MASSACHUSETTS AVENUE NW"},"geometry":{"type":"Point","coordinates":[-77.0442848507319,38.91022386113394]}},{"type":"Feature","properties":{"OBJECTID":21,"NAME":"Bank of Georgetown","ADDRESS":"1115 30TH STREET NW"},"geometry":{"type":"Point","coordinates":[-77.05897966921731,38.90466344911684]}},{"type":"Feature","properties":{"OBJECTID":22,"NAME":"Bank of Georgetown","ADDRESS":"1350 I STREET NW"},"geometry":{"type":"Point","coordinates":[-77.0312999496262,38.901035398797035]}},{"type":"Feature","properties":{"OBJECTID":23,"NAME":"United Bank","ADDRESS":"1001 G STREET NW"},"geometry":{"type":"Point","coordinates":[-77.02648771557404,38.89871900806481]}},{"type":"Feature","properties":{"OBJECTID":24,"NAME":"Wells Fargo","ADDRESS":"1901 7TH STREET NW"},"geometry":{"type":"Point","coordinates":[-77.02173277701431,38.91574306617748]}},{"type":"Feature","properties":{"OBJECTID":25,"NAME":"PNC","ADDRESS":"1535 ALABAMA AVENUE SE"},"geometry":{"type":"Point","coordinates":[-76.98099933675722,38.84494948017793]}},{"type":"Feature","properties":{"OBJECTID":26,"NAME":"United Bank","ADDRESS":"1875 I STREET NW"},"geometry":{"type":"Point","coordinates":[-77.0428664147337,38.901534843987655]}},{"type":"Feature","properties":{"OBJECTID":27,"NAME":"Bank of America","ADDRESS":"1345 PARK ROAD NW"},"geometry":{"type":"Point","coordinates":[-77.0319236960138,38.9308217390898]}},{"type":"Feature","properties":{"OBJECTID":28,"NAME":"Wells Fargo","ADDRESS":"1510 K STREET NW"},"geometry":{"type":"Point","coordinates":[-77.03513899798408,38.902181341362294]}},{"type":"Feature","properties":{"OBJECTID":29,"NAME":"Wells Fargo","ADDRESS":"1800 K STREET NW"},"geometry":{"type":"Point","coordinates":[-77.04208981246718,38.902237958480974]}},{"type":"Feature","properties":{"OBJECTID":30,"NAME":"Bank of Georgetown","ADDRESS":"1301 U STREET NW"},"geometry":{"type":"Point","coordinates":[-77.03066268955817,38.91721761993563]}},{"type":"Feature","properties":{"OBJECTID":31,"NAME":"Bank of America","ADDRESS":"55 M STREET SE"},"geometry":{"type":"Point","coordinates":[-77.00699214668268,38.87626345969622]}},{"type":"Feature","properties":{"OBJECTID":32,"NAME":"Bank of America","ADDRESS":"2100 MARTIN LUTHER KING JR AVENUE SE"},"geometry":{"type":"Point","coordinates":[-76.98924003925477,38.86544569930909]}},{"type":"Feature","properties":{"OBJECTID":33,"NAME":"Wells Fargo","ADDRESS":"1310 G STREET NW"},"geometry":{"type":"Point","coordinates":[-77.03062508342238,38.89811839997172]}},{"type":"Feature","properties":{"OBJECTID":34,"NAME":"Wells Fargo","ADDRESS":"1350 NEW YORK AVENUE NW"},"geometry":{"type":"Point","coordinates":[-77.03157664353715,38.89926833440359]}},{"type":"Feature","properties":{"OBJECTID":35,"NAME":"Bank of Georgetown","ADDRESS":"1101 CONNECTICUT AVENUE NW"},"geometry":{"type":"Point","coordinates":[-77.03973727274916,38.90403991310442]}},{"type":"Feature","properties":{"OBJECTID":36,"NAME":"Treasury Dept. FCU","ADDRESS":"701 MADISON STREET NW"},"geometry":{"type":"Point","coordinates":[-77.02272540490262,38.95866931109356]}},{"type":"Feature","properties":{"OBJECTID":37,"NAME":"Bank of America","ADDRESS":"610 F STREET NW"},"geometry":{"type":"Point","coordinates":[-77.02035425690165,38.89712981119924]}},{"type":"Feature","properties":{"OBJECTID":38,"NAME":"Wells Fargo","ADDRESS":"2901 M STREET NW"},"geometry":{"type":"Point","coordinates":[-77.05825529994317,38.90537691386671]}},{"type":"Feature","properties":{"OBJECTID":39,"NAME":"Wells Fargo","ADDRESS":"215 PENNSYLVANIA AVENUE SE"},"geometry":{"type":"Point","coordinates":[-77.00286203173846,38.88709676275079]}},{"type":"Feature","properties":{"OBJECTID":40,"NAME":"Wells Fargo","ADDRESS":"1301 PENNSYLVANIA AVENUE NW"},"geometry":{"type":"Point","coordinates":[-77.02995562214524,38.896384193015315]}},{"type":"Feature","properties":{"OBJECTID":41,"NAME":"Wells Fargo","ADDRESS":"502 23RD STREET NW"},"geometry":{"type":"Point","coordinates":[-77.05066738678158,38.89653081826664]}},{"type":"Feature","properties":{"OBJECTID":42,"NAME":"Bank of America","ADDRESS":"511 GRESHAM PLACE NW"},"geometry":{"type":"Point","coordinates":[-77.02078876304385,38.927279749584095]}},{"type":"Feature","properties":{"OBJECTID":43,"NAME":"Agriculture FCU","ADDRESS":"355 E STREET SW"},"geometry":{"type":"Point","coordinates":[-77.01636371710894,38.8836031009287]}},{"type":"Feature","properties":{"OBJECTID":44,"NAME":"Wells Fargo","ADDRESS":"490 L STREET NW"},"geometry":{"type":"Point","coordinates":[-77.0183549116401,38.90349680089074]}},{"type":"Feature","properties":{"OBJECTID":45,"NAME":"Bank of America","ADDRESS":"1900 F STREET NW"},"geometry":{"type":"Point","coordinates":[-77.0439087546132,38.89712657504802]}},{"type":"Feature","properties":{"OBJECTID":46,"NAME":"Bank of America","ADDRESS":"2001 PENNSYLVANIA AVENUE NW"},"geometry":{"type":"Point","coordinates":[-77.04533394045355,38.9016807487396]}},{"type":"Feature","properties":{"OBJECTID":47,"NAME":"Wells Fargo","ADDRESS":"444 NORTH CAPITOL STREET NW"},"geometry":{"type":"Point","coordinates":[-77.00982752974912,38.895829822692676]}},{"type":"Feature","properties":{"OBJECTID":48,"NAME":"Bank of America","ADDRESS":"3031 14TH STREET NW"},"geometry":{"type":"Point","coordinates":[-77.03223333924664,38.92847570953521]}},{"type":"Feature","properties":{"OBJECTID":49,"NAME":"Bank of America","ADDRESS":"3519 CONNECTICUT AVENUE NW"},"geometry":{"type":"Point","coordinates":[-77.05837158858641,38.936314606385224]}},{"type":"Feature","properties":{"OBJECTID":50,"NAME":"Bank of America","ADDRESS":"1845 7TH STREET NW"},"geometry":{"type":"Point","coordinates":[-77.02171599813813,38.915188606261616]}},{"type":"Feature","properties":{"OBJECTID":51,"NAME":"Wells Fargo","ADDRESS":"20 M STREET SE"},"geometry":{"type":"Point","coordinates":[-77.00790435884798,38.87679624820974]}},{"type":"Feature","properties":{"OBJECTID":52,"NAME":"Signal Financial","ADDRESS":"1391 PENNSYLVANIA AVENUE SE"},"geometry":{"type":"Point","coordinates":[-76.98659810081185,38.88035352235828]}},{"type":"Feature","properties":{"OBJECTID":53,"NAME":"Capital one","ADDRESS":"1075 5TH STREET NW"},"geometry":{"type":"Point","coordinates":[-77.01870037978196,38.90331063348419]}},{"type":"Feature","properties":{"OBJECTID":54,"NAME":"Agriculture FCU","ADDRESS":"1400 INDEPENDENCE AVENUE SW"},"geometry":{"type":"Point","coordinates":[-77.03003733148769,38.886724312105]}},{"type":"Feature","properties":{"OBJECTID":55,"NAME":"Signal Financial","ADDRESS":"1400 IRVING STREET NW"},"geometry":{"type":"Point","coordinates":[-77.03362364405767,38.928530448672156]}},{"type":"Feature","properties":{"OBJECTID":56,"NAME":"Capital One","ADDRESS":"701 PENNSYLVANIA AVENUE NW"},"geometry":{"type":"Point","coordinates":[-77.0223822955259,38.89444593765408]}},{"type":"Feature","properties":{"OBJECTID":57,"NAME":"United Bank","ADDRESS":"1667 K STREET NW"},"geometry":{"type":"Point","coordinates":[-77.03818169649261,38.90300582225452]}},{"type":"Feature","properties":{"OBJECTID":58,"NAME":"Capital One","ADDRESS":"901 NEW YORK AVENUE NW"},"geometry":{"type":"Point","coordinates":[-77.02526668869662,38.90202336485067]}},{"type":"Feature","properties":{"OBJECTID":59,"NAME":"DGE FCU","ADDRESS":"300 INDIANA AVENUE NW"},"geometry":{"type":"Point","coordinates":[-77.01654462391548,38.89432124366613]}},{"type":"Feature","properties":{"OBJECTID":60,"NAME":"HEW FCU","ADDRESS":"888 1ST STREET NE"},"geometry":{"type":"Point","coordinates":[-77.00711982364636,38.9015369969242]}},{"type":"Feature","properties":{"OBJECTID":61,"NAME":"Bank of America","ADDRESS":"1990 K STREET NW"},"geometry":{"type":"Point","coordinates":[-77.04455020887069,38.902192364660756]}},{"type":"Feature","properties":{"OBJECTID":62,"NAME":"Wells Fargo","ADDRESS":"1100 CONNECTICUT AVENUE NW"},"geometry":{"type":"Point","coordinates":[-77.04064022361011,38.90408014007665]}},{"type":"Feature","properties":{"OBJECTID":63,"NAME":"Bank of America","ADDRESS":"425 8TH STREET SE"},"geometry":{"type":"Point","coordinates":[-76.9952482601646,38.882993562494164]}},{"type":"Feature","properties":{"OBJECTID":64,"NAME":"Wells Fargo","ADDRESS":"600 MARYLAND AVENUE SW"},"geometry":{"type":"Point","coordinates":[-77.02106337518575,38.88596957119864]}},{"type":"Feature","properties":{"OBJECTID":65,"NAME":"Bank of Georgetown","ADDRESS":"822 E STREET NW"},"geometry":{"type":"Point","coordinates":[-77.02339098385579,38.896003827385854]}},{"type":"Feature","properties":{"OBJECTID":66,"NAME":"Bank of America","ADDRESS":"1001 E STREET NW"},"geometry":{"type":"Point","coordinates":[-77.02618445812311,38.896326364701025]}},{"type":"Feature","properties":{"OBJECTID":67,"NAME":"Capital One","ADDRESS":"1200 F STREET NW"},"geometry":{"type":"Point","coordinates":[-77.02842462758731,38.89719181527099]}},{"type":"Feature","properties":{"OBJECTID":68,"NAME":"Bank of America","ADDRESS":"50 MASSACHUSETTS AVENUE NE"},"geometry":{"type":"Point","coordinates":[-77.00618140825563,38.89754625633314]}},{"type":"Feature","properties":{"OBJECTID":69,"NAME":"DGE FCU","ADDRESS":"3059 MOUNT PLEASANT STREET NW"},"geometry":{"type":"Point","coordinates":[-77.03698561775077,38.92837196769379]}},{"type":"Feature","properties":{"OBJECTID":70,"NAME":"Wells Fargo","ADDRESS":"1300 I STREET NW"},"geometry":{"type":"Point","coordinates":[-77.03034998628497,38.901000877199664]}},{"type":"Feature","properties":{"OBJECTID":71,"NAME":"Bank of America","ADDRESS":"2440 WISCONSIN AVENUE NW"},"geometry":{"type":"Point","coordinates":[-77.0728444153267,38.921969118576655]}},{"type":"Feature","properties":{"OBJECTID":72,"NAME":"Bank of America","ADDRESS":"1612 K STREET NW"},"geometry":{"type":"Point","coordinates":[-77.03753001273458,38.90219140771989]}},{"type":"Feature","properties":{"OBJECTID":73,"NAME":"Wells Fargo","ADDRESS":"801 PENNSYLVANIA AVENUE NW"},"geometry":{"type":"Point","coordinates":[-77.0235083940207,38.89443607748466]}},{"type":"Feature","properties":{"OBJECTID":74,"NAME":"Bank of America","ADDRESS":"3401 CONNECTICUT AVENUE NW"},"geometry":{"type":"Point","coordinates":[-77.05756543307709,38.93468729592847]}},{"type":"Feature","properties":{"OBJECTID":75,"NAME":"Bank of America","ADDRESS":"5201 WISCONSIN AVENUE NW"},"geometry":{"type":"Point","coordinates":[-77.08358043024764,38.95724707540983]}},{"type":"Feature","properties":{"OBJECTID":76,"NAME":"DGE FCU","ADDRESS":"2000 14TH STREET NW"},"geometry":{"type":"Point","coordinates":[-77.03240581877091,38.917451816558355]}},{"type":"Feature","properties":{"OBJECTID":77,"NAME":"Bank of America","ADDRESS":"2397 6TH STREET NW"},"geometry":{"type":"Point","coordinates":[-77.0191558146982,38.92410117337166]}},{"type":"Feature","properties":{"OBJECTID":78,"NAME":"Bank of America","ADDRESS":"3131 MOUNT PLEASANT STREET NW"},"geometry":{"type":"Point","coordinates":[-77.03739672408396,38.929642009008596]}},{"type":"Feature","properties":{"OBJECTID":79,"NAME":"Agriculture FCU","ADDRESS":"1000 JEFFERSON DRIVE SW"},"geometry":{"type":"Point","coordinates":[-77.0259902482823,38.888816127870406]}},{"type":"Feature","properties":{"OBJECTID":80,"NAME":"Wells Fargo","ADDRESS":"1934 14TH STREET NW"},"geometry":{"type":"Point","coordinates":[-77.03222740717337,38.916614361186106]}},{"type":"Feature","properties":{"OBJECTID":81,"NAME":"PNC","ADDRESS":"3700 O STREET NW"},"geometry":{"type":"Point","coordinates":[-77.07358084908903,38.90879720578689]}},{"type":"Feature","properties":{"OBJECTID":82,"NAME":"Bank of America","ADDRESS":"100 H STREET SE"},"geometry":{"type":"Point","coordinates":[-77.00489363701118,38.88065218603276]}},{"type":"Feature","properties":{"OBJECTID":83,"NAME":"Capital one","ADDRESS":"85 H STREET NW"},"geometry":{"type":"Point","coordinates":[-77.01161008996115,38.90040960113047]}},{"type":"Feature","properties":{"OBJECTID":84,"NAME":"Bank of America","ADDRESS":"4500 WISCONSIN AVENUE NW"},"geometry":{"type":"Point","coordinates":[-77.0805524905311,38.94853657776346]}},{"type":"Feature","properties":{"OBJECTID":85,"NAME":"Bank of America","ADDRESS":"1801 L STREET NW"},"geometry":{"type":"Point","coordinates":[-77.0420066860772,38.90399047401776]}},{"type":"Feature","properties":{"OBJECTID":86,"NAME":"Bank of America","ADDRESS":"3845 MINNESOTA AVENUE NE"},"geometry":{"type":"Point","coordinates":[-76.95033620045187,38.89298564665156]}},{"type":"Feature","properties":{"OBJECTID":87,"NAME":"HEW FCU","ADDRESS":"200 INDEPENDENCE AVENUE SW"},"geometry":{"type":"Point","coordinates":[-77.0143967435962,38.88688331256486]}},{"type":"Feature","properties":{"OBJECTID":88,"NAME":"Bank of America","ADDRESS":"4301 49TH STREET NW"},"geometry":{"type":"Point","coordinates":[-77.09640665201447,38.94456660703616]}},{"type":"Feature","properties":{"OBJECTID":89,"NAME":"Bank of America","ADDRESS":"722 H STREET NE"},"geometry":{"type":"Point","coordinates":[-76.99518634690075,38.90040530472816]}},{"type":"Feature","properties":{"OBJECTID":90,"NAME":"Wells Fargo","ADDRESS":"2119 BLADENSBURG ROAD NE"},"geometry":{"type":"Point","coordinates":[-76.9702688918337,38.919591196527456]}},{"type":"Feature","properties":{"OBJECTID":91,"NAME":"Wells Fargo","ADDRESS":"1300 CONNECTICUT AVENUE NW"},"geometry":{"type":"Point","coordinates":[-77.04267356141713,38.907518623616134]}},{"type":"Feature","properties":{"OBJECTID":92,"NAME":"Wells Fargo","ADDRESS":"1200 1ST STREET NE"},"geometry":{"type":"Point","coordinates":[-77.00635796934606,38.906094997825655]}},{"type":"Feature","properties":{"OBJECTID":93,"NAME":"Wells Fargo","ADDRESS":"1447 P STREET NW"},"geometry":{"type":"Point","coordinates":[-77.03372412497433,38.909819038502555]}},{"type":"Feature","properties":{"OBJECTID":94,"NAME":"Lowest Price Franklin","ADDRESS":"2800 12TH STREET NE"},"geometry":{"type":"Point","coordinates":[-76.99082792523004,38.92588440960206]}},{"type":"Feature","properties":{"OBJECTID":95,"NAME":"J&V Pawn Shop","ADDRESS":"703 H STREET NE"},"geometry":{"type":"Point","coordinates":[-76.99591496010082,38.89993140264378]}},{"type":"Feature","properties":{"OBJECTID":96,"NAME":"CVS","ADDRESS":"3336 WISCONSIN AVENUE NW"},"geometry":{"type":"Point","coordinates":[-77.07299916212476,38.93435149372009]}},{"type":"Feature","properties":{"OBJECTID":97,"NAME":"Westin-Washington","ADDRESS":"1400 M STREET NW"},"geometry":{"type":"Point","coordinates":[-77.03343838463303,38.90532359434738]}},{"type":"Feature","properties":{"OBJECTID":98,"NAME":"CVS","ADDRESS":"1000 U STREET NW"},"geometry":{"type":"Point","coordinates":[-77.02630447885886,38.916695658547475]}},{"type":"Feature","properties":{"OBJECTID":99,"NAME":"Walgreens","ADDRESS":"1155 F STREET NW"},"geometry":{"type":"Point","coordinates":[-77.0276367308206,38.897582066540814]}},{"type":"Feature","properties":{"OBJECTID":100,"NAME":"7-Eleven","ADDRESS":"1340 WISCONSIN AVENUE NW"},"geometry":{"type":"Point","coordinates":[-77.06366311845946,38.907682842669274]}},{"type":"Feature","properties":{"OBJECTID":101,"NAME":"Democracy FCU","ADDRESS":"550 12TH STREET SW"},"geometry":{"type":"Point","coordinates":[-77.02751085953854,38.883266885948856]}},{"type":"Feature","properties":{"OBJECTID":102,"NAME":"7-Eleven","ADDRESS":"4000 GEORGIA AVENUE NW"},"geometry":{"type":"Point","coordinates":[-77.02559505567388,38.94002969079843]}},{"type":"Feature","properties":{"OBJECTID":103,"NAME":"7-Eleven","ADDRESS":"1101 SOUTH CAPITOL STREET SW"},"geometry":{"type":"Point","coordinates":[-77.0095568989167,38.877167090418475]}},{"type":"Feature","properties":{"OBJECTID":104,"NAME":"Jack's Fresh","ADDRESS":"1919 M STREET NW"},"geometry":{"type":"Point","coordinates":[-77.04457081516483,38.906019105884575]}},{"type":"Feature","properties":{"OBJECTID":105,"NAME":"Jacks' Famous Deli","ADDRESS":"1129 15TH STREET NW"},"geometry":{"type":"Point","coordinates":[-77.03422156716354,38.90463134588913]}},{"type":"Feature","properties":{"OBJECTID":106,"NAME":"CVS","ADDRESS":"401 M STREET SW"},"geometry":{"type":"Point","coordinates":[-77.01816363705923,38.87671600929982]}},{"type":"Feature","properties":{"OBJECTID":107,"NAME":"CVS","ADDRESS":"801 H STREET NE"},"geometry":{"type":"Point","coordinates":[-76.99455797346032,38.899985037164015]}},{"type":"Feature","properties":{"OBJECTID":108,"NAME":"Treasury Dept. FCU","ADDRESS":"1700 G STREET NW"},"geometry":{"type":"Point","coordinates":[-77.03982655304239,38.898156973614185]}},{"type":"Feature","properties":{"OBJECTID":109,"NAME":"Lafayette FUC","ADDRESS":"1440 P STREET NW"},"geometry":{"type":"Point","coordinates":[-77.03356774583524,38.90949910711599]}},{"type":"Feature","properties":{"OBJECTID":110,"NAME":"CVS","ADDRESS":"2129 14TH STREET NW"},"geometry":{"type":"Point","coordinates":[-77.03162778842162,38.918912190125496]}},{"type":"Feature","properties":{"OBJECTID":111,"NAME":"Target","ADDRESS":"3100 14TH STREET NW"},"geometry":{"type":"Point","coordinates":[-77.03298601467985,38.929308227973344]}},{"type":"Feature","properties":{"OBJECTID":112,"NAME":"CVS","ADDRESS":"1403 WISCONSIN AVENUE NW"},"geometry":{"type":"Point","coordinates":[-77.06366270266008,38.90865079001901]}},{"type":"Feature","properties":{"OBJECTID":113,"NAME":"White House FCU","ADDRESS":"1724 F STREET NW"},"geometry":{"type":"Point","coordinates":[-77.04071380736558,38.89706296214731]}},{"type":"Feature","properties":{"OBJECTID":114,"NAME":"7-Eleven","ADDRESS":"1850 M STREET NW"},"geometry":{"type":"Point","coordinates":[-77.04295034511013,38.90536949001509]}},{"type":"Feature","properties":{"OBJECTID":115,"NAME":"Courtyard-DC Embassy row","ADDRESS":"1600 RHODE ISLAND AVENUE NW"},"geometry":{"type":"Point","coordinates":[-77.03697366275608,38.90667396183729]}},{"type":"Feature","properties":{"OBJECTID":116,"NAME":"Cornerstone Café Inc","ADDRESS":"1501 M STREET NW"},"geometry":{"type":"Point","coordinates":[-77.03497068533267,38.90597562063672]}},{"type":"Feature","properties":{"OBJECTID":117,"NAME":"Bank of America NA (NC)","ADDRESS":"1090 VERMONT AVENUE NW"},"geometry":{"type":"Point","coordinates":[-77.0336524031384,38.90342745458215]}},{"type":"Feature","properties":{"OBJECTID":118,"NAME":"CVS","ADDRESS":"2226 WISCONSIN AVENUE NW"},"geometry":{"type":"Point","coordinates":[-77.07157366136475,38.91983664148158]}},{"type":"Feature","properties":{"OBJECTID":119,"NAME":"Lafyette FCU","ADDRESS":"811 VERMONT AVENUE NW"},"geometry":{"type":"Point","coordinates":[-77.03434686902546,38.90076384147608]}},{"type":"Feature","properties":{"OBJECTID":120,"NAME":"7-Eleven","ADDRESS":"908 17TH STREET NW"},"geometry":{"type":"Point","coordinates":[-77.0397452641594,38.901850249200066]}},{"type":"Feature","properties":{"OBJECTID":121,"NAME":"Hilton Capital","ADDRESS":"1000 16TH STREET NW"},"geometry":{"type":"Point","coordinates":[-77.03689296044142,38.90288984838763]}},{"type":"Feature","properties":{"OBJECTID":122,"NAME":"CVS","ADDRESS":"845 BLADENSBURG ROAD NE"},"geometry":{"type":"Point","coordinates":[-76.98211526108902,38.90131667199661]}},{"type":"Feature","properties":{"OBJECTID":123,"NAME":"Homewood Suites Washington","ADDRESS":"1475 MASSACHUSETTS AVENUE NW"},"geometry":{"type":"Point","coordinates":[-77.03358487951081,38.90668444393561]}},{"type":"Feature","properties":{"OBJECTID":124,"NAME":"Lafyette FCU","ADDRESS":"1381 KENYON STREET NW"},"geometry":{"type":"Point","coordinates":[-77.03207705097093,38.92997194316552]}},{"type":"Feature","properties":{"OBJECTID":125,"NAME":"7-Eleven","ADDRESS":"3700 12TH STREET NE"},"geometry":{"type":"Point","coordinates":[-76.99151302426662,38.93494042529489]}},{"type":"Feature","properties":{"OBJECTID":126,"NAME":"Democracy FCU","ADDRESS":"901 D STREET SW"},"geometry":{"type":"Point","coordinates":[-77.02474985797194,38.885058731144625]}},{"type":"Feature","properties":{"OBJECTID":127,"NAME":"Transit Employees FCU","ADDRESS":"2000 BLADENSBURG ROAD NE"},"geometry":{"type":"Point","coordinates":[-76.97182989852269,38.91899180868105]}},{"type":"Feature","properties":{"OBJECTID":128,"NAME":"CVS","ADDRESS":"6 DUPONT CIRCLE NW"},"geometry":{"type":"Point","coordinates":[-77.04448717670367,38.90944780540054]}},{"type":"Feature","properties":{"OBJECTID":129,"NAME":"Aqua Nails DC","ADDRESS":"1855 WISCONSIN AVENUE NW"},"geometry":{"type":"Point","coordinates":[-77.06756091263733,38.91612588552242]}},{"type":"Feature","properties":{"OBJECTID":130,"NAME":"7-Eleven","ADDRESS":"1500 K STREET NW"},"geometry":{"type":"Point","coordinates":[-77.03493805151741,38.90219698609134]}},{"type":"Feature","properties":{"OBJECTID":131,"NAME":"CVS","ADDRESS":"2000 M STREET NW"},"geometry":{"type":"Point","coordinates":[-77.045341161229,38.90522355211266]}},{"type":"Feature","properties":{"OBJECTID":132,"NAME":"Washington First Bank","ADDRESS":"1025 CONNECTICUT AVENUE NW"},"geometry":{"type":"Point","coordinates":[-77.03933901476712,38.9033193794772]}},{"type":"Feature","properties":{"OBJECTID":133,"NAME":"To Market To Market","ADDRESS":"1615 L STREET NW"},"geometry":{"type":"Point","coordinates":[-77.03745340529828,38.90427677659399]}},{"type":"Feature","properties":{"OBJECTID":134,"NAME":"7-Eleven","ADDRESS":"3000 CONNECTICUT AVENUE NW"},"geometry":{"type":"Point","coordinates":[-77.05556772624143,38.92990025677504]}},{"type":"Feature","properties":{"OBJECTID":135,"NAME":"CVS","ADDRESS":"3327 CONNECTICUT AVENUE NW"},"geometry":{"type":"Point","coordinates":[-77.05732572641007,38.93435788995804]}},{"type":"Feature","properties":{"OBJECTID":136,"NAME":"7-Eleven","ADDRESS":"912 NEW HAMPSHIRE AVENUE NW"},"geometry":{"type":"Point","coordinates":[-77.05173555558078,38.90116515313769]}},{"type":"Feature","properties":{"OBJECTID":137,"NAME":"Democracy FCU","ADDRESS":"400 MARYLAND AVENUE SW"},"geometry":{"type":"Point","coordinates":[-77.01872998453537,38.88649254499204]}},{"type":"Feature","properties":{"OBJECTID":138,"NAME":"Colombo Bank","ADDRESS":"1229 CONNECTICUT AVENUE NW"},"geometry":{"type":"Point","coordinates":[-77.04143976849356,38.90706910070517]}},{"type":"Feature","properties":{"OBJECTID":139,"NAME":"CVS","ADDRESS":"4859 MACARTHUR BOULEVARD NW"},"geometry":{"type":"Point","coordinates":[-77.09545720743316,38.916767097520996]}},{"type":"Feature","properties":{"OBJECTID":140,"NAME":"Manufactuers & Traders Trust Co","ADDRESS":"1680 K STREET NW"},"geometry":{"type":"Point","coordinates":[-77.03823973349505,38.902234687925564]}},{"type":"Feature","properties":{"OBJECTID":141,"NAME":"CVS","ADDRESS":"2550 VIRGINIA AVENUE NW"},"geometry":{"type":"Point","coordinates":[-77.0548106135013,38.89903399395701]}},{"type":"Feature","properties":{"OBJECTID":142,"NAME":"NRL FCU","ADDRESS":"4555 OVERLOOK AVENUE SW"},"geometry":{"type":"Point","coordinates":[-77.0181059633713,38.82244702577493]}},{"type":"Feature","properties":{"OBJECTID":143,"NAME":"The Andover House","ADDRESS":"1200 14TH STREET NW"},"geometry":{"type":"Point","coordinates":[-77.03238368294828,38.90702367718988]}},{"type":"Feature","properties":{"OBJECTID":144,"NAME":"Vida Fintess-Metropole","ADDRESS":"1515 15TH STREET NW"},"geometry":{"type":"Point","coordinates":[-77.03424927407302,38.909979414441565]}},{"type":"Feature","properties":{"OBJECTID":145,"NAME":"CVS","ADDRESS":"500 12TH STREET SE"},"geometry":{"type":"Point","coordinates":[-76.98995732598824,38.88261685705123]}},{"type":"Feature","properties":{"OBJECTID":146,"NAME":"Harris Teeter","ADDRESS":"1350 POTOMAC AVENUE SE"},"geometry":{"type":"Point","coordinates":[-76.9866249810729,38.880209661424274]}},{"type":"Feature","properties":{"OBJECTID":147,"NAME":"7-Eleven","ADDRESS":"429 8TH STREET SE"},"geometry":{"type":"Point","coordinates":[-76.99527638939774,38.88288564315324]}},{"type":"Feature","properties":{"OBJECTID":148,"NAME":"JR's Bar & Grill 2","ADDRESS":"1519 17TH STREET NW"},"geometry":{"type":"Point","coordinates":[-77.03820011070621,38.91048094517466]}},{"type":"Feature","properties":{"OBJECTID":149,"NAME":"The Barrell House","ADDRESS":"1341 14TH STREET NW"},"geometry":{"type":"Point","coordinates":[-77.03156902177841,38.90861567528102]}},{"type":"Feature","properties":{"OBJECTID":150,"NAME":"A1 Wine & Liquor","ADDRESS":"1420 K STREET NW"},"geometry":{"type":"Point","coordinates":[-77.032813444573,38.90214958764318]}},{"type":"Feature","properties":{"OBJECTID":151,"NAME":"CVS","ADDRESS":"2000 L STREET NW"},"geometry":{"type":"Point","coordinates":[-77.04578709665066,38.90341531137431]}},{"type":"Feature","properties":{"OBJECTID":152,"NAME":"CVS","ADDRESS":"1101 CONNECTICUT AVENUE NW"},"geometry":{"type":"Point","coordinates":[-77.03973727274916,38.90403991310442]}},{"type":"Feature","properties":{"OBJECTID":153,"NAME":"AFL-CIO Employees FCU","ADDRESS":"1125 15TH STREET NW"},"geometry":{"type":"Point","coordinates":[-77.03410643422288,38.90447643587744]}},{"type":"Feature","properties":{"OBJECTID":154,"NAME":"CVS","ADDRESS":"5227 GEORGIA AVENUE NW"},"geometry":{"type":"Point","coordinates":[-77.027266943065,38.953737755959885]}},{"type":"Feature","properties":{"OBJECTID":155,"NAME":"7-Eleven","ADDRESS":"1900 WYOMING AVENUE NW"},"geometry":{"type":"Point","coordinates":[-77.04478004916449,38.91847377851771]}},{"type":"Feature","properties":{"OBJECTID":156,"NAME":"7-Eleven","ADDRESS":"1755 COLUMBIA ROAD NW"},"geometry":{"type":"Point","coordinates":[-77.04144583477132,38.923877392166524]}},{"type":"Feature","properties":{"OBJECTID":157,"NAME":"CVS","ADDRESS":"1100 NEW JERSEY AVENUE SE"},"geometry":{"type":"Point","coordinates":[-77.00394445278046,38.876959050725304]}},{"type":"Feature","properties":{"OBJECTID":158,"NAME":"CVS","ADDRESS":"660 RHODE ISLAND AVENUE NE"},"geometry":{"type":"Point","coordinates":[-76.99698095982146,38.92200863011859]}},{"type":"Feature","properties":{"OBJECTID":159,"NAME":"Narfe Premier","ADDRESS":"445 12TH STREET SW"},"geometry":{"type":"Point","coordinates":[-77.02851429100802,38.88329340017688]}},{"type":"Feature","properties":{"OBJECTID":160,"NAME":"Democracy FCU","ADDRESS":"330 C STREET SW"},"geometry":{"type":"Point","coordinates":[-77.01637219852154,38.88543018040379]}},{"type":"Feature","properties":{"OBJECTID":161,"NAME":"The Daily Market","ADDRESS":"1011 CONNECTICUT AVENUE NW"},"geometry":{"type":"Point","coordinates":[-77.03917190861286,38.90300963826607]}},{"type":"Feature","properties":{"OBJECTID":162,"NAME":"ACS FCU","ADDRESS":"1155 16TH STREET NW"},"geometry":{"type":"Point","coordinates":[-77.03605573416681,38.90536938906027]}},{"type":"Feature","properties":{"OBJECTID":163,"NAME":"CVS","ADDRESS":"435 8TH STREET NW"},"geometry":{"type":"Point","coordinates":[-77.02273216786384,38.8959519791804]}},{"type":"Feature","properties":{"OBJECTID":164,"NAME":"Walgreens","ADDRESS":"1217 22ND STREET NW"},"geometry":{"type":"Point","coordinates":[-77.04850399688442,38.90551865659989]}},{"type":"Feature","properties":{"OBJECTID":165,"NAME":"CVS","ADDRESS":"2240 M STREET NW"},"geometry":{"type":"Point","coordinates":[-77.04944445595535,38.90506487195198]}},{"type":"Feature","properties":{"OBJECTID":166,"NAME":"George at the Four Seasons","ADDRESS":"2828 PENNSYLVANIA AVENUE NW"},"geometry":{"type":"Point","coordinates":[-77.05792514453802,38.904996655251736]}},{"type":"Feature","properties":{"OBJECTID":167,"NAME":"Lobby Mart","ADDRESS":"501 3RD STREET NW"},"geometry":{"type":"Point","coordinates":[-77.01478209595423,38.89656708593855]}},{"type":"Feature","properties":{"OBJECTID":168,"NAME":"The Partnership FCU","ADDRESS":"1776 F STREET NW"},"geometry":{"type":"Point","coordinates":[-77.04126194552332,38.89705430195031]}},{"type":"Feature","properties":{"OBJECTID":169,"NAME":"Capital One, NA","ADDRESS":"1100 17TH STREET NW"},"geometry":{"type":"Point","coordinates":[-77.03888748997969,38.90405587360021]}},{"type":"Feature","properties":{"OBJECTID":170,"NAME":"Cardinal Bank","ADDRESS":"1776 K STREET NW"},"geometry":{"type":"Point","coordinates":[-77.04123806571008,38.90218880636895]}},{"type":"Feature","properties":{"OBJECTID":171,"NAME":"7-Eleven","ADDRESS":"514 19TH STREET NW"},"geometry":{"type":"Point","coordinates":[-77.04372433341076,38.896580286802575]}},{"type":"Feature","properties":{"OBJECTID":172,"NAME":"Capital One, NA","ADDRESS":"1001 CONNECTICUT AVENUE NW"},"geometry":{"type":"Point","coordinates":[-77.03896695877175,38.90285377215935]}},{"type":"Feature","properties":{"OBJECTID":173,"NAME":"CVS","ADDRESS":"1900 7TH STREET NW"},"geometry":{"type":"Point","coordinates":[-77.02221017134934,38.915849725170474]}},{"type":"Feature","properties":{"OBJECTID":174,"NAME":"7-Eleven","ADDRESS":"1700 17TH STREET NW"},"geometry":{"type":"Point","coordinates":[-77.03885747806402,38.912876316802894]}},{"type":"Feature","properties":{"OBJECTID":175,"NAME":"7-Eleven","ADDRESS":"3012 14TH STREET NW"},"geometry":{"type":"Point","coordinates":[-77.0327399433576,38.927653019507645]}},{"type":"Feature","properties":{"OBJECTID":176,"NAME":"7-Eleven","ADDRESS":"407 8TH STREET NE"},"geometry":{"type":"Point","coordinates":[-76.99474669414262,38.89523034111364]}},{"type":"Feature","properties":{"OBJECTID":177,"NAME":"7-Eleven","ADDRESS":"900 BLADENSBURG ROAD NE"},"geometry":{"type":"Point","coordinates":[-76.98242760937156,38.90207531319405]}},{"type":"Feature","properties":{"OBJECTID":178,"NAME":"Treasury Dept. FCU","ADDRESS":"1400 PENNSYLVANIA AVENUE SE"},"geometry":{"type":"Point","coordinates":[-76.98468379969718,38.8803306759732]}},{"type":"Feature","properties":{"OBJECTID":179,"NAME":"Sunoco","ADDRESS":"1248 PENNSYLVANIA AVENUE SE"},"geometry":{"type":"Point","coordinates":[-76.98865285534693,38.88206416307804]}},{"type":"Feature","properties":{"OBJECTID":180,"NAME":"Amaco Quick Shoppe","ADDRESS":"2600 14TH STREET NW"},"geometry":{"type":"Point","coordinates":[-77.03262127320977,38.923848839829844]}},{"type":"Feature","properties":{"OBJECTID":181,"NAME":"CVS","ADDRESS":"2616 CONNECTICUT AVENUE NW"},"geometry":{"type":"Point","coordinates":[-77.05227843612593,38.92414266719857]}},{"type":"Feature","properties":{"OBJECTID":182,"NAME":"Lafyette FCU","ADDRESS":"409 3RD STREET SW"},"geometry":{"type":"Point","coordinates":[-77.01558654561448,38.884613858035415]}},{"type":"Feature","properties":{"OBJECTID":183,"NAME":"JR's Bar & Grill","ADDRESS":"1517 17TH STREET NW"},"geometry":{"type":"Point","coordinates":[-77.03824244766236,38.91030743061596]}},{"type":"Feature","properties":{"OBJECTID":184,"NAME":"CVS","ADDRESS":"1637 P STREET NW"},"geometry":{"type":"Point","coordinates":[-77.03822029202037,38.909842967613805]}},{"type":"Feature","properties":{"OBJECTID":185,"NAME":"Hotel Rouge","ADDRESS":"1315 16TH STREET NW"},"geometry":{"type":"Point","coordinates":[-77.03613249031446,38.90827383752954]}},{"type":"Feature","properties":{"OBJECTID":186,"NAME":"National Capital Bank of Washington","ADDRESS":"1737 17TH STREET NW"},"geometry":{"type":"Point","coordinates":[-77.03820941967369,38.91384636833902]}},{"type":"Feature","properties":{"OBJECTID":187,"NAME":"CVS Store #02817","ADDRESS":"1418 P STREET NW"},"geometry":{"type":"Point","coordinates":[-77.03285271861816,38.9093502222475]}},{"type":"Feature","properties":{"OBJECTID":188,"NAME":"Barmy Wine & Liquor","ADDRESS":"1912 L STREET NW"},"geometry":{"type":"Point","coordinates":[-77.04411898392621,38.903591075685476]}},{"type":"Feature","properties":{"OBJECTID":189,"NAME":"Harris Teeter","ADDRESS":"1631 KALORAMA ROAD NW"},"geometry":{"type":"Point","coordinates":[-77.0384418681479,38.921986941315225]}},{"type":"Feature","properties":{"OBJECTID":190,"NAME":"Treasury Dept. FCU","ADDRESS":"1101 2ND STREET NE"},"geometry":{"type":"Point","coordinates":[-77.00318031673272,38.903960328300364]}},{"type":"Feature","properties":{"OBJECTID":191,"NAME":"Dept. of Labor FCU","ADDRESS":"200 CONSTITUTION AVENUE NW"},"geometry":{"type":"Point","coordinates":[-77.0143982763204,38.893335201511114]}},{"type":"Feature","properties":{"OBJECTID":192,"NAME":"Metro Square News","ADDRESS":"901 NEW YORK AVENUE NW"},"geometry":{"type":"Point","coordinates":[-77.02526668869662,38.90202336485067]}},{"type":"Feature","properties":{"OBJECTID":193,"NAME":"CVS","ADDRESS":"1199 VERMONT AVENUE NW"},"geometry":{"type":"Point","coordinates":[-77.03237339452383,38.90442341935804]}},{"type":"Feature","properties":{"OBJECTID":194,"NAME":"CVS","ADDRESS":"2125 E STREET NW"},"geometry":{"type":"Point","coordinates":[-77.04777657648133,38.896304214768314]}},{"type":"Feature","properties":{"OBJECTID":195,"NAME":"CVS","ADDRESS":"4555 WISCONSIN AVENUE NW"},"geometry":{"type":"Point","coordinates":[-77.08007367219298,38.94939647693606]}},{"type":"Feature","properties":{"OBJECTID":196,"NAME":"Democracy FCU","ADDRESS":"888 1ST STREET NE"},"geometry":{"type":"Point","coordinates":[-77.00711982364636,38.9015369969242]}},{"type":"Feature","properties":{"OBJECTID":197,"NAME":"CVS","ADDRESS":"400 MASSACHUSETTS AVENUE NW"},"geometry":{"type":"Point","coordinates":[-77.01688257821131,38.900106817680864]}},{"type":"Feature","properties":{"OBJECTID":198,"NAME":"CVS","ADDRESS":"717 14TH STREET NW"},"geometry":{"type":"Point","coordinates":[-77.03156081689077,38.89890674301787]}},{"type":"Feature","properties":{"OBJECTID":199,"NAME":"Presidential Bank FSB","ADDRESS":"1660 K STREET NW"},"geometry":{"type":"Point","coordinates":[-77.03781327150728,38.90219573047179]}},{"type":"Feature","properties":{"OBJECTID":200,"NAME":"Doubletree","ADDRESS":"1515 RHODE ISLAND AVENUE NW"},"geometry":{"type":"Point","coordinates":[-77.03550961566867,38.9079433320589]}},{"type":"Feature","properties":{"OBJECTID":201,"NAME":"CVS","ADDRESS":"645 H STREET NE"},"geometry":{"type":"Point","coordinates":[-76.99645585997476,38.899982227448405]}},{"type":"Feature","properties":{"OBJECTID":202,"NAME":"CVS","ADDRESS":"2819 M STREET NW"},"geometry":{"type":"Point","coordinates":[-77.05769844566345,38.905518981689156]}},{"type":"Feature","properties":{"OBJECTID":203,"NAME":"CVS","ADDRESS":"3601 12TH STREET NE"},"geometry":{"type":"Point","coordinates":[-76.99090890959268,38.933815152719845]}},{"type":"Feature","properties":{"OBJECTID":204,"NAME":"CVS","ADDRESS":"661 PENNSYLVANIA AVENUE SE"},"geometry":{"type":"Point","coordinates":[-76.9964045339457,38.884470168371585]}},{"type":"Feature","properties":{"OBJECTID":205,"NAME":"CVS","ADDRESS":"1201 MARYLAND AVENUE SW"},"geometry":{"type":"Point","coordinates":[-77.02935357973611,38.88469913108346]}},{"type":"Feature","properties":{"OBJECTID":206,"NAME":"Lafyette FCU","ADDRESS":"1300 PENNSYLVANIA AVENUE NW"},"geometry":{"type":"Point","coordinates":[-77.03021416579986,38.89494738185332]}},{"type":"Feature","properties":{"OBJECTID":207,"NAME":"CVS","ADDRESS":"1275 PENNSYLVANIA AVENUE NW"},"geometry":{"type":"Point","coordinates":[-77.02891118335386,38.89569513593884]}},{"type":"Feature","properties":{"OBJECTID":208,"NAME":"Lafayette FUC","ADDRESS":"1615 M STREET NW"},"geometry":{"type":"Point","coordinates":[-77.03735566344832,38.905861827569545]}},{"type":"Feature","properties":{"OBJECTID":209,"NAME":"City Market","ADDRESS":"1150 17TH STREET NW"},"geometry":{"type":"Point","coordinates":[-77.03876527956427,38.90534140626012]}},{"type":"Feature","properties":{"OBJECTID":210,"NAME":"Transit Employee FCU","ADDRESS":"1114 H STREET NE"},"geometry":{"type":"Point","coordinates":[-76.99093783680947,38.90040667400018]}},{"type":"Feature","properties":{"OBJECTID":211,"NAME":"Marbi's news stand","ADDRESS":"1730 RHODE ISLAND AVENUE NW"},"geometry":{"type":"Point","coordinates":[-77.03962107204629,38.90594675066183]}},{"type":"Feature","properties":{"OBJECTID":212,"NAME":"7-Eleven","ADDRESS":"1100 VERMONT AVENUE NW"},"geometry":{"type":"Point","coordinates":[-77.03338691332787,38.903981634668604]}},{"type":"Feature","properties":{"OBJECTID":213,"NAME":"Saints Paradise Cafeteria","ADDRESS":"601 M STREET NW"},"geometry":{"type":"Point","coordinates":[-77.02051438533526,38.905976711412805]}},{"type":"Feature","properties":{"OBJECTID":214,"NAME":"Metro Café","ADDRESS":"1400 16TH STREET NW"},"geometry":{"type":"Point","coordinates":[-77.0370746392069,38.9090752852284]}},{"type":"Feature","properties":{"OBJECTID":215,"NAME":"Govt. Printing office FCU","ADDRESS":"732 NORTH CAPITOL STREET NW"},"geometry":{"type":"Point","coordinates":[-77.00946956736664,38.89992361309167]}},{"type":"Feature","properties":{"OBJECTID":216,"NAME":"Bank of America NA (NC)","ADDRESS":"1612 K STREET NW"},"geometry":{"type":"Point","coordinates":[-77.03753001273458,38.90219140771989]}},{"type":"Feature","properties":{"OBJECTID":217,"NAME":"1500 Mass apts","ADDRESS":"1500 MASSACHUSETTS AVENUE NW"},"geometry":{"type":"Point","coordinates":[-77.03551120800971,38.90651019329394]}},{"type":"Feature","properties":{"OBJECTID":218,"NAME":"Beacon hotel","ADDRESS":"1615 RHODE ISLAND AVENUE NW"},"geometry":{"type":"Point","coordinates":[-77.03805196945882,38.9070567407233]}},{"type":"Feature","properties":{"OBJECTID":219,"NAME":"7-Eleven","ADDRESS":"1400 RHODE ISLAND AVENUE NW"},"geometry":{"type":"Point","coordinates":[-77.03227793950346,38.90850918307828]}},{"type":"Feature","properties":{"OBJECTID":220,"NAME":"Library of Congress","ADDRESS":"101 INDEPENDENCE AVENUE SE"},"geometry":{"type":"Point","coordinates":[-77.00472302626419,38.88710102631496]}},{"type":"Feature","properties":{"OBJECTID":221,"NAME":"Transit Employees FCU","ADDRESS":"1401 W STREET NE"},"geometry":{"type":"Point","coordinates":[-76.98811646760889,38.917400125095135]}},{"type":"Feature","properties":{"OBJECTID":222,"NAME":"Dept. of Coomerce FCU","ADDRESS":"1401 CONSTITUTION AVENUE NW"},"geometry":{"type":"Point","coordinates":[-77.03281793798791,38.89264720258883]}},{"type":"Feature","properties":{"OBJECTID":223,"NAME":"Harris Teeter","ADDRESS":"1201 1ST STREET NE"},"geometry":{"type":"Point","coordinates":[-77.00549455502134,38.90602306491623]}},{"type":"Feature","properties":{"OBJECTID":224,"NAME":"CVS","ADDRESS":"1117 10TH STREET NW"},"geometry":{"type":"Point","coordinates":[-77.02572491847435,38.90478783894933]}},{"type":"Feature","properties":{"OBJECTID":225,"NAME":"7-Eleven","ADDRESS":"1115 U STREET NW"},"geometry":{"type":"Point","coordinates":[-77.02777024657425,38.917171409767946]}},{"type":"Feature","properties":{"OBJECTID":226,"NAME":"Harris Teeter","ADDRESS":"401 M STREET SE"},"geometry":{"type":"Point","coordinates":[-77.0000965513043,38.876224302397254]}},{"type":"Feature","properties":{"OBJECTID":227,"NAME":"Cardinal Bank","ADDRESS":"1825 WISCONSIN AVENUE NW"},"geometry":{"type":"Point","coordinates":[-77.06730094174529,38.915566617831196]}},{"type":"Feature","properties":{"OBJECTID":228,"NAME":"7-Eleven","ADDRESS":"2617 P STREET NW"},"geometry":{"type":"Point","coordinates":[-77.0553401850021,38.90953496387088]}},{"type":"Feature","properties":{"OBJECTID":229,"NAME":"1 West Dupont Circle Wine & Liquor","ADDRESS":"2012 P STREET NW"},"geometry":{"type":"Point","coordinates":[-77.04549428153153,38.909403817187716]}},{"type":"Feature","properties":{"OBJECTID":230,"NAME":"Renaissance Mayflower DC","ADDRESS":"1127 CONNECTICUT AVENUE NW"},"geometry":{"type":"Point","coordinates":[-77.03946886579344,38.90444970404519]}},{"type":"Feature","properties":{"OBJECTID":231,"NAME":"Walgreens","ADDRESS":"801 7TH STREET NW"},"geometry":{"type":"Point","coordinates":[-77.02164208421266,38.900001716019744]}},{"type":"Feature","properties":{"OBJECTID":232,"NAME":"Democracy FCU","ADDRESS":"200 INDEPENDENCE AVENUE SW"},"geometry":{"type":"Point","coordinates":[-77.0143967435962,38.88688331256486]}},{"type":"Feature","properties":{"OBJECTID":233,"NAME":"7-Eleven","ADDRESS":"3146 MOUNT PLEASANT STREET NW"},"geometry":{"type":"Point","coordinates":[-77.0381403866819,38.930102183483214]}},{"type":"Feature","properties":{"OBJECTID":234,"NAME":"Julias Empanadas","ADDRESS":"1221 CONNECTICUT AVENUE NW"},"geometry":{"type":"Point","coordinates":[-77.04118067006085,38.906630485671116]}},{"type":"Feature","properties":{"OBJECTID":235,"NAME":"Democracy FCU","ADDRESS":"830 1ST STREET NE"},"geometry":{"type":"Point","coordinates":[-77.00762737212726,38.901079880785254]}},{"type":"Feature","properties":{"OBJECTID":236,"NAME":"7-Eleven","ADDRESS":"333 HAWAII AVENUE NE"},"geometry":{"type":"Point","coordinates":[-77.00086670365643,38.94129572309729]}},{"type":"Feature","properties":{"OBJECTID":237,"NAME":"CVS","ADDRESS":"1200 1ST STREET NE"},"geometry":{"type":"Point","coordinates":[-77.00635796934606,38.906094997825655]}},{"type":"Feature","properties":{"OBJECTID":238,"NAME":"7-Eleven","ADDRESS":"1315 2ND STREET NE"},"geometry":{"type":"Point","coordinates":[-77.00327848399917,38.90770383586049]}},{"type":"Feature","properties":{"OBJECTID":239,"NAME":"CVS","ADDRESS":"3642 GEORGIA AVENUE NW"},"geometry":{"type":"Point","coordinates":[-77.02442127821007,38.93560758847045]}},{"type":"Feature","properties":{"OBJECTID":240,"NAME":"State Liquors","ADDRESS":"2159 P STREET NW"},"geometry":{"type":"Point","coordinates":[-77.04852354569587,38.909833467532714]}},{"type":"Feature","properties":{"OBJECTID":241,"NAME":"7-Eleven","ADDRESS":"1622 7TH STREET NW"},"geometry":{"type":"Point","coordinates":[-77.02220952047773,38.911908667546264]}},{"type":"Feature","properties":{"OBJECTID":242,"NAME":"7-Eleven","ADDRESS":"1233 BRENTWOOD ROAD NE"},"geometry":{"type":"Point","coordinates":[-76.98921351286926,38.920510267092006]}},{"type":"Feature","properties":{"OBJECTID":243,"NAME":"Hotel Helix","ADDRESS":"1430 RHODE ISLAND AVENUE NW"},"geometry":{"type":"Point","coordinates":[-77.03300732445264,38.90808828946364]}},{"type":"Feature","properties":{"OBJECTID":244,"NAME":"Lowest Price Franklin(Allpoint)","ADDRESS":"2800 12TH STREET NE"},"geometry":{"type":"Point","coordinates":[-76.99082793099622,38.925884409602524]}},{"type":"Feature","properties":{"OBJECTID":245,"NAME":"J&V Pawn Shop(Allpoint)","ADDRESS":"703 H STREET NE"},"geometry":{"type":"Point","coordinates":[-76.99591496586494,38.89993140264397]}},{"type":"Feature","properties":{"OBJECTID":246,"NAME":"Capital One","ADDRESS":"925 15TH STREET NW"},"geometry":{"type":"Point","coordinates":[-77.03329284409146,38.90200639928406]}},{"type":"Feature","properties":{"OBJECTID":247,"NAME":"CVS(Allpoint)","ADDRESS":"3336 WISCONSIN AVENUE NW"},"geometry":{"type":"Point","coordinates":[-77.07299916212476,38.93435149372009]}},{"type":"Feature","properties":{"OBJECTID":248,"NAME":"PNC","ADDRESS":"1400 K STREET NW"},"geometry":{"type":"Point","coordinates":[-77.0324111041189,38.90217483328029]}},{"type":"Feature","properties":{"OBJECTID":249,"NAME":"Westin-Washington(star)","ADDRESS":"1400 M STREET NW"},"geometry":{"type":"Point","coordinates":[-77.03343839039748,38.905323594345724]}},{"type":"Feature","properties":{"OBJECTID":250,"NAME":"CVS(Allpoint)","ADDRESS":"1000 U STREET NW"},"geometry":{"type":"Point","coordinates":[-77.02630448462432,38.916695658546175]}},{"type":"Feature","properties":{"OBJECTID":251,"NAME":"Bank of Georgetown","ADDRESS":"1001 WISCONSIN AVENUE NW"},"geometry":{"type":"Point","coordinates":[-77.06245364642196,38.90277898725167]}},{"type":"Feature","properties":{"OBJECTID":252,"NAME":"Walgreens(Allpoint)","ADDRESS":"1155 F STREET NW"},"geometry":{"type":"Point","coordinates":[-77.02763673658451,38.89758206653946]}},{"type":"Feature","properties":{"OBJECTID":253,"NAME":"7-Eleven (Allpoint)","ADDRESS":"1340 WISCONSIN AVENUE NW"},"geometry":{"type":"Point","coordinates":[-77.06366311269483,38.90768284267243]}},{"type":"Feature","properties":{"OBJECTID":254,"NAME":"PNC","ADDRESS":"1348 4TH STREET NE"},"geometry":{"type":"Point","coordinates":[-76.99882693365323,38.910092168694156]}},{"type":"Feature","properties":{"OBJECTID":255,"NAME":"PNC","ADDRESS":"1201 WISCONSIN AVENUE NW"},"geometry":{"type":"Point","coordinates":[-77.06253974374982,38.905384067605965]}},{"type":"Feature","properties":{"OBJECTID":256,"NAME":"Treasury Dept. FCU","ADDRESS":"1 COLUMBUS CIRCLE NE"},"geometry":{"type":"Point","coordinates":[-77.00443986155017,38.896776570756465]}},{"type":"Feature","properties":{"OBJECTID":257,"NAME":"Democracy FCU(Money Pass)","ADDRESS":"550 12TH STREET SW"},"geometry":{"type":"Point","coordinates":[-77.0275108653013,38.883266885947485]}},{"type":"Feature","properties":{"OBJECTID":258,"NAME":"Bank of America","ADDRESS":"1330 MARYLAND AVENUE SW"},"geometry":{"type":"Point","coordinates":[-77.03045116461404,38.883609556027054]}},{"type":"Feature","properties":{"OBJECTID":259,"NAME":"7-Eleven(Allpoint)","ADDRESS":"4000 GEORGIA AVENUE NW"},"geometry":{"type":"Point","coordinates":[-77.02559506144124,38.94002969079716]}},{"type":"Feature","properties":{"OBJECTID":260,"NAME":"7-Eleven(Allpoint)","ADDRESS":"1101 SOUTH CAPITOL STREET SW"},"geometry":{"type":"Point","coordinates":[-77.00955690467896,38.87716709041799]}},{"type":"Feature","properties":{"OBJECTID":261,"NAME":"Jack's Fresh(star)","ADDRESS":"1919 M STREET NW"},"geometry":{"type":"Point","coordinates":[-77.04457082092945,38.906019105882365]}},{"type":"Feature","properties":{"OBJECTID":262,"NAME":"Jacks' Famous Deli(star)","ADDRESS":"1129 15TH STREET NW"},"geometry":{"type":"Point","coordinates":[-77.03422157292803,38.90463134588743]}},{"type":"Feature","properties":{"OBJECTID":263,"NAME":"CVS(Allpoint)","ADDRESS":"401 M STREET SW"},"geometry":{"type":"Point","coordinates":[-77.01816363705923,38.87671600929982]}},{"type":"Feature","properties":{"OBJECTID":264,"NAME":"CVS(Allpoint)","ADDRESS":"801 H STREET NE"},"geometry":{"type":"Point","coordinates":[-76.99455797922441,38.899985037164306]}},{"type":"Feature","properties":{"OBJECTID":265,"NAME":"Treasury Dept. FCU (Money Pass)","ADDRESS":"1700 G STREET NW"},"geometry":{"type":"Point","coordinates":[-77.03982655880635,38.89815697361222]}},{"type":"Feature","properties":{"OBJECTID":266,"NAME":"Lafayette FUC(star)","ADDRESS":"1440 P STREET NW"},"geometry":{"type":"Point","coordinates":[-77.0335677516001,38.909499107114335]}},{"type":"Feature","properties":{"OBJECTID":267,"NAME":"Lafyette FCU (Money Pass)","ADDRESS":"1440 P STREET NW"},"geometry":{"type":"Point","coordinates":[-77.0335677516001,38.909499107114335]}},{"type":"Feature","properties":{"OBJECTID":268,"NAME":"Wells Fargo","ADDRESS":"1350 CONNECTICUT AVENUE NW"},"geometry":{"type":"Point","coordinates":[-77.04308171537357,38.908312829986244]}},{"type":"Feature","properties":{"OBJECTID":269,"NAME":"PNC","ADDRESS":"800 17TH STREET NW"},"geometry":{"type":"Point","coordinates":[-77.0397447415984,38.9004882755417]}},{"type":"Feature","properties":{"OBJECTID":270,"NAME":"Wells Fargo","ADDRESS":"1700 PENNSYLVANIA AVENUE NW"},"geometry":{"type":"Point","coordinates":[-77.03995791109759,38.89865698302562]}},{"type":"Feature","properties":{"OBJECTID":271,"NAME":"CVS(Allpoint)","ADDRESS":"2129 14TH STREET NW"},"geometry":{"type":"Point","coordinates":[-77.03162778265606,38.918912190127024]}},{"type":"Feature","properties":{"OBJECTID":272,"NAME":"Target(Allpoint)","ADDRESS":"3100 14TH STREET NW"},"geometry":{"type":"Point","coordinates":[-77.03298601467985,38.929308227973344]}},{"type":"Feature","properties":{"OBJECTID":273,"NAME":"The Meeting Place(star)","ADDRESS":"100 17TH STREET SE"},"geometry":{"type":"Point","coordinates":[-76.9805217253974,38.888538136388696]}},{"type":"Feature","properties":{"OBJECTID":274,"NAME":"CVS(Allpoint)","ADDRESS":"1403 WISCONSIN AVENUE NW"},"geometry":{"type":"Point","coordinates":[-77.0636627084248,38.90865079001586]}},{"type":"Feature","properties":{"OBJECTID":275,"NAME":"White House FCU (Money Pass)","ADDRESS":"1724 F STREET NW"},"geometry":{"type":"Point","coordinates":[-77.04071381312944,38.89706296214529]}},{"type":"Feature","properties":{"OBJECTID":276,"NAME":"Bank of America","ADDRESS":"801 22ND STREET NW"},"geometry":{"type":"Point","coordinates":[-77.04855950318397,38.899997321389755]}},{"type":"Feature","properties":{"OBJECTID":277,"NAME":"Wells Fargo","ADDRESS":"1850 M STREET NW"},"geometry":{"type":"Point","coordinates":[-77.04295035087468,38.905369490012966]}},{"type":"Feature","properties":{"OBJECTID":278,"NAME":"7-Eleven(Allpoint)","ADDRESS":"1850 M STREET NW"},"geometry":{"type":"Point","coordinates":[-77.04295035087468,38.905369490012966]}},{"type":"Feature","properties":{"OBJECTID":279,"NAME":"Bank of America","ADDRESS":"4201 CONNECTICUT AVENUE NW"},"geometry":{"type":"Point","coordinates":[-77.06263695166281,38.94347705639947]}},{"type":"Feature","properties":{"OBJECTID":280,"NAME":"Courtyard-DC Embassy row(star)","ADDRESS":"1600 RHODE ISLAND AVENUE NW"},"geometry":{"type":"Point","coordinates":[-77.0369736685207,38.90667396183547]}},{"type":"Feature","properties":{"OBJECTID":281,"NAME":"Cornerstone Café Inc(star)","ADDRESS":"1501 M STREET NW"},"geometry":{"type":"Point","coordinates":[-77.03497069109727,38.90597562063498]}},{"type":"Feature","properties":{"OBJECTID":282,"NAME":"Bank of America","ADDRESS":"700 13TH STREET NW"},"geometry":{"type":"Point","coordinates":[-77.0300019228716,38.898741490007765]}},{"type":"Feature","properties":{"OBJECTID":283,"NAME":"Bank of America NA (NC)(star)","ADDRESS":"1090 VERMONT AVENUE NW"},"geometry":{"type":"Point","coordinates":[-77.03365239737401,38.903427454583834]}},{"type":"Feature","properties":{"OBJECTID":284,"NAME":"Bank of America","ADDRESS":"1225 1ST STREET NW"},"geometry":{"type":"Point","coordinates":[-77.01195147988649,38.90682864986999]}},{"type":"Feature","properties":{"OBJECTID":285,"NAME":"CVS(Allpoint)","ADDRESS":"2226 WISCONSIN AVENUE NW"},"geometry":{"type":"Point","coordinates":[-77.07157366713047,38.919836641478035]}},{"type":"Feature","properties":{"OBJECTID":286,"NAME":"PNC","ADDRESS":"800 FLORIDA AVENUE NE"},"geometry":{"type":"Point","coordinates":[-76.99493200314244,38.90578346225569]}},{"type":"Feature","properties":{"OBJECTID":287,"NAME":"Lafyette FCU (Money Pass)","ADDRESS":"811 VERMONT AVENUE NW"},"geometry":{"type":"Point","coordinates":[-77.03434687478962,38.90076384147438]}},{"type":"Feature","properties":{"OBJECTID":288,"NAME":"Bank of America","ADDRESS":"1710 M STREET NW"},"geometry":{"type":"Point","coordinates":[-77.03891577717694,38.90541036020456]}},{"type":"Feature","properties":{"OBJECTID":289,"NAME":"7-Eleven(Allpoint)","ADDRESS":"908 17TH STREET NW"},"geometry":{"type":"Point","coordinates":[-77.03974526992364,38.90185024919812]}},{"type":"Feature","properties":{"OBJECTID":290,"NAME":"Hilton Capital(star)","ADDRESS":"1000 16TH STREET NW"},"geometry":{"type":"Point","coordinates":[-77.03689296620568,38.90288984838581]}},{"type":"Feature","properties":{"OBJECTID":291,"NAME":"United Bank","ADDRESS":"4900 MASSACHUSETTS AVENUE NW"},"geometry":{"type":"Point","coordinates":[-77.09717243522013,38.94570858444121]}},{"type":"Feature","properties":{"OBJECTID":292,"NAME":"CVS(Allpoint)","ADDRESS":"845 BLADENSBURG ROAD NE"},"geometry":{"type":"Point","coordinates":[-76.98211526685324,38.90131667199749]}},{"type":"Feature","properties":{"OBJECTID":293,"NAME":"Homewood Suites Washington(star)","ADDRESS":"1475 MASSACHUSETTS AVENUE NW"},"geometry":{"type":"Point","coordinates":[-77.03358487374618,38.906684443937245]}},{"type":"Feature","properties":{"OBJECTID":294,"NAME":"PNC","ADDRESS":"5530 CONNECTICUT AVENUE NW"},"geometry":{"type":"Point","coordinates":[-77.0754239299622,38.963814419018505]}},{"type":"Feature","properties":{"OBJECTID":295,"NAME":"PNC","ADDRESS":"1913 MASSACHUSETTS AVENUE NW"},"geometry":{"type":"Point","coordinates":[-77.04428485649683,38.910223861131755]}},{"type":"Feature","properties":{"OBJECTID":296,"NAME":"Bank of Georgetown","ADDRESS":"1115 30TH STREET NW"},"geometry":{"type":"Point","coordinates":[-77.0589796634529,38.904663449119774]}},{"type":"Feature","properties":{"OBJECTID":297,"NAME":"Lafyette FCU(Money Pass)","ADDRESS":"1381 KENYON STREET NW"},"geometry":{"type":"Point","coordinates":[-77.03207705673745,38.92997194316394]}},{"type":"Feature","properties":{"OBJECTID":298,"NAME":"7-Eleven(Allpoint)","ADDRESS":"3700 12TH STREET NE"},"geometry":{"type":"Point","coordinates":[-76.99139504496698,38.934889339596616]}},{"type":"Feature","properties":{"OBJECTID":299,"NAME":"Democracy FCU(Money Pass)","ADDRESS":"901 D STREET SW"},"geometry":{"type":"Point","coordinates":[-77.02474986373483,38.88505873114342]}},{"type":"Feature","properties":{"OBJECTID":300,"NAME":"Transit Employees FCU(Money Pass)","ADDRESS":"2000 BLADENSBURG ROAD NE"},"geometry":{"type":"Point","coordinates":[-76.97182990428834,38.91899180868244]}},{"type":"Feature","properties":{"OBJECTID":301,"NAME":"CVS(Allpoint)","ADDRESS":"6 DUPONT CIRCLE NW"},"geometry":{"type":"Point","coordinates":[-77.04448718246853,38.90944780539836]}},{"type":"Feature","properties":{"OBJECTID":302,"NAME":"Aqua Nails DC (Money Pass)","ADDRESS":"1855 WISCONSIN AVENUE NW"},"geometry":{"type":"Point","coordinates":[-77.06756091263733,38.91612588552242]}},{"type":"Feature","properties":{"OBJECTID":303,"NAME":"Bank of Georgetown","ADDRESS":"1350 I STREET NW"},"geometry":{"type":"Point","coordinates":[-77.03129994386212,38.90103539879858]}},{"type":"Feature","properties":{"OBJECTID":304,"NAME":"7-Eleven(Allpoint)","ADDRESS":"1500 K STREET NW"},"geometry":{"type":"Point","coordinates":[-77.0349380572817,38.90219698608963]}},{"type":"Feature","properties":{"OBJECTID":305,"NAME":"CVS(Allpoint)","ADDRESS":"2000 M STREET NW"},"geometry":{"type":"Point","coordinates":[-77.04534115546448,38.905223552114876]}},{"type":"Feature","properties":{"OBJECTID":306,"NAME":"Washington First Bank(star)","ADDRESS":"1025 CONNECTICUT AVENUE NW"},"geometry":{"type":"Point","coordinates":[-77.03933900900275,38.90331937947914]}},{"type":"Feature","properties":{"OBJECTID":307,"NAME":"CVS(Allpoint)","ADDRESS":"1025 CONNECTICUT AVENUE NW"},"geometry":{"type":"Point","coordinates":[-77.03933900900275,38.90331937947914]}},{"type":"Feature","properties":{"OBJECTID":308,"NAME":"To Market To Market(star)","ADDRESS":"1615 L STREET NW"},"geometry":{"type":"Point","coordinates":[-77.03745341106273,38.90427677659216]}},{"type":"Feature","properties":{"OBJECTID":309,"NAME":"United Bank","ADDRESS":"1001 G STREET NW"},"geometry":{"type":"Point","coordinates":[-77.02648772133807,38.89871900806348]}},{"type":"Feature","properties":{"OBJECTID":310,"NAME":"7-Eleven(Allpoint)","ADDRESS":"3000 CONNECTICUT AVENUE NW"},"geometry":{"type":"Point","coordinates":[-77.05556773200796,38.929900256772314]}},{"type":"Feature","properties":{"OBJECTID":311,"NAME":"CVS(Allpoint)","ADDRESS":"3327 CONNECTICUT AVENUE NW"},"geometry":{"type":"Point","coordinates":[-77.05732572064319,38.93435788996086]}},{"type":"Feature","properties":{"OBJECTID":312,"NAME":"PNC","ADDRESS":"1535 ALABAMA AVENUE SE"},"geometry":{"type":"Point","coordinates":[-76.98099934251688,38.844949480178855]}},{"type":"Feature","properties":{"OBJECTID":313,"NAME":"7-Eleven(Allpoint)","ADDRESS":"912 NEW HAMPSHIRE AVENUE NW"},"geometry":{"type":"Point","coordinates":[-77.05173556134498,38.90116515313512]}},{"type":"Feature","properties":{"OBJECTID":314,"NAME":"Democracy FCU(Money Pass)","ADDRESS":"400 MARYLAND AVENUE SW"},"geometry":{"type":"Point","coordinates":[-77.01872997877236,38.88649254499296]}},{"type":"Feature","properties":{"OBJECTID":315,"NAME":"Colombo Bank(star)","ADDRESS":"1229 CONNECTICUT AVENUE NW"},"geometry":{"type":"Point","coordinates":[-77.04143976272897,38.90706910070723]}},{"type":"Feature","properties":{"OBJECTID":316,"NAME":"United Bank","ADDRESS":"1875 I STREET NW"},"geometry":{"type":"Point","coordinates":[-77.04286642049793,38.90153484398554]}},{"type":"Feature","properties":{"OBJECTID":317,"NAME":"CVS (Allpoint)","ADDRESS":"4859 MACARTHUR BOULEVARD NW"},"geometry":{"type":"Point","coordinates":[-77.09545721319861,38.916767097516285]}},{"type":"Feature","properties":{"OBJECTID":318,"NAME":"Wells Fargo","ADDRESS":"1510 K STREET NW"},"geometry":{"type":"Point","coordinates":[-77.0351389922198,38.90218134136401]}},{"type":"Feature","properties":{"OBJECTID":319,"NAME":"Wells Fargo","ADDRESS":"1800 K STREET NW"},"geometry":{"type":"Point","coordinates":[-77.04208981823146,38.90223795847889]}},{"type":"Feature","properties":{"OBJECTID":320,"NAME":"Manufactuers & Traders Trust Co(star)","ADDRESS":"1680 K STREET NW"},"geometry":{"type":"Point","coordinates":[-77.03823973925934,38.902234687923674]}},{"type":"Feature","properties":{"OBJECTID":321,"NAME":"CVS(Allpoint)","ADDRESS":"2550 VIRGINIA AVENUE NW"},"geometry":{"type":"Point","coordinates":[-77.05481061926534,38.899033993954305]}},{"type":"Feature","properties":{"OBJECTID":322,"NAME":"NRL FCU(Money Pass)","ADDRESS":"4555 OVERLOOK AVENUE SW"},"geometry":{"type":"Point","coordinates":[-77.01810595761354,38.8224470257758]}},{"type":"Feature","properties":{"OBJECTID":323,"NAME":"The Andover House(star)","ADDRESS":"1200 14TH STREET NW"},"geometry":{"type":"Point","coordinates":[-77.0323836771836,38.90702367719148]}},{"type":"Feature","properties":{"OBJECTID":324,"NAME":"Vida Fintess-Metropole(star)","ADDRESS":"1515 15TH STREET NW"},"geometry":{"type":"Point","coordinates":[-77.03424927407302,38.909979414441565]}},{"type":"Feature","properties":{"OBJECTID":325,"NAME":"CVS(Allpoint)","ADDRESS":"500 12TH STREET SE"},"geometry":{"type":"Point","coordinates":[-76.98995733175094,38.88261685705174]}},{"type":"Feature","properties":{"OBJECTID":326,"NAME":"Harris Teeter(Allpoint)","ADDRESS":"1350 POTOMAC AVENUE SE"},"geometry":{"type":"Point","coordinates":[-76.9866249868354,38.88020966142492]}},{"type":"Feature","properties":{"OBJECTID":327,"NAME":"7-Eleven(Allpoint)","ADDRESS":"429 8TH STREET SE"},"geometry":{"type":"Point","coordinates":[-76.99527639516046,38.88288564315347]}},{"type":"Feature","properties":{"OBJECTID":328,"NAME":"Bank of America","ADDRESS":"55 M STREET SE"},"geometry":{"type":"Point","coordinates":[-77.00699215244485,38.87626345969587]}},{"type":"Feature","properties":{"OBJECTID":329,"NAME":"Bank of America","ADDRESS":"2100 MARTIN LUTHER KING JR AVENUE SE"},"geometry":{"type":"Point","coordinates":[-76.98924004501605,38.86544569930964]}},{"type":"Feature","properties":{"OBJECTID":330,"NAME":"JR's Bar & Grill 2(star)","ADDRESS":"1519 17TH STREET NW"},"geometry":{"type":"Point","coordinates":[-77.03820011647117,38.910480945172786]}},{"type":"Feature","properties":{"OBJECTID":331,"NAME":"The Barrell House (Money Pass)","ADDRESS":"1341 14TH STREET NW"},"geometry":{"type":"Point","coordinates":[-77.03156902754323,38.90861567527946]}},{"type":"Feature","properties":{"OBJECTID":332,"NAME":"Wells Fargo","ADDRESS":"1310 G STREET NW"},"geometry":{"type":"Point","coordinates":[-77.03062508918626,38.89811839997021]}},{"type":"Feature","properties":{"OBJECTID":333,"NAME":"Wells Fargo","ADDRESS":"1350 NEW YORK AVENUE NW"},"geometry":{"type":"Point","coordinates":[-77.03157664930113,38.89926833440203]}},{"type":"Feature","properties":{"OBJECTID":334,"NAME":"A1 Wine & Liquor(Allpoint)","ADDRESS":"1420 K STREET NW"},"geometry":{"type":"Point","coordinates":[-77.0328134388087,38.90214958764481]}},{"type":"Feature","properties":{"OBJECTID":335,"NAME":"CVS(Allpoint)","ADDRESS":"2000 L STREET NW"},"geometry":{"type":"Point","coordinates":[-77.04578709088626,38.90341531137656]}},{"type":"Feature","properties":{"OBJECTID":336,"NAME":"Bank of Georgetown","ADDRESS":"1101 CONNECTICUT AVENUE NW"},"geometry":{"type":"Point","coordinates":[-77.03973726698472,38.90403991310637]}},{"type":"Feature","properties":{"OBJECTID":337,"NAME":"CVS(star)","ADDRESS":"1101 CONNECTICUT AVENUE NW"},"geometry":{"type":"Point","coordinates":[-77.03973726698472,38.90403991310637]}},{"type":"Feature","properties":{"OBJECTID":338,"NAME":"CVS(Allpoint)","ADDRESS":"1101 CONNECTICUT AVENUE NW"},"geometry":{"type":"Point","coordinates":[-77.03973726698472,38.90403991310637]}},{"type":"Feature","properties":{"OBJECTID":339,"NAME":"AFL-CIO Employees FCU(star)","ADDRESS":"1125 15TH STREET NW"},"geometry":{"type":"Point","coordinates":[-77.03410643998735,38.90447643587577]}},{"type":"Feature","properties":{"OBJECTID":340,"NAME":"CVS(Allpoint)","ADDRESS":"5227 GEORGIA AVENUE NW"},"geometry":{"type":"Point","coordinates":[-77.02726694883346,38.95373775595854]}},{"type":"Feature","properties":{"OBJECTID":341,"NAME":"Treasury Dept. FCU(Allpoint)","ADDRESS":"701 MADISON STREET NW"},"geometry":{"type":"Point","coordinates":[-77.02272541067147,38.958669311092414]}},{"type":"Feature","properties":{"OBJECTID":342,"NAME":"Bank of America","ADDRESS":"610 F STREET NW"},"geometry":{"type":"Point","coordinates":[-77.02035426266544,38.89712981119823]}},{"type":"Feature","properties":{"OBJECTID":343,"NAME":"7-Eleven(Allpoint)","ADDRESS":"1900 WYOMING AVENUE NW"},"geometry":{"type":"Point","coordinates":[-77.0447800549301,38.9184737785155]}},{"type":"Feature","properties":{"OBJECTID":344,"NAME":"7-Eleven (Allpoint)","ADDRESS":"1755 COLUMBIA ROAD NW"},"geometry":{"type":"Point","coordinates":[-77.04144584053735,38.923877392164485]}},{"type":"Feature","properties":{"OBJECTID":345,"NAME":"CVS(Allpoint)","ADDRESS":"1100 NEW JERSEY AVENUE SE"},"geometry":{"type":"Point","coordinates":[-77.0039444585427,38.87695905072511]}},{"type":"Feature","properties":{"OBJECTID":346,"NAME":"CVS(Allpoint)","ADDRESS":"660 RHODE ISLAND AVENUE NE"},"geometry":{"type":"Point","coordinates":[-76.99698096558734,38.92200863011873]}},{"type":"Feature","properties":{"OBJECTID":347,"NAME":"Wells Fargo","ADDRESS":"2901 M STREET NW"},"geometry":{"type":"Point","coordinates":[-77.05825530570773,38.90537691386384]}},{"type":"Feature","properties":{"OBJECTID":348,"NAME":"Wells Fargo","ADDRESS":"215 PENNSYLVANIA AVENUE SE"},"geometry":{"type":"Point","coordinates":[-77.00286202597539,38.88709676275092]}},{"type":"Feature","properties":{"OBJECTID":349,"NAME":"Narfe Premier(Money Pass)","ADDRESS":"445 12TH STREET SW"},"geometry":{"type":"Point","coordinates":[-77.02851428524527,38.88329340017829]}},{"type":"Feature","properties":{"OBJECTID":350,"NAME":"Democracy FCU(Money Pass)","ADDRESS":"330 C STREET SW"},"geometry":{"type":"Point","coordinates":[-77.01637220428448,38.885430180402984]}},{"type":"Feature","properties":{"OBJECTID":351,"NAME":"Wells Fargo","ADDRESS":"1301 PENNSYLVANIA AVENUE NW"},"geometry":{"type":"Point","coordinates":[-77.02995562790905,38.896384193013844]}},{"type":"Feature","properties":{"OBJECTID":352,"NAME":"The Daily Market(star)","ADDRESS":"1011 CONNECTICUT AVENUE NW"},"geometry":{"type":"Point","coordinates":[-77.03917190284851,38.903009638267996]}},{"type":"Feature","properties":{"OBJECTID":353,"NAME":"ACS FCU(star)","ADDRESS":"1155 16TH STREET NW"},"geometry":{"type":"Point","coordinates":[-77.03605573993134,38.905369389058485]}},{"type":"Feature","properties":{"OBJECTID":354,"NAME":"CVS(Allpoint)","ADDRESS":"435 8TH STREET NW"},"geometry":{"type":"Point","coordinates":[-77.02273217362762,38.89595197917928]}},{"type":"Feature","properties":{"OBJECTID":355,"NAME":"Walgreens(Allpoint)","ADDRESS":"1217 22ND STREET NW"},"geometry":{"type":"Point","coordinates":[-77.04850400264898,38.905518656597486]}},{"type":"Feature","properties":{"OBJECTID":356,"NAME":"CVS(Allpoint)","ADDRESS":"2240 M STREET NW"},"geometry":{"type":"Point","coordinates":[-77.04944446171989,38.90506487194954]}},{"type":"Feature","properties":{"OBJECTID":357,"NAME":"Wells Fargo","ADDRESS":"502 23RD STREET NW"},"geometry":{"type":"Point","coordinates":[-77.0506673925454,38.896530818264154]}},{"type":"Feature","properties":{"OBJECTID":358,"NAME":"Agriculture FCU","ADDRESS":"355 E STREET SW"},"geometry":{"type":"Point","coordinates":[-77.01636371710894,38.8836031009287]}},{"type":"Feature","properties":{"OBJECTID":359,"NAME":"Wells Fargo","ADDRESS":"490 L STREET NW"},"geometry":{"type":"Point","coordinates":[-77.01835491740452,38.90349680088984]}},{"type":"Feature","properties":{"OBJECTID":360,"NAME":"George at the Four Seasons (Money Pass)","ADDRESS":"2828 PENNSYLVANIA AVENUE NW"},"geometry":{"type":"Point","coordinates":[-77.05792515030252,38.904996655248894]}},{"type":"Feature","properties":{"OBJECTID":361,"NAME":"Lobby Mart (Allpoint)","ADDRESS":"501 3RD STREET NW"},"geometry":{"type":"Point","coordinates":[-77.01478210171805,38.896567085937825]}},{"type":"Feature","properties":{"OBJECTID":362,"NAME":"Bank of America","ADDRESS":"1900 F STREET NW"},"geometry":{"type":"Point","coordinates":[-77.04390876037708,38.89712657504587]}},{"type":"Feature","properties":{"OBJECTID":363,"NAME":"The Partnership FCU (Money Pass)","ADDRESS":"1776 F STREET NW"},"geometry":{"type":"Point","coordinates":[-77.04126195128718,38.89705430194827]}},{"type":"Feature","properties":{"OBJECTID":364,"NAME":"Capital One, NA(star)","ADDRESS":"1100 17TH STREET NW"},"geometry":{"type":"Point","coordinates":[-77.03888748421524,38.90405587360212]}},{"type":"Feature","properties":{"OBJECTID":365,"NAME":"Bank of America","ADDRESS":"2001 PENNSYLVANIA AVENUE NW"},"geometry":{"type":"Point","coordinates":[-77.04533394621778,38.90168074873736]}},{"type":"Feature","properties":{"OBJECTID":366,"NAME":"Cardinal Bank (Money Pass)","ADDRESS":"1776 K STREET NW"},"geometry":{"type":"Point","coordinates":[-77.04123805994588,38.90218880637099]}},{"type":"Feature","properties":{"OBJECTID":367,"NAME":"7-Eleven(Allpoint)","ADDRESS":"514 19TH STREET NW"},"geometry":{"type":"Point","coordinates":[-77.04372432764693,38.89658028680473]}},{"type":"Feature","properties":{"OBJECTID":368,"NAME":"Capital One, NA(star)","ADDRESS":"1001 CONNECTICUT AVENUE NW"},"geometry":{"type":"Point","coordinates":[-77.0389669530074,38.902853772161265]}},{"type":"Feature","properties":{"OBJECTID":369,"NAME":"News World(star)","ADDRESS":"1001 CONNECTICUT AVENUE NW"},"geometry":{"type":"Point","coordinates":[-77.0389669530074,38.902853772161265]}},{"type":"Feature","properties":{"OBJECTID":370,"NAME":"Wells Fargo","ADDRESS":"444 NORTH CAPITOL STREET NW"},"geometry":{"type":"Point","coordinates":[-77.00982753551285,38.8958298226922]}},{"type":"Feature","properties":{"OBJECTID":371,"NAME":"CVS(Allpoint)","ADDRESS":"1900 7TH STREET NW"},"geometry":{"type":"Point","coordinates":[-77.02221017711474,38.91584972516937]}},{"type":"Feature","properties":{"OBJECTID":372,"NAME":"7-Eleven(Allpoint)","ADDRESS":"1700 17TH STREET NW"},"geometry":{"type":"Point","coordinates":[-77.03885747229896,38.91287631680479]}},{"type":"Feature","properties":{"OBJECTID":373,"NAME":"7-Eleven(Allpoint)","ADDRESS":"3012 14TH STREET NW"},"geometry":{"type":"Point","coordinates":[-77.03273994912395,38.92765301950601]}},{"type":"Feature","properties":{"OBJECTID":374,"NAME":"Bank of America","ADDRESS":"3519 CONNECTICUT AVENUE NW"},"geometry":{"type":"Point","coordinates":[-77.05837158858641,38.936314606385224]}},{"type":"Feature","properties":{"OBJECTID":375,"NAME":"7-Eleven(Allpoint)","ADDRESS":"407 8TH STREET NE"},"geometry":{"type":"Point","coordinates":[-76.99474669990634,38.8952303411139]}},{"type":"Feature","properties":{"OBJECTID":376,"NAME":"7-Eleven(Allpoint)","ADDRESS":"900 BLADENSBURG ROAD NE"},"geometry":{"type":"Point","coordinates":[-76.98242761513575,38.902075313194906]}},{"type":"Feature","properties":{"OBJECTID":377,"NAME":"Wells Fargo","ADDRESS":"20 M STREET SE"},"geometry":{"type":"Point","coordinates":[-77.00790436461021,38.876796248209345]}},{"type":"Feature","properties":{"OBJECTID":378,"NAME":"Signal Financial","ADDRESS":"1391 PENNSYLVANIA AVENUE SE"},"geometry":{"type":"Point","coordinates":[-76.98659810657435,38.88035352235896]}},{"type":"Feature","properties":{"OBJECTID":379,"NAME":"Capital one","ADDRESS":"1075 5TH STREET NW"},"geometry":{"type":"Point","coordinates":[-77.01870038554635,38.90331063348326]}},{"type":"Feature","properties":{"OBJECTID":380,"NAME":"Agriculture FCU","ADDRESS":"1400 INDEPENDENCE AVENUE SW"},"geometry":{"type":"Point","coordinates":[-77.03003732572472,38.88672431210649]}},{"type":"Feature","properties":{"OBJECTID":381,"NAME":"Treasury Dept. FCU(Money Pass)","ADDRESS":"1400 PENNSYLVANIA AVENUE SE"},"geometry":{"type":"Point","coordinates":[-76.98468380545971,38.88033067597396]}},{"type":"Feature","properties":{"OBJECTID":382,"NAME":"Sunoco(Allpoint)","ADDRESS":"1248 PENNSYLVANIA AVENUE SE"},"geometry":{"type":"Point","coordinates":[-76.98865286110957,38.88206416307859]}},{"type":"Feature","properties":{"OBJECTID":383,"NAME":"Amaco Quick Shoppe(Allpoint)","ADDRESS":"2600 14TH STREET NW"},"geometry":{"type":"Point","coordinates":[-77.03262126744374,38.92384883983145]}},{"type":"Feature","properties":{"OBJECTID":384,"NAME":"CVS(Allpoint)","ADDRESS":"2616 CONNECTICUT AVENUE NW"},"geometry":{"type":"Point","coordinates":[-77.052278441892,38.92414266719599]}},{"type":"Feature","properties":{"OBJECTID":385,"NAME":"Lafyette FCU(Money Pass)","ADDRESS":"409 3RD STREET SW"},"geometry":{"type":"Point","coordinates":[-77.01558653985163,38.8846138580362]}},{"type":"Feature","properties":{"OBJECTID":386,"NAME":"JR's Bar & Grill(star)","ADDRESS":"1517 17TH STREET NW"},"geometry":{"type":"Point","coordinates":[-77.0382424534273,38.910307430614075]}},{"type":"Feature","properties":{"OBJECTID":387,"NAME":"CVS(star)","ADDRESS":"1637 P STREET NW"},"geometry":{"type":"Point","coordinates":[-77.03822029778526,38.90984296761193]}},{"type":"Feature","properties":{"OBJECTID":388,"NAME":"CVS (Allpoint)","ADDRESS":"1637 P STREET NW"},"geometry":{"type":"Point","coordinates":[-77.03822029778526,38.90984296761193]}},{"type":"Feature","properties":{"OBJECTID":389,"NAME":"Hotel Rouge(star)","ADDRESS":"1315 16TH STREET NW"},"geometry":{"type":"Point","coordinates":[-77.03613249607925,38.90827383752778]}},{"type":"Feature","properties":{"OBJECTID":390,"NAME":"National Capital Bank of Washington(star)","ADDRESS":"1737 17TH STREET NW"},"geometry":{"type":"Point","coordinates":[-77.03820941390853,38.91384636834091]}},{"type":"Feature","properties":{"OBJECTID":391,"NAME":"CVS Store #02817(star)","ADDRESS":"1418 P STREET NW"},"geometry":{"type":"Point","coordinates":[-77.03285272438303,38.9093502222459]}},{"type":"Feature","properties":{"OBJECTID":392,"NAME":"CVS(Allpoint)","ADDRESS":"1418 P STREET NW"},"geometry":{"type":"Point","coordinates":[-77.03285272438303,38.9093502222459]}},{"type":"Feature","properties":{"OBJECTID":393,"NAME":"Barmy Wine & Liquor(Allpoint)","ADDRESS":"1912 L STREET NW"},"geometry":{"type":"Point","coordinates":[-77.04411898969052,38.903591075683295]}},{"type":"Feature","properties":{"OBJECTID":394,"NAME":"Harris Teeter(Allpoint)","ADDRESS":"1631 KALORAMA ROAD NW"},"geometry":{"type":"Point","coordinates":[-77.03844187391378,38.92198694131333]}},{"type":"Feature","properties":{"OBJECTID":395,"NAME":"Capital One","ADDRESS":"701 PENNSYLVANIA AVENUE NW"},"geometry":{"type":"Point","coordinates":[-77.02238230128947,38.894445937652996]}},{"type":"Feature","properties":{"OBJECTID":396,"NAME":"United Bank","ADDRESS":"1667 K STREET NW"},"geometry":{"type":"Point","coordinates":[-77.03818170225695,38.90300582225263]}},{"type":"Feature","properties":{"OBJECTID":397,"NAME":"Treasury Dept. FCU(Money Pass)","ADDRESS":"1101 2ND STREET NE"},"geometry":{"type":"Point","coordinates":[-77.00318032249706,38.903960328300215]}},{"type":"Feature","properties":{"OBJECTID":398,"NAME":"Dept. of Labor FCU (Money Pass)","ADDRESS":"200 CONSTITUTION AVENUE NW"},"geometry":{"type":"Point","coordinates":[-77.01439827055684,38.893335201511825]}},{"type":"Feature","properties":{"OBJECTID":399,"NAME":"Capital One","ADDRESS":"901 NEW YORK AVENUE NW"},"geometry":{"type":"Point","coordinates":[-77.0252666944609,38.90202336484941]}},{"type":"Feature","properties":{"OBJECTID":400,"NAME":"Metro Square News (Money Pass)","ADDRESS":"901 NEW YORK AVENUE NW"},"geometry":{"type":"Point","coordinates":[-77.0252666944609,38.90202336484941]}},{"type":"Feature","properties":{"OBJECTID":401,"NAME":"CVS(Allpoint)","ADDRESS":"1199 VERMONT AVENUE NW"},"geometry":{"type":"Point","coordinates":[-77.03237338875937,38.90442341935966]}},{"type":"Feature","properties":{"OBJECTID":402,"NAME":"CVS(Allpoint)","ADDRESS":"2125 E STREET NW"},"geometry":{"type":"Point","coordinates":[-77.04777657071762,38.89630421477068]}},{"type":"Feature","properties":{"OBJECTID":403,"NAME":"DGE FCU","ADDRESS":"300 INDIANA AVENUE NW"},"geometry":{"type":"Point","coordinates":[-77.01654461815181,38.894321243666944]}},{"type":"Feature","properties":{"OBJECTID":404,"NAME":"CVS(Allpoint)","ADDRESS":"4555 WISCONSIN AVENUE NW"},"geometry":{"type":"Point","coordinates":[-77.08007367796108,38.949396476932094]}},{"type":"Feature","properties":{"OBJECTID":405,"NAME":"HEW FCU","ADDRESS":"888 1ST STREET NE"},"geometry":{"type":"Point","coordinates":[-77.00711982941058,38.901536996923845]}},{"type":"Feature","properties":{"OBJECTID":406,"NAME":"Democracy FCU(Money Pass)","ADDRESS":"888 1ST STREET NE"},"geometry":{"type":"Point","coordinates":[-77.00711982941058,38.901536996923845]}},{"type":"Feature","properties":{"OBJECTID":407,"NAME":"Bank of America","ADDRESS":"1990 K STREET NW"},"geometry":{"type":"Point","coordinates":[-77.04455021463497,38.90219236465857]}},{"type":"Feature","properties":{"OBJECTID":408,"NAME":"Wells Fargo","ADDRESS":"1100 CONNECTICUT AVENUE NW"},"geometry":{"type":"Point","coordinates":[-77.04064022937455,38.90408014007463]}},{"type":"Feature","properties":{"OBJECTID":409,"NAME":"CVS(Allpoint)","ADDRESS":"400 MASSACHUSETTS AVENUE NW"},"geometry":{"type":"Point","coordinates":[-77.01688258397543,38.90010681768003]}},{"type":"Feature","properties":{"OBJECTID":410,"NAME":"CVS(Allpoint)","ADDRESS":"717 14TH STREET NW"},"geometry":{"type":"Point","coordinates":[-77.03156081112677,38.898906743019424]}},{"type":"Feature","properties":{"OBJECTID":411,"NAME":"Presidential Bank FSB(star)","ADDRESS":"1660 K STREET NW"},"geometry":{"type":"Point","coordinates":[-77.03781327727157,38.90219573046993]}},{"type":"Feature","properties":{"OBJECTID":412,"NAME":"Doubletree(star)","ADDRESS":"1515 RHODE ISLAND AVENUE NW"},"geometry":{"type":"Point","coordinates":[-77.03550962143343,38.90794333205715]}},{"type":"Feature","properties":{"OBJECTID":413,"NAME":"CVS(Allpoint)","ADDRESS":"645 H STREET NE"},"geometry":{"type":"Point","coordinates":[-76.99645586573887,38.89998222744859]}},{"type":"Feature","properties":{"OBJECTID":414,"NAME":"CVS(Allpoint)","ADDRESS":"2819 M STREET NW"},"geometry":{"type":"Point","coordinates":[-77.05769845142801,38.9055189816863]}},{"type":"Feature","properties":{"OBJECTID":415,"NAME":"CVS(Allpoint)","ADDRESS":"3601 12TH STREET NE"},"geometry":{"type":"Point","coordinates":[-76.99090891535953,38.93381515272031]}},{"type":"Feature","properties":{"OBJECTID":416,"NAME":"CVS(Allpoint)","ADDRESS":"661 PENNSYLVANIA AVENUE SE"},"geometry":{"type":"Point","coordinates":[-76.99640453970852,38.88447016837177]}},{"type":"Feature","properties":{"OBJECTID":417,"NAME":"CVS(Allpoint)","ADDRESS":"1201 MARYLAND AVENUE SW"},"geometry":{"type":"Point","coordinates":[-77.02935357397332,38.88469913108489]}},{"type":"Feature","properties":{"OBJECTID":418,"NAME":"Bank of America","ADDRESS":"425 8TH STREET SE"},"geometry":{"type":"Point","coordinates":[-76.99524826592733,38.88299356249437]}},{"type":"Feature","properties":{"OBJECTID":419,"NAME":"Lafyette FCU(Money Pass)","ADDRESS":"1300 PENNSYLVANIA AVENUE NW"},"geometry":{"type":"Point","coordinates":[-77.03021416003615,38.894947381854784]}},{"type":"Feature","properties":{"OBJECTID":420,"NAME":"Wells Fargo","ADDRESS":"600 MARYLAND AVENUE SW"},"geometry":{"type":"Point","coordinates":[-77.02106338094872,38.88596957119761]}},{"type":"Feature","properties":{"OBJECTID":421,"NAME":"Bank of Georgetown","ADDRESS":"822 E STREET NW"},"geometry":{"type":"Point","coordinates":[-77.02339098961956,38.896003827384696]}},{"type":"Feature","properties":{"OBJECTID":422,"NAME":"Bank of America","ADDRESS":"1001 E STREET NW"},"geometry":{"type":"Point","coordinates":[-77.02618446388695,38.89632636469971]}},{"type":"Feature","properties":{"OBJECTID":423,"NAME":"CVS(Allpoint)","ADDRESS":"1275 PENNSYLVANIA AVENUE NW"},"geometry":{"type":"Point","coordinates":[-77.0289111775901,38.89569513594025]}},{"type":"Feature","properties":{"OBJECTID":424,"NAME":"Capital One","ADDRESS":"1200 F STREET NW"},"geometry":{"type":"Point","coordinates":[-77.02842462182342,38.897191815272414]}},{"type":"Feature","properties":{"OBJECTID":425,"NAME":"Lafayette FUC(star)","ADDRESS":"1615 M STREET NW"},"geometry":{"type":"Point","coordinates":[-77.03735566921281,38.9058618275677]}},{"type":"Feature","properties":{"OBJECTID":426,"NAME":"Lafyette FCU (Money Pass)","ADDRESS":"1615 M STREET NW"},"geometry":{"type":"Point","coordinates":[-77.03735566921281,38.9058618275677]}},{"type":"Feature","properties":{"OBJECTID":427,"NAME":"City Market(star)","ADDRESS":"1150 17TH STREET NW"},"geometry":{"type":"Point","coordinates":[-77.03876528532881,38.90534140625821]}},{"type":"Feature","properties":{"OBJECTID":428,"NAME":"Bank of America","ADDRESS":"50 MASSACHUSETTS AVENUE NE"},"geometry":{"type":"Point","coordinates":[-77.00618141401955,38.89754625633285]}},{"type":"Feature","properties":{"OBJECTID":429,"NAME":"Transit Employee FCU(Money Pass)","ADDRESS":"1114 H STREET NE"},"geometry":{"type":"Point","coordinates":[-76.99093784257364,38.90040667400061]}},{"type":"Feature","properties":{"OBJECTID":430,"NAME":"Marbi's news stand(star)","ADDRESS":"1730 RHODE ISLAND AVENUE NW"},"geometry":{"type":"Point","coordinates":[-77.03962107781088,38.90594675065987]}},{"type":"Feature","properties":{"OBJECTID":431,"NAME":"Branch Banking & Trust Company(star)","ADDRESS":"1730 RHODE ISLAND AVENUE NW"},"geometry":{"type":"Point","coordinates":[-77.03962107781088,38.90594675065987]}},{"type":"Feature","properties":{"OBJECTID":432,"NAME":"Wells Fargo","ADDRESS":"1300 I STREET NW"},"geometry":{"type":"Point","coordinates":[-77.03034999204917,38.9010008771982]}},{"type":"Feature","properties":{"OBJECTID":433,"NAME":"7-Eleven(star)","ADDRESS":"1100 VERMONT AVENUE NW"},"geometry":{"type":"Point","coordinates":[-77.03338691909231,38.90398163466696]}},{"type":"Feature","properties":{"OBJECTID":434,"NAME":"7-Eleven(Allpoint)","ADDRESS":"1100 VERMONT AVENUE NW"},"geometry":{"type":"Point","coordinates":[-77.03338691909231,38.90398163466696]}},{"type":"Feature","properties":{"OBJECTID":435,"NAME":"Saints Paradise Cafeteria(Allpoint)","ADDRESS":"601 M STREET NW"},"geometry":{"type":"Point","coordinates":[-77.02051439109985,38.90597671141178]}},{"type":"Feature","properties":{"OBJECTID":436,"NAME":"Metro Café(star)","ADDRESS":"1400 16TH STREET NW"},"geometry":{"type":"Point","coordinates":[-77.03707464497175,38.909075285226564]}},{"type":"Feature","properties":{"OBJECTID":437,"NAME":"Govt. Printing office FCU(Money Pass)","ADDRESS":"732 NORTH CAPITOL STREET NW"},"geometry":{"type":"Point","coordinates":[-77.00946957313066,38.89992361309122]}},{"type":"Feature","properties":{"OBJECTID":438,"NAME":"Bank of America","ADDRESS":"2440 WISCONSIN AVENUE NW"},"geometry":{"type":"Point","coordinates":[-77.0728444153267,38.921969118576655]}},{"type":"Feature","properties":{"OBJECTID":439,"NAME":"Bank of America","ADDRESS":"1612 K STREET NW"},"geometry":{"type":"Point","coordinates":[-77.03753001849887,38.90219140771803]}},{"type":"Feature","properties":{"OBJECTID":440,"NAME":"Bank of America NA (NC)(star)","ADDRESS":"1612 K STREET NW"},"geometry":{"type":"Point","coordinates":[-77.03753001849887,38.90219140771803]}},{"type":"Feature","properties":{"OBJECTID":441,"NAME":"1500 Mass apts(star)","ADDRESS":"1500 MASSACHUSETTS AVENUE NW"},"geometry":{"type":"Point","coordinates":[-77.03551121377436,38.90651019329218]}},{"type":"Feature","properties":{"OBJECTID":442,"NAME":"1500 Market(star)","ADDRESS":"1500 MASSACHUSETTS AVENUE NW"},"geometry":{"type":"Point","coordinates":[-77.03551121377436,38.90651019329218]}},{"type":"Feature","properties":{"OBJECTID":443,"NAME":"Wells Fargo","ADDRESS":"801 PENNSYLVANIA AVENUE NW"},"geometry":{"type":"Point","coordinates":[-77.02350839978435,38.89443607748351]}},{"type":"Feature","properties":{"OBJECTID":444,"NAME":"Beacon hotel(star)","ADDRESS":"1615 RHODE ISLAND AVENUE NW"},"geometry":{"type":"Point","coordinates":[-77.0380519752235,38.90705674072143]}},{"type":"Feature","properties":{"OBJECTID":445,"NAME":"Bank of America","ADDRESS":"3401 CONNECTICUT AVENUE NW"},"geometry":{"type":"Point","coordinates":[-77.05756542731017,38.934687295931326]}},{"type":"Feature","properties":{"OBJECTID":446,"NAME":"Bank of America","ADDRESS":"5201 WISCONSIN AVENUE NW"},"geometry":{"type":"Point","coordinates":[-77.08358042447891,38.95724707541395]}},{"type":"Feature","properties":{"OBJECTID":447,"NAME":"7-Eleven(star)","ADDRESS":"1400 RHODE ISLAND AVENUE NW"},"geometry":{"type":"Point","coordinates":[-77.03227793373865,38.90850918307989]}},{"type":"Feature","properties":{"OBJECTID":448,"NAME":"7-Eleven(Allpoint)","ADDRESS":"1400 RHODE ISLAND AVENUE NW"},"geometry":{"type":"Point","coordinates":[-77.03227793373865,38.90850918307989]}},{"type":"Feature","properties":{"OBJECTID":449,"NAME":"Library of Congress(Money Pass)","ADDRESS":"101 INDEPENDENCE AVENUE SE"},"geometry":{"type":"Point","coordinates":[-77.00472303202724,38.887101026314745]}},{"type":"Feature","properties":{"OBJECTID":450,"NAME":"Transit Employees FCU(Money Pass)","ADDRESS":"1401 W STREET NE"},"geometry":{"type":"Point","coordinates":[-76.98811646760889,38.917400125095135]}},{"type":"Feature","properties":{"OBJECTID":451,"NAME":"Dept. of Coomerce FCU (Money Pass)","ADDRESS":"1401 CONSTITUTION AVENUE NW"},"geometry":{"type":"Point","coordinates":[-77.03281794375143,38.89264720258722]}},{"type":"Feature","properties":{"OBJECTID":452,"NAME":"Agriculture FCU","ADDRESS":"1000 JEFFERSON DRIVE SW"},"geometry":{"type":"Point","coordinates":[-77.02599025404551,38.88881612786911]}},{"type":"Feature","properties":{"OBJECTID":453,"NAME":"Harris Teeter(Allpoint)","ADDRESS":"1201 1ST STREET NE"},"geometry":{"type":"Point","coordinates":[-77.00549454925675,38.90602306491648]}},{"type":"Feature","properties":{"OBJECTID":454,"NAME":"CVS(Allpoint)","ADDRESS":"1117 10TH STREET NW"},"geometry":{"type":"Point","coordinates":[-77.02572491270985,38.90478783895059]}},{"type":"Feature","properties":{"OBJECTID":455,"NAME":"CVS(Allpoint)","ADDRESS":"1117 10TH STREET NW"},"geometry":{"type":"Point","coordinates":[-77.02572491270985,38.90478783895059]}},{"type":"Feature","properties":{"OBJECTID":456,"NAME":"Wells Fargo","ADDRESS":"1934 14TH STREET NW"},"geometry":{"type":"Point","coordinates":[-77.03222740717337,38.916614361186106]}},{"type":"Feature","properties":{"OBJECTID":457,"NAME":"7-Eleven(Allpoint)","ADDRESS":"1115 U STREET NW"},"geometry":{"type":"Point","coordinates":[-77.02777024657425,38.917171409767946]}},{"type":"Feature","properties":{"OBJECTID":458,"NAME":"Harris Teeter(Allpoint)","ADDRESS":"401 M STREET SE"},"geometry":{"type":"Point","coordinates":[-77.0000965513043,38.876224302397254]}},{"type":"Feature","properties":{"OBJECTID":459,"NAME":"PNC","ADDRESS":"3700 O STREET NW"},"geometry":{"type":"Point","coordinates":[-77.07358084908903,38.90879720578689]}},{"type":"Feature","properties":{"OBJECTID":460,"NAME":"Cardinal Bank (Money Pass)","ADDRESS":"1825 WISCONSIN AVENUE NW"},"geometry":{"type":"Point","coordinates":[-77.06730094174529,38.915566617831196]}},{"type":"Feature","properties":{"OBJECTID":461,"NAME":"Capital one","ADDRESS":"85 H STREET NW"},"geometry":{"type":"Point","coordinates":[-77.01161008996115,38.90040960113047]}},{"type":"Feature","properties":{"OBJECTID":462,"NAME":"7-Eleven(Allpoint)","ADDRESS":"2617 P STREET NW"},"geometry":{"type":"Point","coordinates":[-77.0553401792372,38.90953496387363]}},{"type":"Feature","properties":{"OBJECTID":463,"NAME":"1 West Dupont Circle Wine & Liquor(Allpoint)","ADDRESS":"2012 P STREET NW"},"geometry":{"type":"Point","coordinates":[-77.04549427576666,38.909403817189954]}},{"type":"Feature","properties":{"OBJECTID":464,"NAME":"Renaissance Mayflower DC(star)","ADDRESS":"1127 CONNECTICUT AVENUE NW"},"geometry":{"type":"Point","coordinates":[-77.03946887155792,38.904449704043245]}},{"type":"Feature","properties":{"OBJECTID":465,"NAME":"Bank of America","ADDRESS":"4500 WISCONSIN AVENUE NW"},"geometry":{"type":"Point","coordinates":[-77.08055249629905,38.94853657775949]}},{"type":"Feature","properties":{"OBJECTID":466,"NAME":"Walgreens(Allpoint)","ADDRESS":"801 7TH STREET NW"},"geometry":{"type":"Point","coordinates":[-77.02164208997677,38.90000171601869]}},{"type":"Feature","properties":{"OBJECTID":467,"NAME":"Bank of America","ADDRESS":"1801 L STREET NW"},"geometry":{"type":"Point","coordinates":[-77.04200669184164,38.90399047401569]}},{"type":"Feature","properties":{"OBJECTID":468,"NAME":"Bank of America","ADDRESS":"3845 MINNESOTA AVENUE NE"},"geometry":{"type":"Point","coordinates":[-76.95033620621541,38.89298564665402]}},{"type":"Feature","properties":{"OBJECTID":469,"NAME":"HEW FCU","ADDRESS":"200 INDEPENDENCE AVENUE SW"},"geometry":{"type":"Point","coordinates":[-77.01439673783315,38.88688331256556]}},{"type":"Feature","properties":{"OBJECTID":470,"NAME":"Democracy FCU(Money Pass)","ADDRESS":"200 INDEPENDENCE AVENUE SW"},"geometry":{"type":"Point","coordinates":[-77.01439673783315,38.88688331256556]}},{"type":"Feature","properties":{"OBJECTID":471,"NAME":"Bank of America","ADDRESS":"4301 49TH STREET NW"},"geometry":{"type":"Point","coordinates":[-77.09640665778218,38.944566607031426]}},{"type":"Feature","properties":{"OBJECTID":472,"NAME":"Bank of America","ADDRESS":"722 H STREET NE"},"geometry":{"type":"Point","coordinates":[-76.9951863526649,38.90040530472839]}},{"type":"Feature","properties":{"OBJECTID":473,"NAME":"Wells Fargo","ADDRESS":"2119 BLADENSBURG ROAD NE"},"geometry":{"type":"Point","coordinates":[-76.9702688975994,38.91959119652892]}},{"type":"Feature","properties":{"OBJECTID":474,"NAME":"Wells Fargo","ADDRESS":"1300 CONNECTICUT AVENUE NW"},"geometry":{"type":"Point","coordinates":[-77.04267355565243,38.90751862361822]}},{"type":"Feature","properties":{"OBJECTID":475,"NAME":"7-Eleven(Allpoint)","ADDRESS":"3146 MOUNT PLEASANT STREET NW"},"geometry":{"type":"Point","coordinates":[-77.03814039244845,38.93010218348134]}},{"type":"Feature","properties":{"OBJECTID":476,"NAME":"Julias Empanadas(star)","ADDRESS":"1221 CONNECTICUT AVENUE NW"},"geometry":{"type":"Point","coordinates":[-77.04118067582549,38.90663048566909]}},{"type":"Feature","properties":{"OBJECTID":477,"NAME":"Democracy FCU(Money Pass)","ADDRESS":"830 1ST STREET NE"},"geometry":{"type":"Point","coordinates":[-77.00762737789145,38.90107988078488]}},{"type":"Feature","properties":{"OBJECTID":478,"NAME":"7-Eleven(Allpoint)","ADDRESS":"333 HAWAII AVENUE NE"},"geometry":{"type":"Point","coordinates":[-77.00086670942389,38.94129572309728]}},{"type":"Feature","properties":{"OBJECTID":479,"NAME":"Wells Fargo","ADDRESS":"1200 1ST STREET NE"},"geometry":{"type":"Point","coordinates":[-77.00635797511066,38.90609499782535]}},{"type":"Feature","properties":{"OBJECTID":480,"NAME":"CVS(Allpoint)","ADDRESS":"1200 1ST STREET NE"},"geometry":{"type":"Point","coordinates":[-77.00635797511066,38.90609499782535]}},{"type":"Feature","properties":{"OBJECTID":481,"NAME":"7-Eleven(Allpoint)","ADDRESS":"1315 2ND STREET NE"},"geometry":{"type":"Point","coordinates":[-77.00327848976382,38.907703835860325]}},{"type":"Feature","properties":{"OBJECTID":482,"NAME":"CVS(Allpoint)","ADDRESS":"3642 GEORGIA AVENUE NW"},"geometry":{"type":"Point","coordinates":[-77.02442127821007,38.93560758847045]}},{"type":"Feature","properties":{"OBJECTID":483,"NAME":"State Liquors(Allpoint)","ADDRESS":"2159 P STREET NW"},"geometry":{"type":"Point","coordinates":[-77.04852353993107,38.9098334675351]}},{"type":"Feature","properties":{"OBJECTID":484,"NAME":"Wells Fargo","ADDRESS":"1447 P STREET NW"},"geometry":{"type":"Point","coordinates":[-77.03372413073923,38.90981903850089]}},{"type":"Feature","properties":{"OBJECTID":485,"NAME":"7-Eleven(Allpoint)","ADDRESS":"1622 7TH STREET NW"},"geometry":{"type":"Point","coordinates":[-77.0222095262428,38.91190866754517]}},{"type":"Feature","properties":{"OBJECTID":486,"NAME":"7-Eleven(Allpoint)","ADDRESS":"1233 BRENTWOOD ROAD NE"},"geometry":{"type":"Point","coordinates":[-76.98921351863493,38.920510267092546]}},{"type":"Feature","properties":{"OBJECTID":487,"NAME":"Hotel Helix(star)","ADDRESS":"1430 RHODE ISLAND AVENUE NW"},"geometry":{"type":"Point","coordinates":[-77.03300733021732,38.908088289462036]}}]}