{"type":"FeatureCollection","features":[{"type":"Feature","properties":{"OBJECTID":1,"NAME":"Thurgood Marshall Academy PCS","ADDRESS":"2427 MARTIN LUTHER KING JR AVENUE SE","DIRECTOR":"Alexandra Pardo","PHONE":"202-563-6862","AUTHORIZER":null,"GRADES":"9-12","ENROLLMENT":0,"GIS_ID":"chrt_91","WEB_URL":"http://www.thurgoodmarshallacademy.org","ADDRID":278159,"X":400548.01,"Y":132717.75,"AUTHORIZAT":0,"MYSCHOOL":"Y"},"geometry":{"type":"Point","coordinates":[-76.99368805339478,38.86228452050856]}},{"type":"Feature","properties":{"OBJECTID":2,"NAME":"St. Coletta Special Education PCS","ADDRESS":"1901 INDEPENDENCE AVENUE SE","DIRECTOR":null,"PHONE":"202-350-8680","AUTHORIZER":null,"GRADES":"PK-3- Adult/Voc Ed","ENROLLMENT":0,"GIS_ID":"chrt_93","WEB_URL":"http://www.stcoletta.org","ADDRID":302511,"X":402023.67,"Y":135486.49,"AUTHORIZAT":0,"MYSCHOOL":"N"},"geometry":{"type":"Point","coordinates":[-76.97667719719976,38.887224280533594]}},{"type":"Feature","properties":{"OBJECTID":3,"NAME":"Democracy Prep Congress Heights PCS","ADDRESS":"3100 MARTIN LUTHER KING JR AVENUE SE","DIRECTOR":"Sean Reidy","PHONE":null,"AUTHORIZER":null,"GRADES":"PK-3-7","ENROLLMENT":0,"GIS_ID":"chrt_95","WEB_URL":"http://democracyprep.org","ADDRID":301280,"X":400161.23,"Y":130633.04000000001,"AUTHORIZAT":0,"MYSCHOOL":"Y"},"geometry":{"type":"Point","coordinates":[-76.99814506005376,38.84350470550558]}},{"type":"Feature","properties":{"OBJECTID":4,"NAME":"Lee Montessori PCS","ADDRESS":"3015 4TH STREET NE","DIRECTOR":"Chris Pencikowski","PHONE":"202-888-6336","AUTHORIZER":null,"GRADES":"PK-3-2","ENROLLMENT":0,"GIS_ID":"chrt_96","WEB_URL":"http://www.leemontessori.org","ADDRID":289740,"X":400115.34,"Y":139998.5,"AUTHORIZAT":0,"MYSCHOOL":"Y"},"geometry":{"type":"Point","coordinates":[-76.9986720984239,38.927872368496615]}},{"type":"Feature","properties":{"OBJECTID":5,"NAME":"The Next Step/ El Prόximo Paso PCS","ADDRESS":"3047 15TH STREET NW","DIRECTOR":"Julie Meyer","PHONE":"202-319-2249","AUTHORIZER":null,"GRADES":"Adult/Voc Ed","ENROLLMENT":0,"GIS_ID":"chrt_97","WEB_URL":"http://www.nextsteppcs.org","ADDRID":243343,"X":396892.23,"Y":140071.02,"AUTHORIZAT":0,"MYSCHOOL":"N"},"geometry":{"type":"Point","coordinates":[-77.03584359497178,38.92852014997735]}},{"type":"Feature","properties":{"OBJECTID":6,"NAME":"Achievement Prep PCS – Wahler Place Elementary","ADDRESS":"908 WAHLER PLACE SE","DIRECTOR":"Shantelle Wright","PHONE":"202-562-1214","AUTHORIZER":null,"GRADES":"K-3","ENROLLMENT":0,"GIS_ID":"chrt_98","WEB_URL":"http://www.aprepacademy.org","ADDRID":294502,"X":400671.25,"Y":129615.24,"AUTHORIZAT":0,"MYSCHOOL":"Y"},"geometry":{"type":"Point","coordinates":[-76.9922703929792,38.83433168184799]}},{"type":"Feature","properties":{"OBJECTID":7,"NAME":"AppleTree Early Learning PCS – Southwest","ADDRESS":"801 7TH STREET SW","DIRECTOR":"Michaele Samuel","PHONE":"202-646-0094","AUTHORIZER":null,"GRADES":"PK-3, PK-4","ENROLLMENT":0,"GIS_ID":"chrt_99","WEB_URL":"http://www.appletreeinstitute.org/campuses/southwest/","ADDRID":276812,"X":398012.08,"Y":134671.03,"AUTHORIZAT":0,"MYSCHOOL":"Y"},"geometry":{"type":"Point","coordinates":[-77.02291674919658,38.879830527332615]}},{"type":"Feature","properties":{"OBJECTID":8,"NAME":"AppleTree Early Learning PCS – Columbia Heights","ADDRESS":"2750 14TH STREET NW","DIRECTOR":"Michaele Samuel","PHONE":"202-667-9490","AUTHORIZER":null,"GRADES":"PK-3, PK-4","ENROLLMENT":0,"GIS_ID":"chrt_100","WEB_URL":"http://www.appletreeinstitute.org/campuses/columbia-heights/","ADDRID":297626,"X":397160.68,"Y":139708.07,"AUTHORIZAT":0,"MYSCHOOL":"Y"},"geometry":{"type":"Point","coordinates":[-77.03274611178139,38.92525149048841]}},{"type":"Feature","properties":{"OBJECTID":9,"NAME":"AppleTree Early Learning PCS – Parklands (Southeast)","ADDRESS":"2011 SAVANNAH STREET SE","DIRECTOR":"Michaele Samuel","PHONE":"202-629-4525","AUTHORIZER":null,"GRADES":"PK-3, PK-4","ENROLLMENT":0,"GIS_ID":"chrt_101","WEB_URL":"http://www.appletreeinstitute.org/campuses/parklands/","ADDRID":278045,"X":402190.85000000003,"Y":130971.03,"AUTHORIZAT":0,"MYSCHOOL":"Y"},"geometry":{"type":"Point","coordinates":[-76.97476464481714,38.84654675729207]}},{"type":"Feature","properties":{"OBJECTID":10,"NAME":"AppleTree Early Learning PCS – Lincoln Park","ADDRESS":"138 12TH STREET NE","DIRECTOR":"Michaele Samuel","PHONE":"202-621-6581","AUTHORIZER":null,"GRADES":"PK-3, PK-4","ENROLLMENT":0,"GIS_ID":"chrt_102","WEB_URL":"http://www.appletreeinstitute.org/campuses/lincoln-park/","ADDRID":65489,"X":400821.07,"Y":135963.23,"AUTHORIZAT":0,"MYSCHOOL":"Y"},"geometry":{"type":"Point","coordinates":[-76.99053795276232,38.89152087935387]}},{"type":"Feature","properties":{"OBJECTID":11,"NAME":"AppleTree Early Learning PCS – Oklahoma Ave","ADDRESS":"330 21ST STREET NE","DIRECTOR":"Michaele Samuel","PHONE":"202-525-7807","AUTHORIZER":null,"GRADES":"PK-3, PK-4","ENROLLMENT":0,"GIS_ID":"chrt_103","WEB_URL":"http://www.appletreeinstitute.org/campuses/oklahoma-avenue/","ADDRID":307321,"X":402118.19,"Y":136305.64,"AUTHORIZAT":0,"MYSCHOOL":"Y"},"geometry":{"type":"Point","coordinates":[-76.97558522243143,38.894603267915336]}},{"type":"Feature","properties":{"OBJECTID":12,"NAME":"AppleTree Early Learning PCS – Douglas Knoll (Southeast)","ADDRESS":"2017 SAVANNAH TERRACE SE","DIRECTOR":"Michaele Samuel","PHONE":"202-889-0643","AUTHORIZER":null,"GRADES":"PK-3, PK-4","ENROLLMENT":0,"GIS_ID":"chrt_104","WEB_URL":"http://www.appletreeinstitute.org/campuses/douglas-knoll/","ADDRID":278066,"X":402177.09,"Y":131217.9,"AUTHORIZAT":0,"MYSCHOOL":"Y"},"geometry":{"type":"Point","coordinates":[-76.97492237284342,38.848770705188656]}},{"type":"Feature","properties":{"OBJECTID":13,"NAME":"KIPP DC – Arts and Technology Academy PCS","ADDRESS":"5300 BLAINE STREET NE","DIRECTOR":"Allison Artis","PHONE":"202-398-6811","AUTHORIZER":null,"GRADES":"PK-3-K","ENROLLMENT":0,"GIS_ID":"chrt_105","WEB_URL":"http://www.kippdc.org/our-schools/kipp-dc-arts-technology-academy/","ADDRID":304054,"X":406537.33,"Y":136014.15,"AUTHORIZAT":0,"MYSCHOOL":"Y"},"geometry":{"type":"Point","coordinates":[-76.92464715607197,38.891955665605316]}},{"type":"Feature","properties":{"OBJECTID":14,"NAME":"BASIS DC PCS","ADDRESS":"410 8TH STREET NW","DIRECTOR":"Carolyn McGarvy","PHONE":"202-393-5437","AUTHORIZER":null,"GRADES":"5-11","ENROLLMENT":0,"GIS_ID":"chrt_106","WEB_URL":"http://www.basisdc.org","ADDRID":279758,"X":397985.56,"Y":136374.28,"AUTHORIZAT":0,"MYSCHOOL":"Y"},"geometry":{"type":"Point","coordinates":[-77.02322358555865,38.89522184439351]}},{"type":"Feature","properties":{"OBJECTID":15,"NAME":"Bridges PCS","ADDRESS":"100 GALLATIN STREET NE","DIRECTOR":"Olivia Smith","PHONE":"202-545-0515","AUTHORIZER":null,"GRADES":"PK-3-3","ENROLLMENT":0,"GIS_ID":"chrt_107","WEB_URL":"http://www.bridgespcs.org","ADDRID":294470,"X":399351.72000000003,"Y":142773.48,"AUTHORIZAT":0,"MYSCHOOL":"Y"},"geometry":{"type":"Point","coordinates":[-77.00748683892115,38.95287370876945]}},{"type":"Feature","properties":{"OBJECTID":16,"NAME":"Capital City PCS – Lower School","ADDRESS":"100 PEABODY STREET NW","DIRECTOR":"Karen Dresden","PHONE":"202-808-9800","AUTHORIZER":null,"GRADES":"PK-3-4","ENROLLMENT":0,"GIS_ID":"chrt_108","WEB_URL":"http://www.ccpcs.org","ADDRID":277545,"X":398884.8,"Y":143806.18,"AUTHORIZAT":0,"MYSCHOOL":"Y"},"geometry":{"type":"Point","coordinates":[-77.01286974543956,38.96217232131974]}},{"type":"Feature","properties":{"OBJECTID":17,"NAME":"Washington Mathematics Science Technology PCHS","ADDRESS":"1920 BLADENSBURG ROAD NE","DIRECTOR":"N'Deye Diagne, Ph.D.","PHONE":"202-636-8011","AUTHORIZER":null,"GRADES":"9-12","ENROLLMENT":0,"GIS_ID":"chrt_83","WEB_URL":"http://www.wmstpchs.org","ADDRID":286539,"X":402273.07,"Y":138728.17,"AUTHORIZAT":0,"MYSCHOOL":"Y"},"geometry":{"type":"Point","coordinates":[-76.97379185422999,38.91642588153393]}},{"type":"Feature","properties":{"OBJECTID":18,"NAME":"Capital City PCS – High School","ADDRESS":"100 PEABODY STREET NW","DIRECTOR":"Karen Dresden","PHONE":"202-808-9800","AUTHORIZER":null,"GRADES":"9-12","ENROLLMENT":0,"GIS_ID":"chrt_109","WEB_URL":"http://www.ccpcs.org","ADDRID":277545,"X":398884.8,"Y":143806.18,"AUTHORIZAT":0,"MYSCHOOL":"Y"},"geometry":{"type":"Point","coordinates":[-77.01286974543956,38.96217232131974]}},{"type":"Feature","properties":{"OBJECTID":19,"NAME":"Capital City PCS – Middle School","ADDRESS":"100 PEABODY STREET NW","DIRECTOR":"Karen Dresden","PHONE":"202-808-9800","AUTHORIZER":null,"GRADES":"5-8","ENROLLMENT":0,"GIS_ID":"chrt_110","WEB_URL":"http://www.ccpcs.org","ADDRID":277545,"X":398884.8,"Y":143806.18,"AUTHORIZAT":0,"MYSCHOOL":"Y"},"geometry":{"type":"Point","coordinates":[-77.01286974543956,38.96217232131974]}},{"type":"Feature","properties":{"OBJECTID":20,"NAME":"Cedar Tree Academy PCS","ADDRESS":"701 HOWARD ROAD SE","DIRECTOR":"Dr. Latonya Henderson","PHONE":"202-610-4193","AUTHORIZER":null,"GRADES":"PK-3-K","ENROLLMENT":0,"GIS_ID":"chrt_111","WEB_URL":"http://www.cedartree-dc.org","ADDRID":300872,"X":400069.95,"Y":132932.97,"AUTHORIZAT":0,"MYSCHOOL":"Y"},"geometry":{"type":"Point","coordinates":[-76.99919628833334,38.86422347991525]}},{"type":"Feature","properties":{"OBJECTID":21,"NAME":"Center City PCS – Brightwood","ADDRESS":"6008 GEORGIA AVENUE NW","DIRECTOR":"Russ Williams","PHONE":"202-723-3322","AUTHORIZER":null,"GRADES":"PK-4-8","ENROLLMENT":0,"GIS_ID":"chrt_112","WEB_URL":"http://www.centercitypcs.org/campuses/brightwood-campus/","ADDRID":253198,"X":397544.85000000003,"Y":143920.5,"AUTHORIZAT":0,"MYSCHOOL":"Y"},"geometry":{"type":"Point","coordinates":[-77.02833083423941,38.96319942072205]}},{"type":"Feature","properties":{"OBJECTID":22,"NAME":"Center City PCS – Capitol Hill","ADDRESS":"1503 EAST CAPITOL STREET SE","DIRECTOR":"Russ Williams","PHONE":"202-547-7556","AUTHORIZER":null,"GRADES":"PK-4-8","ENROLLMENT":0,"GIS_ID":"chrt_113","WEB_URL":"http://www.centercitypcs.org/campuses/capitol-hill/","ADDRID":295125,"X":401448.44,"Y":135742.68,"AUTHORIZAT":0,"MYSCHOOL":"Y"},"geometry":{"type":"Point","coordinates":[-76.98330683346708,38.88953327267243]}},{"type":"Feature","properties":{"OBJECTID":23,"NAME":"Center City PCS – Petworth","ADDRESS":"510 WEBSTER STREET NW","DIRECTOR":"Russ Williams","PHONE":"202-726-9212","AUTHORIZER":null,"GRADES":"PK-4-8","ENROLLMENT":0,"GIS_ID":"chrt_115","WEB_URL":"http://www.centercitypcs.org/campuses/petworth/","ADDRID":303332,"X":398187.59,"Y":141775.54,"AUTHORIZAT":0,"MYSCHOOL":"Y"},"geometry":{"type":"Point","coordinates":[-77.02090896254855,38.94387860438226]}},{"type":"Feature","properties":{"OBJECTID":24,"NAME":"Center City PCS – Shaw","ADDRESS":"711 N STREET NW","DIRECTOR":"Russ Williams","PHONE":"202-234-1093","AUTHORIZER":null,"GRADES":"PK-4-8","ENROLLMENT":0,"GIS_ID":"chrt_116","WEB_URL":"http://www.centercitypcs.org/campuses/shaw/","ADDRID":290191,"X":398034.11,"Y":137731.91,"AUTHORIZAT":0,"MYSCHOOL":"Y"},"geometry":{"type":"Point","coordinates":[-77.02266781558147,38.90745197117722]}},{"type":"Feature","properties":{"OBJECTID":25,"NAME":"Center City PCS – Trinidad","ADDRESS":"1217 WEST VIRGINIA AVENUE NE","DIRECTOR":"Russ Williams","PHONE":"202-397-1614","AUTHORIZER":null,"GRADES":"PK-4-8","ENROLLMENT":0,"GIS_ID":"chrt_117","WEB_URL":"http://www.centercitypcs.org/campuses/trinidad/","ADDRID":285938,"X":400763.10000000003,"Y":137493.55,"AUTHORIZAT":0,"MYSCHOOL":"Y"},"geometry":{"type":"Point","coordinates":[-76.99120446364059,38.905306609295955]}},{"type":"Feature","properties":{"OBJECTID":26,"NAME":"Harmony DC PCS – School of Excellence","ADDRESS":"62 T STREET NE","DIRECTOR":null,"PHONE":null,"AUTHORIZER":null,"GRADES":"K-6","ENROLLMENT":0,"GIS_ID":"chrt_43","WEB_URL":"http://www.harmonydc.org","ADDRID":299982,"X":399421.3,"Y":138682.56,"AUTHORIZAT":0,"MYSCHOOL":"Y"},"geometry":{"type":"Point","coordinates":[-77.00667514941854,38.91601775925499]}},{"type":"Feature","properties":{"OBJECTID":27,"NAME":"District of Columbia International School","ADDRESS":"3220 16TH STREET NW","DIRECTOR":"Mary Shaffner","PHONE":"202-459-4790","AUTHORIZER":null,"GRADES":"6-8","ENROLLMENT":0,"GIS_ID":"chrt_44","WEB_URL":"http://dcinternationalschool.org","ADDRID":301528,"X":396808.36,"Y":140381.96,"AUTHORIZAT":0,"MYSCHOOL":"Y"},"geometry":{"type":"Point","coordinates":[-77.03681229748787,38.93132089323556]}},{"type":"Feature","properties":{"OBJECTID":28,"NAME":"Bridges PCS - Sharpe Campus","ADDRESS":"4300 13TH STREET NW","DIRECTOR":"Olivia Smith","PHONE":"202-545-0515","AUTHORIZER":null,"GRADES":"PK-3-1","ENROLLMENT":0,"GIS_ID":"chrt_45","WEB_URL":"http://bridgespcs.org","ADDRID":255254,"X":397358.67,"Y":141731.76,"AUTHORIZAT":0,"MYSCHOOL":"N"},"geometry":{"type":"Point","coordinates":[-77.03047062659084,38.943482120059585]}},{"type":"Feature","properties":{"OBJECTID":29,"NAME":"Friendship PCS – Southeast Elementary Academy","ADDRESS":"645 MILWAUKEE PLACE SE","DIRECTOR":"Kimberly Campbell","PHONE":"202-562-1980","AUTHORIZER":null,"GRADES":"PK-3-5","ENROLLMENT":0,"GIS_ID":"chrt_46","WEB_URL":"http://www.friendshipschools.org/apps/pages/index.jsp?type=d&uREC_ID=211307&pREC_ID=469659","ADDRID":1655,"X":400259.75,"Y":131109.73,"AUTHORIZAT":0,"MYSCHOOL":"Y"},"geometry":{"type":"Point","coordinates":[-76.9970100213184,38.84779891710694]}},{"type":"Feature","properties":{"OBJECTID":30,"NAME":"Friendship PCS – Technology Preparatory High School Academy","ADDRESS":"2705 MARTIN LUTHER KING JR AVENUE SE","DIRECTOR":"Kimberly Campbell","PHONE":"202-562-1681","AUTHORIZER":null,"GRADES":"9-12","ENROLLMENT":0,"GIS_ID":"chrt_134","WEB_URL":"http://www.friendshipschools.org/apps/pages/index.jsp?type=d&uREC_ID=211308&pREC_ID=469660","ADDRID":289904,"X":400331.09,"Y":131166.09,"AUTHORIZAT":0,"MYSCHOOL":"Y"},"geometry":{"type":"Point","coordinates":[-76.99618817416676,38.84830660888015]}},{"type":"Feature","properties":{"OBJECTID":31,"NAME":"Friendship PCS – Woodridge Elementary","ADDRESS":"2959 CARLTON AVENUE NE","DIRECTOR":"Kimberly Campbell","PHONE":"202-635-6500","AUTHORIZER":null,"GRADES":"PK-3-3","ENROLLMENT":0,"GIS_ID":"chrt_48","WEB_URL":"http://www.friendshipschools.org/apps/pages/index.jsp?type=d&uREC_ID=211309&pREC_ID=469661","ADDRID":42808,"X":402903.45,"Y":140185.72,"AUTHORIZAT":0,"MYSCHOOL":"Y"},"geometry":{"type":"Point","coordinates":[-76.96651687320974,38.92955410479759]}},{"type":"Feature","properties":{"OBJECTID":32,"NAME":"Hope Community PCS – Lamond","ADDRESS":"6200 KANSAS AVENUE NE","DIRECTOR":"Michael DePass","PHONE":"202-722-4421","AUTHORIZER":null,"GRADES":"PK-3-5","ENROLLMENT":0,"GIS_ID":"chrt_49","WEB_URL":"http://imaginehopelamond.com/","ADDRID":304055,"X":399254.07,"Y":144200.69,"AUTHORIZAT":0,"MYSCHOOL":"Y"},"geometry":{"type":"Point","coordinates":[-77.00860944473003,38.96572655801233]}},{"type":"Feature","properties":{"OBJECTID":33,"NAME":"Hope Community PCS – Tolson","ADDRESS":"2917 8TH STREET NE","DIRECTOR":"Michael DePass","PHONE":"202-832-7370","AUTHORIZER":null,"GRADES":"PK-3-8","ENROLLMENT":0,"GIS_ID":"chrt_50","WEB_URL":"http://www.hopecommunitycs.org","ADDRID":43392,"X":400466.83,"Y":139897.04,"AUTHORIZAT":0,"MYSCHOOL":"Y"},"geometry":{"type":"Point","coordinates":[-76.99461854324133,38.926958256746104]}},{"type":"Feature","properties":{"OBJECTID":34,"NAME":"Howard University Middle School of Mathematics and Science PCS","ADDRESS":"405 HOWARD PLACE NW","DIRECTOR":"Yohance C. Maqubela","PHONE":"202-806-7725","AUTHORIZER":null,"GRADES":"6-8","ENROLLMENT":0,"GIS_ID":"chrt_51","WEB_URL":"http://www.howard.edu/ms2","ADDRID":291490,"X":398341.18,"Y":139441.04,"AUTHORIZAT":0,"MYSCHOOL":"Y"},"geometry":{"type":"Point","coordinates":[-77.01913161306179,38.92284902059826]}},{"type":"Feature","properties":{"OBJECTID":35,"NAME":"IDEA PCS","ADDRESS":"1027 45TH STREET NE","DIRECTOR":"John Goldman","PHONE":"202-399-4750","AUTHORIZER":null,"GRADES":"9-12","ENROLLMENT":0,"GIS_ID":"chrt_52","WEB_URL":"http://www.ideapcs.org","ADDRID":75296,"X":405455.53,"Y":137412.11000000002,"AUTHORIZAT":0,"MYSCHOOL":"Y"},"geometry":{"type":"Point","coordinates":[-76.93710584684808,38.904556372144945]}},{"type":"Feature","properties":{"OBJECTID":36,"NAME":"KIPP DC – AIM Academy PCS","ADDRESS":"2600 DOUGLASS ROAD SE","DIRECTOR":"Susan Schaeffler","PHONE":"202-678-5477","AUTHORIZER":null,"GRADES":"5-8","ENROLLMENT":0,"GIS_ID":"chrt_53","WEB_URL":"http://www.kippdc.org/our-schools/kipp-dc-aim-academy/","ADDRID":311456,"X":401037.32,"Y":132090.08000000002,"AUTHORIZAT":0,"MYSCHOOL":"Y"},"geometry":{"type":"Point","coordinates":[-76.98805111951874,38.85662976262273]}},{"type":"Feature","properties":{"OBJECTID":37,"NAME":"KIPP DC – College Preparatory PCS","ADDRESS":"1401 BRENTWOOD PARKWAY NE","DIRECTOR":"Susan Schaeffler","PHONE":"202-678-2527","AUTHORIZER":null,"GRADES":"9-12","ENROLLMENT":0,"GIS_ID":"chrt_54","WEB_URL":"http://www.kippdc.org/our-schools/kipp-dc-college-preparatory/","ADDRID":311456,"X":400520.69,"Y":137952.79,"AUTHORIZAT":0,"MYSCHOOL":"Y"},"geometry":{"type":"Point","coordinates":[-76.99399887339254,38.90944378009004]}},{"type":"Feature","properties":{"OBJECTID":38,"NAME":"KIPP DC – Discover Academy PCS","ADDRESS":"2600 DOUGLASS ROAD SE","DIRECTOR":"Susan Schaeffler","PHONE":"202-678-7735","AUTHORIZER":null,"GRADES":"PK-3-K","ENROLLMENT":0,"GIS_ID":"chrt_55","WEB_URL":"http://www.kippdc.org/our-schools/kipp-dc-discover-academy/","ADDRID":311456,"X":401037.32,"Y":132090.08000000002,"AUTHORIZAT":0,"MYSCHOOL":"Y"},"geometry":{"type":"Point","coordinates":[-76.98805111951874,38.85662976262273]}},{"type":"Feature","properties":{"OBJECTID":39,"NAME":"KIPP DC – Grow Academy PCS","ADDRESS":"421 P STREET NW","DIRECTOR":"Susan Schaeffler","PHONE":"202-986-4769","AUTHORIZER":null,"GRADES":"PK-3-K","ENROLLMENT":0,"GIS_ID":"chrt_56","WEB_URL":"http://www.kippdc.org/our-schools/kipp-dc-grow-academy/","ADDRID":294487,"X":398428.65,"Y":138002.89,"AUTHORIZAT":0,"MYSCHOOL":"Y"},"geometry":{"type":"Point","coordinates":[-77.01811962654844,38.9098938468423]}},{"type":"Feature","properties":{"OBJECTID":40,"NAME":"KIPP DC – KEY Academy PCS","ADDRESS":"4801 BENNING ROAD SE","DIRECTOR":"Susan Schaeffler","PHONE":"202-582-5477","AUTHORIZER":null,"GRADES":"5-8","ENROLLMENT":0,"GIS_ID":"chrt_58","WEB_URL":"http://www.kippdc.org/our-schools/kipp-dc-key-academy/","ADDRID":17421,"X":405692.28,"Y":134978.83000000002,"AUTHORIZAT":0,"MYSCHOOL":"Y"},"geometry":{"type":"Point","coordinates":[-76.93439653242692,38.8826349887968]}},{"type":"Feature","properties":{"OBJECTID":41,"NAME":"KIPP DC – Lead Academy PCS","ADDRESS":"421 P STREET NW","DIRECTOR":"Susan Schaeffler","PHONE":"202-223-4505","AUTHORIZER":null,"GRADES":"1-4","ENROLLMENT":0,"GIS_ID":"chrt_59","WEB_URL":"http://www.kippdc.org/our-schools/kipp-dc-lead-academy/","ADDRID":294487,"X":398428.65,"Y":138002.89,"AUTHORIZAT":0,"MYSCHOOL":"Y"},"geometry":{"type":"Point","coordinates":[-77.01811962654844,38.9098938468423]}},{"type":"Feature","properties":{"OBJECTID":42,"NAME":"KIPP DC – LEAP Academy PCS","ADDRESS":"4801 BENNING ROAD SE","DIRECTOR":"Susan Schaeffler","PHONE":"202-582-5327","AUTHORIZER":null,"GRADES":"PK-3-K","ENROLLMENT":0,"GIS_ID":"chrt_60","WEB_URL":"http://www.kippdc.org/our-schools/kipp-dc-leap-academy/","ADDRID":17421,"X":405692.28,"Y":134978.83000000002,"AUTHORIZAT":0,"MYSCHOOL":"Y"},"geometry":{"type":"Point","coordinates":[-76.93439653242692,38.8826349887968]}},{"type":"Feature","properties":{"OBJECTID":43,"NAME":"Meridian Public Charter School - Middle School","ADDRESS":"3029 14TH STREET NW","DIRECTOR":"Kimberly Moore","PHONE":"202-387-9830","AUTHORIZER":null,"GRADES":"6-8","ENROLLMENT":0,"GIS_ID":"chrt_69","WEB_URL":"http://www.meridian-dc.org","ADDRID":284556,"X":397205.49,"Y":140057.46,"AUTHORIZAT":0,"MYSCHOOL":"Y"},"geometry":{"type":"Point","coordinates":[-77.03223161228256,38.92840092805707]}},{"type":"Feature","properties":{"OBJECTID":44,"NAME":"Cesar Chavez PCS for Public Policy – Capitol Hill","ADDRESS":"709 12TH STREET SE","DIRECTOR":"Jeff Cooper","PHONE":"202-547-3424","AUTHORIZER":null,"GRADES":"9-12","ENROLLMENT":0,"GIS_ID":"chrt_118","WEB_URL":"http://www.chavezschools.org/our-schools/capitol-hill-high-school/","ADDRID":76726,"X":400812.11,"Y":134762.27,"AUTHORIZAT":0,"MYSCHOOL":"Y"},"geometry":{"type":"Point","coordinates":[-76.99064265177616,38.88070218077481]}},{"type":"Feature","properties":{"OBJECTID":45,"NAME":"Cesar Chavez PCS for Public Policy – Chavez Prep","ADDRESS":"770 KENYON STREET NW","DIRECTOR":"Jeff Cooper","PHONE":"202-723-3975","AUTHORIZER":null,"GRADES":"6-9","ENROLLMENT":0,"GIS_ID":"chrt_119","WEB_URL":"http://www.chavezschools.org/our-schools/chavez-prep-middle-school/","ADDRID":285409,"X":397756.37,"Y":140192.11000000002,"AUTHORIZAT":0,"MYSCHOOL":"Y"},"geometry":{"type":"Point","coordinates":[-77.02587803220803,38.929613598215205]}},{"type":"Feature","properties":{"OBJECTID":46,"NAME":"Cesar Chavez PCS for Public Policy – Parkside High School","ADDRESS":"3701 HAYES STREET NE","DIRECTOR":"Jeff Cooper","PHONE":"202-398-2230","AUTHORIZER":null,"GRADES":"9-12","ENROLLMENT":0,"GIS_ID":"chrt_120","WEB_URL":"http://www.chavezschools.org/our-schools/parkside-high-school/","ADDRID":304053,"X":404418.2,"Y":137066.13,"AUTHORIZAT":0,"MYSCHOOL":"Y"},"geometry":{"type":"Point","coordinates":[-76.94906737696651,38.901445487586514]}},{"type":"Feature","properties":{"OBJECTID":47,"NAME":"IDEAL Academy","ADDRESS":"6130 NORTH CAPITOL STREET NW","DIRECTOR":"George H. Rutherford II, Ph.D.","PHONE":"202-729-6660","AUTHORIZER":null,"GRADES":"PK-4-8","ENROLLMENT":0,"GIS_ID":"chrt_121","WEB_URL":"http://www.iapcs.com","ADDRID":285311,"X":399139.13,"Y":144111.98,"AUTHORIZAT":0,"MYSCHOOL":"N"},"geometry":{"type":"Point","coordinates":[-77.00993560605762,38.96492733105077]}},{"type":"Feature","properties":{"OBJECTID":48,"NAME":"KIPP DC – Northeast Academy PCS","ADDRESS":"1375 MOUNT OLIVET ROAD NE","DIRECTOR":"John Barnhardt","PHONE":"202-398-5477","AUTHORIZER":null,"GRADES":"5-7","ENROLLMENT":0,"GIS_ID":"chrt_122","WEB_URL":"http://www.kippdc.org/our-schools/kipp-dc-northeast-academy/","ADDRID":286108,"X":401636.15,"Y":137801.71,"AUTHORIZAT":0,"MYSCHOOL":"Y"},"geometry":{"type":"Point","coordinates":[-76.98113829028553,38.90808143103589]}},{"type":"Feature","properties":{"OBJECTID":49,"NAME":"Friendship PCS – Chamberlain Middle","ADDRESS":"1345 POTOMAC AVENUE SE","DIRECTOR":"Kimberly Campbell","PHONE":"202-547-5800","AUTHORIZER":null,"GRADES":"PK-3-3","ENROLLMENT":0,"GIS_ID":"chrt_128","WEB_URL":"http://www.friendshipschools.org/apps/pages/index.jsp?type=d&uREC_ID=211305&pREC_ID=469656","ADDRID":66334,"X":401145.15,"Y":134616.92,"AUTHORIZAT":0,"MYSCHOOL":"Y"},"geometry":{"type":"Point","coordinates":[-76.9868045821557,38.87939244049106]}},{"type":"Feature","properties":{"OBJECTID":50,"NAME":"Friendship PCS – Woodridge Middle","ADDRESS":"2959 CARLTON AVENUE NE","DIRECTOR":"Kimberly Campbell","PHONE":"202-635-6500","AUTHORIZER":null,"GRADES":"PK-3-3","ENROLLMENT":0,"GIS_ID":"chrt_129","WEB_URL":"http://www.friendshipschools.org/apps/pages/index.jsp?type=d&uREC_ID=301377&pREC_ID=695977","ADDRID":42808,"X":402903.45,"Y":140185.72,"AUTHORIZAT":0,"MYSCHOOL":"Y"},"geometry":{"type":"Point","coordinates":[-76.96651687320974,38.92955410479759]}},{"type":"Feature","properties":{"OBJECTID":51,"NAME":"KIPP DC – Valor Academy PCS","ADDRESS":"5300 BLAINE STREET NE","DIRECTOR":"Susan Schaeffler","PHONE":"202-398-6811","AUTHORIZER":null,"GRADES":"5-6","ENROLLMENT":0,"GIS_ID":"chrt_130","WEB_URL":"http://www.kippdc.org/our-schools/kipp-dc-valor-academy/","ADDRID":304054,"X":406537.33,"Y":136014.15,"AUTHORIZAT":0,"MYSCHOOL":"Y"},"geometry":{"type":"Point","coordinates":[-76.92464715607197,38.891955665605316]}},{"type":"Feature","properties":{"OBJECTID":52,"NAME":"Two Rivers PCS at Young","ADDRESS":"820 26TH STREET NE","DIRECTOR":"Jessica Wodatch","PHONE":"202-543-8477","AUTHORIZER":null,"GRADES":"PK-3-1","ENROLLMENT":0,"GIS_ID":"chrt_131","WEB_URL":"http://www.tworiverspcs.org","ADDRID":294499,"X":402496.78,"Y":137030.93,"AUTHORIZAT":0,"MYSCHOOL":"Y"},"geometry":{"type":"Point","coordinates":[-76.9712184576338,38.90113595015017]}},{"type":"Feature","properties":{"OBJECTID":53,"NAME":"Friendship PCS - Blow-Pierce Middle","ADDRESS":"725 19TH STREET NE","DIRECTOR":"Kimberly Campbell","PHONE":"202-572-1070","AUTHORIZER":null,"GRADES":"PK-3-3","ENROLLMENT":0,"GIS_ID":"chrt_132","WEB_URL":"http://www.friendshipschools.org/apps/pages/index.jsp?type=d&uREC_ID=211304&pREC_ID=469655","ADDRID":288919,"X":402040.17,"Y":136663.58000000002,"AUTHORIZAT":0,"MYSCHOOL":"Y"},"geometry":{"type":"Point","coordinates":[-76.97648352133622,38.89782790696176]}},{"type":"Feature","properties":{"OBJECTID":54,"NAME":"Rocketship DC PCS","ADDRESS":"2335 RAYNOLDS PLACE SE","DIRECTOR":null,"PHONE":null,"AUTHORIZER":null,"GRADES":null,"ENROLLMENT":0,"GIS_ID":"chrt_133","WEB_URL":"http://www.rsed.org/dc/","ADDRID":48301,"X":402240.59,"Y":131976.61000000002,"AUTHORIZAT":0,"MYSCHOOL":"Y"},"geometry":{"type":"Point","coordinates":[-76.97418838672164,38.855605334675346]}},{"type":"Feature","properties":{"OBJECTID":55,"NAME":"Washington Global Public Charter School","ADDRESS":"525 SCHOOL STREET SW","DIRECTOR":" ","PHONE":"202-534-7901","AUTHORIZER":" ","GRADES":"6-7","ENROLLMENT":0,"GIS_ID":"chrt_127","WEB_URL":"http://www.washingtonglobal.org/","ADDRID":11149,"X":398304.38,"Y":135142.48,"AUTHORIZAT":0,"MYSCHOOL":"Y"},"geometry":{"type":"Point","coordinates":[-77.0195453663584,38.88412599901108]}},{"type":"Feature","properties":{"OBJECTID":56,"NAME":"The Children's Guild DC Public Charter School","ADDRESS":"2146 24TH PLACE NE","DIRECTOR":" ","PHONE":" ","AUTHORIZER":" ","GRADES":"K-8","ENROLLMENT":0,"GIS_ID":"chrt_126","WEB_URL":"http://tcgdc.org/","ADDRID":51191,"X":402412.62,"Y":139203.19,"AUTHORIZAT":0,"MYSCHOOL":"Y"},"geometry":{"type":"Point","coordinates":[-76.97360459335677,38.92012937133767]}},{"type":"Feature","properties":{"OBJECTID":57,"NAME":"Ingenuity Prep PCS","ADDRESS":"4600 LIVINGSTON ROAD SE","DIRECTOR":null,"PHONE":"202-374-8458","AUTHORIZER":null,"GRADES":"PK-3-2","ENROLLMENT":0,"GIS_ID":"chrt_1","WEB_URL":"http://www.ingenuityprep.org","ADDRID":294600,"X":399731.95,"Y":128458.05,"AUTHORIZAT":0,"MYSCHOOL":"Y"},"geometry":{"type":"Point","coordinates":[-77.00308911908458,38.823911366299264]}},{"type":"Feature","properties":{"OBJECTID":58,"NAME":"Inspired Teaching Demonstration PCS","ADDRESS":"200 DOUGLAS STREET NE","DIRECTOR":"Deborah Dantzler Williams","PHONE":"202-248-6825","AUTHORIZER":null,"GRADES":"PK-3-4","ENROLLMENT":0,"GIS_ID":"chrt_2","WEB_URL":"http://www.inspiredteachingschool.org","ADDRID":240295,"X":399760.28,"Y":139534.59,"AUTHORIZAT":0,"MYSCHOOL":"Y"},"geometry":{"type":"Point","coordinates":[-77.0027667421266,38.92369328269194]}},{"type":"Feature","properties":{"OBJECTID":59,"NAME":"Cesar Chavez PCS for Public Policy – Parkside Middle School","ADDRESS":"3701 HAYES STREET NE","DIRECTOR":"Jeff Cooper","PHONE":"202-398-2230","AUTHORIZER":null,"GRADES":"6-8","ENROLLMENT":0,"GIS_ID":"chrt_3","WEB_URL":"http://www.chavezschools.org/our-schools/parkside-middle-school/","ADDRID":304053,"X":404418.2,"Y":137066.13,"AUTHORIZAT":0,"MYSCHOOL":"Y"},"geometry":{"type":"Point","coordinates":[-76.94906737696651,38.901445487586514]}},{"type":"Feature","properties":{"OBJECTID":60,"NAME":"Friendship PCS - Armstrong Elementary","ADDRESS":"1400 1ST STREET NW","DIRECTOR":"Brenda Bethea","PHONE":"202-332-6565","AUTHORIZER":null,"GRADES":"PK-3-5","ENROLLMENT":0,"GIS_ID":"chrt_6","WEB_URL":"http://www.friendshipschools.org/apps/pages/index.jsp?type=d&uREC_ID=353178&pREC_ID=765305","ADDRID":238253,"X":398853.47000000003,"Y":137913.33000000002,"AUTHORIZAT":0,"MYSCHOOL":"Y"},"geometry":{"type":"Point","coordinates":[-77.01322138980201,38.909087716502]}},{"type":"Feature","properties":{"OBJECTID":61,"NAME":"Community College Preparatory Academy PCS","ADDRESS":"2405 MARTIN LUTHER KING JR AVENUE SE","DIRECTOR":"C. Vanessa Spinner","PHONE":"202-506-8758","AUTHORIZER":null,"GRADES":"Adult/Voc Ed","ENROLLMENT":0,"GIS_ID":"chrt_7","WEB_URL":"http://www.ccprepacademy.com","ADDRID":38404,"X":400639.64,"Y":132770.45,"AUTHORIZAT":0,"MYSCHOOL":"N"},"geometry":{"type":"Point","coordinates":[-76.99263223407752,38.86275920235162]}},{"type":"Feature","properties":{"OBJECTID":62,"NAME":"Creative Minds International PCS","ADDRESS":"3700 NORTH CAPITOL STREET NW","DIRECTOR":"Golnar Abedin, Ph.D.","PHONE":"202-588-0370","AUTHORIZER":null,"GRADES":"PK-3-5","ENROLLMENT":0,"GIS_ID":"chrt_8","WEB_URL":"http://www.creativemindspcs.org","ADDRID":233551,"X":399397.09,"Y":140962.44,"AUTHORIZAT":0,"MYSCHOOL":"Y"},"geometry":{"type":"Point","coordinates":[-77.00695631354749,38.93655562440811]}},{"type":"Feature","properties":{"OBJECTID":63,"NAME":"DC Bilingual PCS","ADDRESS":"33 RIGGS ROAD NE","DIRECTOR":"Tehani Collazo","PHONE":"202-332-4200","AUTHORIZER":null,"GRADES":"PK-3-5","ENROLLMENT":0,"GIS_ID":"chrt_9","WEB_URL":"http://www.dcbilingual.org","ADDRID":155991,"X":399424.65,"Y":143002.17,"AUTHORIZAT":0,"MYSCHOOL":"Y"},"geometry":{"type":"Point","coordinates":[-77.0066401453936,38.954930109115296]}},{"type":"Feature","properties":{"OBJECTID":64,"NAME":"DC Prep - Central Office","ADDRESS":"707 EDGEWOOD STREET NE","DIRECTOR":"Rick Cruz","PHONE":"202-635-4590","AUTHORIZER":null,"GRADES":"PK-3-3","ENROLLMENT":0,"GIS_ID":"chrt_10","WEB_URL":"http://www.dcprep.org","ADDRID":289577,"X":400369.83,"Y":139600.22,"AUTHORIZAT":0,"MYSCHOOL":"N"},"geometry":{"type":"Point","coordinates":[-76.99573736068795,38.92428445392179]}},{"type":"Feature","properties":{"OBJECTID":65,"NAME":"DC Prep PCS – Benning Elementary","ADDRESS":"100 41ST STREET NE","DIRECTOR":"Rick Cruz","PHONE":"202-398-2838","AUTHORIZER":null,"GRADES":"PK-3-3","ENROLLMENT":0,"GIS_ID":"chrt_11","WEB_URL":"http://www.dcprep.org/Benning_Elementary_Campus","ADDRID":294468,"X":404787,"Y":135910.06,"AUTHORIZAT":0,"MYSCHOOL":"Y"},"geometry":{"type":"Point","coordinates":[-76.94482374836551,38.891029256528704]}},{"type":"Feature","properties":{"OBJECTID":66,"NAME":"DC Prep PCS – Benning Middle","ADDRESS":"100 41ST STREET NE","DIRECTOR":null,"PHONE":"202-398-2838","AUTHORIZER":null,"GRADES":"4","ENROLLMENT":0,"GIS_ID":"chrt_12","WEB_URL":"http://www.dcprep.org/Benning_Middle_Campus","ADDRID":294468,"X":404787,"Y":135910.06,"AUTHORIZAT":0,"MYSCHOOL":"Y"},"geometry":{"type":"Point","coordinates":[-76.94482374836551,38.891029256528704]}},{"type":"Feature","properties":{"OBJECTID":67,"NAME":"DC Prep PCS – Edgewood Elementary","ADDRESS":"707 EDGEWOOD STREET NE","DIRECTOR":"Rick Cruz","PHONE":"202-635-4411","AUTHORIZER":null,"GRADES":"PK-3-3","ENROLLMENT":0,"GIS_ID":"chrt_13","WEB_URL":"http://www.dcprep.org/Edgewood_Elementary_Campus","ADDRID":289577,"X":400369.83,"Y":139600.22,"AUTHORIZAT":0,"MYSCHOOL":"Y"},"geometry":{"type":"Point","coordinates":[-76.99573736068795,38.92428445392179]}},{"type":"Feature","properties":{"OBJECTID":68,"NAME":"DC Prep PCS – Edgewood Middle","ADDRESS":"701 EDGEWOOD STREET NE","DIRECTOR":"Rick Cruz","PHONE":"202-832-5700","AUTHORIZER":null,"GRADES":"4-8","ENROLLMENT":0,"GIS_ID":"chrt_14","WEB_URL":"http://www.dcprep.org/Edgewood_Middle_Campus","ADDRID":289579,"X":400346.07,"Y":139651.51,"AUTHORIZAT":0,"MYSCHOOL":"Y"},"geometry":{"type":"Point","coordinates":[-76.99601133805383,38.92474650031799]}},{"type":"Feature","properties":{"OBJECTID":69,"NAME":"DC Scholars PCS","ADDRESS":"5601 EAST CAPITOL STREET SE","DIRECTOR":"Lars Beck","PHONE":"202-559-6138","AUTHORIZER":null,"GRADES":"PK-3-6","ENROLLMENT":0,"GIS_ID":"chrt_15","WEB_URL":"http://www.dcscholars.org","ADDRID":294610,"X":406789.33,"Y":135740.32,"AUTHORIZAT":0,"MYSCHOOL":"Y"},"geometry":{"type":"Point","coordinates":[-76.92174508520976,38.889486993248774]}},{"type":"Feature","properties":{"OBJECTID":70,"NAME":"E.L. Haynes PCS - Georgia Avenue","ADDRESS":"4501 KANSAS AVENUE NW","DIRECTOR":"Jennie Niles","PHONE":"202-667-4446","AUTHORIZER":null,"GRADES":"PK-3-10","ENROLLMENT":0,"GIS_ID":"chrt_16","WEB_URL":"http://www.elhaynes.org","ADDRID":306085,"X":398056.76,"Y":141967.7,"AUTHORIZAT":0,"MYSCHOOL":"N"},"geometry":{"type":"Point","coordinates":[-77.02241866898952,38.945609356735694]}},{"type":"Feature","properties":{"OBJECTID":71,"NAME":"E.L. Haynes PCS – High School","ADDRESS":"4501 KANSAS AVENUE NW","DIRECTOR":"Jennie Niles","PHONE":"202-706-5838","AUTHORIZER":null,"GRADES":"9-11","ENROLLMENT":0,"GIS_ID":"chrt_17","WEB_URL":"http://www.elhaynes.org","ADDRID":284930,"X":398056.76,"Y":141967.7,"AUTHORIZAT":0,"MYSCHOOL":"Y"},"geometry":{"type":"Point","coordinates":[-77.02241866898952,38.945609356735694]}},{"type":"Feature","properties":{"OBJECTID":72,"NAME":"E.L. Haynes PCS – Elementary School","ADDRESS":"4501 KANSAS AVENUE NW","DIRECTOR":"Jennie Niles","PHONE":"202-706-5828","AUTHORIZER":null,"GRADES":"PK-3-4","ENROLLMENT":0,"GIS_ID":"chrt_18","WEB_URL":"http://www.elhaynes.org","ADDRID":284930,"X":398056.76,"Y":141967.7,"AUTHORIZAT":0,"MYSCHOOL":"Y"},"geometry":{"type":"Point","coordinates":[-77.02241866898952,38.945609356735694]}},{"type":"Feature","properties":{"OBJECTID":73,"NAME":"Eagle Academy PCS – Congress Heights","ADDRESS":"3400 WHEELER ROAD SE","DIRECTOR":"Cassandra S. Pinkney","PHONE":"202-544-2646","AUTHORIZER":null,"GRADES":"PK-3-3","ENROLLMENT":0,"GIS_ID":"chrt_20","WEB_URL":"http://www.eagleacademypcs.org/apps/pages/index.jsp?type=d&uREC_ID=258657&pREC_ID=588577","ADDRID":294566,"X":400604.46,"Y":130274.71,"AUTHORIZAT":0,"MYSCHOOL":"Y"},"geometry":{"type":"Point","coordinates":[-76.99303977622442,38.84027651513957]}},{"type":"Feature","properties":{"OBJECTID":74,"NAME":"Early Childhood Academy PCS","ADDRESS":"4025 9TH STREET SE","DIRECTOR":"Wendy Edwards","PHONE":"202-373-0035","AUTHORIZER":null,"GRADES":"PK-3-3","ENROLLMENT":0,"GIS_ID":"chrt_21","WEB_URL":"http://www.ecapcs.org","ADDRID":278471,"X":400822.11,"Y":129329.27,"AUTHORIZAT":0,"MYSCHOOL":"Y"},"geometry":{"type":"Point","coordinates":[-76.99053389248978,38.83175938238148]}},{"type":"Feature","properties":{"OBJECTID":75,"NAME":"Early Childhood Academy PCS - Walter Washington","ADDRESS":"4301 9TH STREET SE","DIRECTOR":"Wendy Edwards","PHONE":"202-373-0035","AUTHORIZER":null,"GRADES":"PK-3-3","ENROLLMENT":0,"GIS_ID":"chrt_22","WEB_URL":"http://www.ecapcs.org","ADDRID":298086,"X":400902.69,"Y":129245.01000000001,"AUTHORIZAT":0,"MYSCHOOL":"N"},"geometry":{"type":"Point","coordinates":[-76.98960594879642,38.83100025021847]}},{"type":"Feature","properties":{"OBJECTID":76,"NAME":"Elsie Whitlow Stokes Community Freedom PCS","ADDRESS":"3700 OAKVIEW TERRACE NE","DIRECTOR":"Linda Moore, Ed.D.","PHONE":"202-265-7237","AUTHORIZER":null,"GRADES":"PK-3-5","ENROLLMENT":0,"GIS_ID":"chrt_23","WEB_URL":"http://www.ewstokes.org","ADDRID":289754,"X":400859.44,"Y":140789.48,"AUTHORIZAT":0,"MYSCHOOL":"Y"},"geometry":{"type":"Point","coordinates":[-76.99008963035809,38.934997335851484]}},{"type":"Feature","properties":{"OBJECTID":77,"NAME":"Excel Academy PCS","ADDRESS":"2501 MARTIN LUTHER KING JR AVENUE SE","DIRECTOR":"Kaye Savage","PHONE":"202-373-0097","AUTHORIZER":null,"GRADES":"PK-3-7","ENROLLMENT":0,"GIS_ID":"chrt_24","WEB_URL":"http://www.excelpcs.org","ADDRID":278172,"X":400403.19,"Y":132438.56,"AUTHORIZAT":0,"MYSCHOOL":"Y"},"geometry":{"type":"Point","coordinates":[-76.99535684793933,38.85976953767945]}},{"type":"Feature","properties":{"OBJECTID":78,"NAME":"Friendship PCS - Blow-Pierce Elementary","ADDRESS":"725 19TH STREET NE","DIRECTOR":"Kimberly Campbell","PHONE":"202-572-1070","AUTHORIZER":null,"GRADES":"PK-3-3","ENROLLMENT":0,"GIS_ID":"chrt_25","WEB_URL":"http://www.friendshipschools.org/apps/pages/index.jsp?type=d&uREC_ID=211304&pREC_ID=469655","ADDRID":288919,"X":402040.17,"Y":136663.58000000002,"AUTHORIZAT":0,"MYSCHOOL":"Y"},"geometry":{"type":"Point","coordinates":[-76.97648352133622,38.89782790696176]}},{"type":"Feature","properties":{"OBJECTID":79,"NAME":"Friendship PCS – Chamberlain Elementary","ADDRESS":"1345 POTOMAC AVENUE SE","DIRECTOR":"Kimberly Campbell","PHONE":"202-547-5800","AUTHORIZER":null,"GRADES":"PK-3-3","ENROLLMENT":0,"GIS_ID":"chrt_26","WEB_URL":"http://www.friendshipschools.org/apps/pages/index.jsp?type=d&uREC_ID=211305&pREC_ID=469656","ADDRID":66334,"X":401145.15,"Y":134616.92,"AUTHORIZAT":0,"MYSCHOOL":"Y"},"geometry":{"type":"Point","coordinates":[-76.9868045821557,38.87939244049106]}},{"type":"Feature","properties":{"OBJECTID":80,"NAME":"Academy of Hope PCS - Northeast","ADDRESS":"601 EDGEWOOD STREET NE","DIRECTOR":"Lecester Johnson","PHONE":"202-269-6623","AUTHORIZER":null,"GRADES":"Adult/Voc Ed","ENROLLMENT":0,"GIS_ID":"chrt_28","WEB_URL":"http://www.aohdc.org","ADDRID":289571,"X":400216.99,"Y":139558.38,"AUTHORIZAT":0,"MYSCHOOL":"N"},"geometry":{"type":"Point","coordinates":[-76.99749994327286,38.923907596754255]}},{"type":"Feature","properties":{"OBJECTID":81,"NAME":"Academy of Hope PCS - Southeast","ADDRESS":"3700 9TH STREET SE","DIRECTOR":"Lecester Johnson","PHONE":"202-373-0246","AUTHORIZER":null,"GRADES":"Adult/Voc Ed","ENROLLMENT":0,"GIS_ID":"chrt_29","WEB_URL":"http://www.aohdc.org","ADDRID":278421,"X":400493.92,"Y":129785,"AUTHORIZAT":0,"MYSCHOOL":"N"},"geometry":{"type":"Point","coordinates":[-76.99431338816042,38.83586505363341]}},{"type":"Feature","properties":{"OBJECTID":82,"NAME":"Maya Angelou PCS - Young Adult Learning Center","ADDRESS":"5600 EAST CAPITOL STREET NE","DIRECTOR":"Sarah Navarro","PHONE":"202-289-8898","AUTHORIZER":null,"GRADES":"Adult/Voc Ed","ENROLLMENT":0,"GIS_ID":"chrt_30","WEB_URL":"http://www.seeforever.org/maya-angelou-public-charter-schools/young-adult-learning-center/","ADDRID":289793,"X":406885.34,"Y":135830.53,"AUTHORIZAT":0,"MYSCHOOL":"Y"},"geometry":{"type":"Point","coordinates":[-76.92063752276401,38.89029889194943]}},{"type":"Feature","properties":{"OBJECTID":83,"NAME":"Next Step PCS","ADDRESS":"1419 COLUMBIA ROAD NW","DIRECTOR":null,"PHONE":null,"AUTHORIZER":null,"GRADES":"GED, Adult/Voc Ed","ENROLLMENT":0,"GIS_ID":"chrt_31","WEB_URL":"http://www.nextsteppcs.org","ADDRID":234363,"X":397107.54000000004,"Y":139988.13,"AUTHORIZAT":0,"MYSCHOOL":"N"},"geometry":{"type":"Point","coordinates":[-77.03336011729702,38.92777418612019]}},{"type":"Feature","properties":{"OBJECTID":84,"NAME":"Friendship Online PCS","ADDRESS":"1351 NICHOLSON STREET NW","DIRECTOR":"Tracy Slone","PHONE":null,"AUTHORIZER":null,"GRADES":"PK-3-5","ENROLLMENT":0,"GIS_ID":"chrt_32","WEB_URL":"http://fpcso.k12.com/","ADDRID":257768,"X":397261.57,"Y":143623.99,"AUTHORIZAT":0,"MYSCHOOL":"Y"},"geometry":{"type":"Point","coordinates":[-77.03159825273141,38.96052754542865]}},{"type":"Feature","properties":{"OBJECTID":85,"NAME":"Achievement Prep PCS – Wahler Place Middle","ADDRESS":"908 WAHLER PLACE SE","DIRECTOR":"Susan Canon","PHONE":"202-562-1214","AUTHORIZER":null,"GRADES":"4-8","ENROLLMENT":0,"GIS_ID":"chrt_33","WEB_URL":"http://achievementprep.org","ADDRID":294502,"X":400671.25,"Y":129615.24,"AUTHORIZAT":0,"MYSCHOOL":"Y"},"geometry":{"type":"Point","coordinates":[-76.99227109512186,38.834335660255796]}},{"type":"Feature","properties":{"OBJECTID":86,"NAME":"Carlos Rosario International PCS - Northwest","ADDRESS":"1100 HARVARD STREET NW","DIRECTOR":"Ryan Monroe","PHONE":"202-797-4700","AUTHORIZER":null,"GRADES":"Adult/Voc Ed","ENROLLMENT":0,"GIS_ID":"chrt_34","WEB_URL":"http://www.carlosrosario.org","ADDRID":300733,"X":397610.44,"Y":139843.33000000002,"AUTHORIZAT":0,"MYSCHOOL":"N"},"geometry":{"type":"Point","coordinates":[-77.0275598258636,38.926471293813265]}},{"type":"Feature","properties":{"OBJECTID":87,"NAME":"YouthBuild PCS (LAYC)","ADDRESS":"3014 14TH STREET NW","DIRECTOR":"Arthur Dade","PHONE":"202-319-0141","AUTHORIZER":null,"GRADES":"Adult/Voc Ed","ENROLLMENT":0,"GIS_ID":"chrt_35","WEB_URL":"http://www.youthbuildpcs.org","ADDRID":302258,"X":397159.96,"Y":139985.56,"AUTHORIZAT":0,"MYSCHOOL":"N"},"geometry":{"type":"Point","coordinates":[-77.03275556332976,38.92775120576535]}},{"type":"Feature","properties":{"OBJECTID":88,"NAME":"LAYC Career Academy PCS","ADDRESS":"3047 15TH STREET NW","DIRECTOR":"Lori Kaplan","PHONE":"202-319-2228","AUTHORIZER":null,"GRADES":"Adult/Voc Ed","ENROLLMENT":0,"GIS_ID":"chrt_36","WEB_URL":"http://www.laycca.org","ADDRID":243343,"X":396892.23,"Y":140071.02,"AUTHORIZAT":0,"MYSCHOOL":"N"},"geometry":{"type":"Point","coordinates":[-77.03584359497178,38.92852014997735]}},{"type":"Feature","properties":{"OBJECTID":89,"NAME":"Carlos Rosario International PCS - Northeast","ADDRESS":"514 V STREET NE","DIRECTOR":"Jorge Delgado","PHONE":"202-734-4900","AUTHORIZER":null,"GRADES":"Adult/Voc Ed","ENROLLMENT":0,"GIS_ID":"chrt_37","WEB_URL":"http://www.carlosrosario.org","ADDRID":156315,"X":400103,"Y":138937.35,"AUTHORIZAT":0,"MYSCHOOL":"N"},"geometry":{"type":"Point","coordinates":[-76.99881457564132,38.91831317700176]}},{"type":"Feature","properties":{"OBJECTID":90,"NAME":"Paul Public Charter School – International High School","ADDRESS":"5800 8TH STREET NW","DIRECTOR":"Jami Dunham","PHONE":"202-291-7499","AUTHORIZER":null,"GRADES":"9-12","ENROLLMENT":0,"GIS_ID":"chrt_38","WEB_URL":"http://www.paulcharter.org","ADDRID":294613,"X":397857.27,"Y":143717.65,"AUTHORIZAT":0,"MYSCHOOL":"Y"},"geometry":{"type":"Point","coordinates":[-77.02472536789874,38.96137291428552]}},{"type":"Feature","properties":{"OBJECTID":91,"NAME":"E.L. Haynes PCS – Middle School","ADDRESS":"3600 GEORGIA AVENUE NW","DIRECTOR":null,"PHONE":"202-667-4446","AUTHORIZER":null,"GRADES":"5-8","ENROLLMENT":0,"GIS_ID":"chrt_39","WEB_URL":"http://www.elhaynes.org","ADDRID":306085,"X":397898.05,"Y":140715.53,"AUTHORIZAT":0,"MYSCHOOL":"Y"},"geometry":{"type":"Point","coordinates":[-77.0242456426601,38.93432907666289]}},{"type":"Feature","properties":{"OBJECTID":92,"NAME":"Briya PCS - Northwest","ADDRESS":"2333 ONTARIO ROAD NW","DIRECTOR":null,"PHONE":"202-232-7777","AUTHORIZER":null,"GRADES":"PK-3- Adult/Voc Ed","ENROLLMENT":0,"GIS_ID":"chrt_40","WEB_URL":"http://briya.org","ADDRID":284370,"X":396548.08,"Y":139234.16,"AUTHORIZAT":0,"MYSCHOOL":"N"},"geometry":{"type":"Point","coordinates":[-77.03980840090668,38.92098016369144]}},{"type":"Feature","properties":{"OBJECTID":93,"NAME":"Briya PCS - Northwest","ADDRESS":"1755 NEWTON STREET NW","DIRECTOR":null,"PHONE":"202-797-7337","AUTHORIZER":null,"GRADES":"PK-3 Adult/Voc Ed","ENROLLMENT":0,"GIS_ID":"chrt_41","WEB_URL":"http://briya.org","ADDRID":294528,"X":396483.93,"Y":140715.67,"AUTHORIZAT":0,"MYSCHOOL":"N"},"geometry":{"type":"Point","coordinates":[-77.04055574230114,38.93432581619343]}},{"type":"Feature","properties":{"OBJECTID":94,"NAME":"Briya PCS","ADDRESS":"3912 GEORGIA AVENUE NW","DIRECTOR":null,"PHONE":"202-545-2020","AUTHORIZER":null,"GRADES":"PK-3 Adult/Voc Ed","ENROLLMENT":0,"GIS_ID":"chrt_42","WEB_URL":"http://briya.org","ADDRID":224825,"X":397823.06,"Y":141262.62,"AUTHORIZAT":0,"MYSCHOOL":"N"},"geometry":{"type":"Point","coordinates":[-77.02511229415842,38.939257244181114]}},{"type":"Feature","properties":{"OBJECTID":95,"NAME":"KIPP DC – Promise Academy PCS","ADDRESS":"4801 BENNING ROAD SE","DIRECTOR":"Susan Schaeffler","PHONE":"202-582-1390","AUTHORIZER":null,"GRADES":"1-4","ENROLLMENT":0,"GIS_ID":"chrt_61","WEB_URL":"http://www.kippdc.org/our-schools/kipp-dc-promise-academy/","ADDRID":17421,"X":405692.28,"Y":134978.83000000002,"AUTHORIZAT":0,"MYSCHOOL":"Y"},"geometry":{"type":"Point","coordinates":[-76.93439653242692,38.8826349887968]}},{"type":"Feature","properties":{"OBJECTID":96,"NAME":"KIPP DC – WILL Academy PCS","ADDRESS":"421 P STREET NW","DIRECTOR":"Susan Schaeffler","PHONE":"202-328-9455","AUTHORIZER":null,"GRADES":"5-8","ENROLLMENT":0,"GIS_ID":"chrt_62","WEB_URL":"http://www.kippdc.org/our-schools/kipp-dc-will-academy/","ADDRID":294487,"X":398428.65,"Y":138002.89,"AUTHORIZAT":0,"MYSCHOOL":"Y"},"geometry":{"type":"Point","coordinates":[-77.01811962654844,38.9098938468423]}},{"type":"Feature","properties":{"OBJECTID":97,"NAME":"KIPP DC – Connect Academy PCS","ADDRESS":"1375 MOUNT OLIVET ROAD NE","DIRECTOR":null,"PHONE":"202-265-5477","AUTHORIZER":null,"GRADES":"PK-3-K","ENROLLMENT":0,"GIS_ID":"chrt_63","WEB_URL":"http://www.kippdc.org/our-schools/kipp-dc-connect-academy/","ADDRID":286108,"X":401636.15,"Y":137801.71,"AUTHORIZAT":0,"MYSCHOOL":"Y"},"geometry":{"type":"Point","coordinates":[-76.98113829028553,38.90808143103589]}},{"type":"Feature","properties":{"OBJECTID":98,"NAME":"KIPP DC – Spring Academy PCS","ADDRESS":"1375 MOUNT OLIVET ROAD NE","DIRECTOR":null,"PHONE":"202-265-5477","AUTHORIZER":null,"GRADES":"1-2","ENROLLMENT":0,"GIS_ID":"chrt_64","WEB_URL":"http://www.kippdc.org/our-schools/kipp-dc-spring-academy/","ADDRID":286108,"X":401636.15,"Y":137801.71,"AUTHORIZAT":0,"MYSCHOOL":"Y"},"geometry":{"type":"Point","coordinates":[-76.98113829028553,38.90808143103589]}},{"type":"Feature","properties":{"OBJECTID":99,"NAME":"Latin American Montessori Bilingual (LAMB) PCS","ADDRESS":"1600 TAYLOR STREET NE","DIRECTOR":"Diane  Cottman","PHONE":"202-726-6200","AUTHORIZER":null,"GRADES":"PK-3-","ENROLLMENT":0,"GIS_ID":"chrt_65","WEB_URL":"http://www.lambpcs.org","ADDRID":286330,"X":401542.99,"Y":141454.77,"AUTHORIZAT":0,"MYSCHOOL":"N"},"geometry":{"type":"Point","coordinates":[-76.98220416906881,38.94098953142058]}},{"type":"Feature","properties":{"OBJECTID":100,"NAME":"Latin American Montessori Bilingual (LAMB) PCS","ADDRESS":"1375 MISSOURI AVENUE NW","DIRECTOR":"Diane  Cottman","PHONE":"202-726-6200","AUTHORIZER":null,"GRADES":"PK-3-5","ENROLLMENT":0,"GIS_ID":"chrt_66","WEB_URL":"http://www.lambpcs.org","ADDRID":284010,"X":397192.03,"Y":143806.16,"AUTHORIZAT":0,"MYSCHOOL":"N"},"geometry":{"type":"Point","coordinates":[-77.0324013502465,38.96216835974844]}},{"type":"Feature","properties":{"OBJECTID":101,"NAME":"Mary McLeod Bethune Day Academy PCS","ADDRESS":"1404 JACKSON STREET NE","DIRECTOR":"Linda McKay","PHONE":"202-459-4710 ext. 600","AUTHORIZER":null,"GRADES":"PK-3-8","ENROLLMENT":0,"GIS_ID":"chrt_67","WEB_URL":"http://www.mmbethune.org","ADDRID":294522,"X":401138.94,"Y":140191.85,"AUTHORIZAT":0,"MYSCHOOL":"N"},"geometry":{"type":"Point","coordinates":[-76.98686690974924,38.929613383816886]}},{"type":"Feature","properties":{"OBJECTID":102,"NAME":"Maya Angelou PCS – High School","ADDRESS":"5600 EAST CAPITOL STREET NE","DIRECTOR":"Heather Wathington, Ph.D.","PHONE":"202-379-4335","AUTHORIZER":null,"GRADES":"9-12","ENROLLMENT":0,"GIS_ID":"chrt_68","WEB_URL":"http://www.seeforever.org","ADDRID":289793,"X":406885.34,"Y":135830.53,"AUTHORIZAT":0,"MYSCHOOL":"Y"},"geometry":{"type":"Point","coordinates":[-76.92063752276401,38.89029889194943]}},{"type":"Feature","properties":{"OBJECTID":103,"NAME":"Meridian Public Charter School - Elementary School","ADDRESS":"2120 13TH STREET NW","DIRECTOR":"Kimberly Moore","PHONE":"202-387-9830","AUTHORIZER":null,"GRADES":"PK-3-5","ENROLLMENT":0,"GIS_ID":"chrt_69","WEB_URL":"http://www.meridian-dc.org","ADDRID":310205,"X":397402.4,"Y":138987.03,"AUTHORIZAT":0,"MYSCHOOL":"Y"},"geometry":{"type":"Point","coordinates":[-77.02995580104209,38.918756876705906]}},{"type":"Feature","properties":{"OBJECTID":104,"NAME":"Mundo Verde Bilingual PCS","ADDRESS":"30 P STREET NW","DIRECTOR":"Kristin Scotchmer","PHONE":"202-630-8373","AUTHORIZER":null,"GRADES":"PK-3-4","ENROLLMENT":0,"GIS_ID":"chrt_70","WEB_URL":"http://www.mundoverdepcs.org","ADDRID":301528,"X":399105.74,"Y":137949.35,"AUTHORIZAT":0,"MYSCHOOL":"Y"},"geometry":{"type":"Point","coordinates":[-77.0103128484089,38.909412490077415]}},{"type":"Feature","properties":{"OBJECTID":105,"NAME":"National Collegiate Preparatory Public Charter High School","ADDRESS":"4600 LIVINGSTON ROAD SE","DIRECTOR":"Jennifer L. Ross","PHONE":"202-832-7737","AUTHORIZER":null,"GRADES":"9-12","ENROLLMENT":0,"GIS_ID":"chrt_71","WEB_URL":"http://www.nationalprepdc.org","ADDRID":294600,"X":399731.95,"Y":128458.05,"AUTHORIZAT":0,"MYSCHOOL":"Y"},"geometry":{"type":"Point","coordinates":[-77.00308911908458,38.823911366299264]}},{"type":"Feature","properties":{"OBJECTID":106,"NAME":"Options PCS Academy- Middle School","ADDRESS":"702 15TH STREET NE","DIRECTOR":"Donna Montgomery, Ed.D.","PHONE":"202-232-4627","AUTHORIZER":null,"GRADES":"6-1","ENROLLMENT":0,"GIS_ID":"chrt_72","WEB_URL":"http://www.optionsschool.org","ADDRID":56,"X":401391.3,"Y":136810.44,"AUTHORIZAT":0,"MYSCHOOL":"N"},"geometry":{"type":"Point","coordinates":[-76.9839632960975,38.89915214125583]}},{"type":"Feature","properties":{"OBJECTID":107,"NAME":"Options PCS","ADDRESS":"1375 E STREET NE","DIRECTOR":"Donna Montgomery, Ed.D.","PHONE":"202-547-1028","AUTHORIZER":null,"GRADES":"6-12","ENROLLMENT":0,"GIS_ID":"chrt_73","WEB_URL":"http://www.optionsschool.org","ADDRID":286107,"X":401195.97000000003,"Y":136444.7,"AUTHORIZAT":0,"MYSCHOOL":"Y"},"geometry":{"type":"Point","coordinates":[-76.98621570821963,38.895857709500014]}},{"type":"Feature","properties":{"OBJECTID":108,"NAME":"Paul Public Charter School – Middle School","ADDRESS":"5800 8TH STREET NW","DIRECTOR":"Jami Dunham","PHONE":"202-291-7499","AUTHORIZER":null,"GRADES":"6-8","ENROLLMENT":0,"GIS_ID":"chrt_74","WEB_URL":"http://www.paulcharter.org","ADDRID":294613,"X":397857.27,"Y":143717.65,"AUTHORIZAT":0,"MYSCHOOL":"Y"},"geometry":{"type":"Point","coordinates":[-77.02472536789874,38.96137291428552]}},{"type":"Feature","properties":{"OBJECTID":109,"NAME":"Perry Street Preparatory PCS","ADDRESS":"1800 PERRY STREET NE","DIRECTOR":"Shadwick Jenkins","PHONE":"202-529-4400","AUTHORIZER":null,"GRADES":"PK-3-8","ENROLLMENT":0,"GIS_ID":"chrt_75","WEB_URL":"http://www.pspdc.org","ADDRID":294529,"X":401855.75,"Y":140990.2,"AUTHORIZAT":0,"MYSCHOOL":"Y"},"geometry":{"type":"Point","coordinates":[-76.9785977940712,38.93680394287589]}},{"type":"Feature","properties":{"OBJECTID":110,"NAME":"Potomac Preparatory PCS","ADDRESS":"4401 8TH STREET NE","DIRECTOR":"Mike Ronan","PHONE":"202-526-6003","AUTHORIZER":null,"GRADES":"PK-3-8","ENROLLMENT":0,"GIS_ID":"chrt_76","WEB_URL":"http://www.lighthouse-academies.org","ADDRID":22543,"X":400474.03,"Y":141675.39,"AUTHORIZAT":0,"MYSCHOOL":"Y"},"geometry":{"type":"Point","coordinates":[-76.99453428139174,38.942978167023355]}},{"type":"Feature","properties":{"OBJECTID":111,"NAME":"Richard Wright PCS for Journalism and Media Arts","ADDRESS":"770 M STREET SE","DIRECTOR":"Marco Clark, Ph.D.","PHONE":"202-388-1011","AUTHORIZER":null,"GRADES":"8-12","ENROLLMENT":0,"GIS_ID":"chrt_77","WEB_URL":"http://www.richardwrightpcs.org","ADDRID":288946,"X":400383.82,"Y":134351.84,"AUTHORIZAT":0,"MYSCHOOL":"Y"},"geometry":{"type":"Point","coordinates":[-76.99557895612689,38.877005156795114]}},{"type":"Feature","properties":{"OBJECTID":112,"NAME":"Roots PCS","ADDRESS":"15 KENNEDY STREET NW","DIRECTOR":"Bernida Thompson, Ed.D.","PHONE":"202-882-8073","AUTHORIZER":null,"GRADES":"PK-3-8","ENROLLMENT":0,"GIS_ID":"chrt_78","WEB_URL":"http://www.rootspcs.org","ADDRID":259404,"X":399106.42,"Y":143217.68,"AUTHORIZAT":0,"MYSCHOOL":"Y"},"geometry":{"type":"Point","coordinates":[-77.01031187098447,38.956871214237836]}},{"type":"Feature","properties":{"OBJECTID":113,"NAME":"Two Rivers PCS at 4th Street","ADDRESS":"1227 4TH STREET NE","DIRECTOR":"Jessica Wodatch","PHONE":"202-543-8477","AUTHORIZER":null,"GRADES":"PK-3-8","ENROLLMENT":0,"GIS_ID":"chrt_80","WEB_URL":"http://www.tworiverspcs.org","ADDRID":70272,"X":399974.01,"Y":137654.97,"AUTHORIZAT":0,"MYSCHOOL":"Y"},"geometry":{"type":"Point","coordinates":[-77.00030193014274,38.90676106776143]}},{"type":"Feature","properties":{"OBJECTID":114,"NAME":"Washington Latin PCS – Middle School","ADDRESS":"5200 2ND STREET NW","DIRECTOR":"Martha Cutts","PHONE":"202-223-1111","AUTHORIZER":null,"GRADES":"5-8","ENROLLMENT":0,"GIS_ID":"chrt_81","WEB_URL":"http://www.latinpcs.org","ADDRID":294608,"X":398802.19,"Y":142887.49,"AUTHORIZAT":0,"MYSCHOOL":"Y"},"geometry":{"type":"Point","coordinates":[-77.01382131526422,38.953896412358944]}},{"type":"Feature","properties":{"OBJECTID":115,"NAME":"Washington Latin PCS – Upper School","ADDRESS":"5200 2ND STREET NW","DIRECTOR":"Martha Cutts","PHONE":"202-541-1591","AUTHORIZER":null,"GRADES":"9-12","ENROLLMENT":0,"GIS_ID":"chrt_82","WEB_URL":"http://www.latinpcs.org","ADDRID":294608,"X":398802.19,"Y":142887.49,"AUTHORIZAT":0,"MYSCHOOL":"Y"},"geometry":{"type":"Point","coordinates":[-77.01382131526422,38.953896412358944]}},{"type":"Feature","properties":{"OBJECTID":116,"NAME":"Washington Yu Ying PCS","ADDRESS":"220 TAYLOR STREET NE","DIRECTOR":"Maquita Alexander","PHONE":"202-635-1950","AUTHORIZER":null,"GRADES":"PK-3-5","ENROLLMENT":0,"GIS_ID":"chrt_84","WEB_URL":"http://www.washingtonyuying.org","ADDRID":50738,"X":399680.78,"Y":141482.69,"AUTHORIZAT":0,"MYSCHOOL":"Y"},"geometry":{"type":"Point","coordinates":[-77.00368444537906,38.94124233910867]}},{"type":"Feature","properties":{"OBJECTID":117,"NAME":"William E. Doar, Jr. PCS for the Performing Arts","ADDRESS":"705 EDGEWOOD STREET NE","DIRECTOR":null,"PHONE":"202-269-4646","AUTHORIZER":null,"GRADES":"PK-3-8","ENROLLMENT":0,"GIS_ID":"chrt_85","WEB_URL":"http://www.wedjschool.us","ADDRID":289576,"X":400359.57,"Y":139530.04,"AUTHORIZAT":0,"MYSCHOOL":"Y"},"geometry":{"type":"Point","coordinates":[-76.99585571697288,38.923652254220116]}},{"type":"Feature","properties":{"OBJECTID":118,"NAME":"Roots PCS","ADDRESS":"6222 NORTH CAPITOL STREET NW","DIRECTOR":"Bernida Thompson, Ed.D.","PHONE":"202-882-8073","AUTHORIZER":null,"GRADES":"6-8","ENROLLMENT":0,"GIS_ID":"chrt_86","WEB_URL":"http://www.rootspcs.org","ADDRID":277484,"X":399182.01,"Y":144257.74,"AUTHORIZAT":0,"MYSCHOOL":"N"},"geometry":{"type":"Point","coordinates":[-77.00944100068811,38.9662404143586]}},{"type":"Feature","properties":{"OBJECTID":119,"NAME":"SEED PCS","ADDRESS":"4300 C STREET SE","DIRECTOR":"Charles Adams","PHONE":"202-248-7773","AUTHORIZER":null,"GRADES":"6-12","ENROLLMENT":0,"GIS_ID":"chrt_87","WEB_URL":"http://www.seedschooldc.org","ADDRID":288154,"X":404658.72000000003,"Y":135477.99,"AUTHORIZAT":0,"MYSCHOOL":"N"},"geometry":{"type":"Point","coordinates":[-76.94630532830557,38.88713769650631]}},{"type":"Feature","properties":{"OBJECTID":120,"NAME":"Sela PCS","ADDRESS":"6015 CHILLUM PLACE NE","DIRECTOR":null,"PHONE":"202-905-3012","AUTHORIZER":null,"GRADES":"PK-3-3","ENROLLMENT":0,"GIS_ID":"chrt_88","WEB_URL":"http://www.selapcs.org","ADDRID":288763,"X":399361.73,"Y":143995.95,"AUTHORIZAT":0,"MYSCHOOL":"Y"},"geometry":{"type":"Point","coordinates":[-77.00736698392394,38.96388229380773]}},{"type":"Feature","properties":{"OBJECTID":121,"NAME":"Shining Stars Montessori Academy PCS","ADDRESS":"6015 CHILLUM PLACE NE","DIRECTOR":"Ayize Sabater","PHONE":"202-319-2307","AUTHORIZER":null,"GRADES":"PK-3-4","ENROLLMENT":0,"GIS_ID":"chrt_89","WEB_URL":"http://shiningstarsdc.org","ADDRID":240295,"X":399361.73,"Y":143995.95,"AUTHORIZAT":0,"MYSCHOOL":"Y"},"geometry":{"type":"Point","coordinates":[-77.00736698392394,38.96388229380773]}},{"type":"Feature","properties":{"OBJECTID":122,"NAME":"Somerset Preparatory Academy PCS","ADDRESS":"3301 WHEELER ROAD SE","DIRECTOR":null,"PHONE":"301-775-0537","AUTHORIZER":null,"GRADES":"6-10","ENROLLMENT":0,"GIS_ID":"chrt_90","WEB_URL":"http://www.somersetdc.com","ADDRID":294563,"X":400512.16000000003,"Y":130413.48,"AUTHORIZAT":0,"MYSCHOOL":"Y"},"geometry":{"type":"Point","coordinates":[-76.99410283530884,38.84152667639648]}},{"type":"Feature","properties":{"OBJECTID":123,"NAME":"Breakthrough Montessori PCS","ADDRESS":"1246 TAYLOR STREET NW","DIRECTOR":"Edwin Strickland","PHONE":"202-810-5603","AUTHORIZER":null,"GRADES":"PK-3-8","ENROLLMENT":0,"GIS_ID":"chrt_135","WEB_URL":"http://www.breakthroughmontessori.org/","ADDRID":224851,"X":397534.89,"Y":141419.28,"AUTHORIZAT":0,"MYSCHOOL":"Y"},"geometry":{"type":"Point","coordinates":[-77.02843676616644,38.940667721968516]}},{"type":"Feature","properties":{"OBJECTID":124,"NAME":"KIPP DC – Heights Academy PCS","ADDRESS":"2600 DOUGLASS ROAD SE","DIRECTOR":"Susan Schaeffler","PHONE":"202-610-5323","AUTHORIZER":null,"GRADES":"1-4","ENROLLMENT":0,"GIS_ID":"chrt_57","WEB_URL":"http://www.kippdc.org/our-schools/kipp-dc-heights-academy/","ADDRID":311456,"X":401037.32,"Y":132090.08000000002,"AUTHORIZAT":0,"MYSCHOOL":"Y"},"geometry":{"type":"Point","coordinates":[-76.98805111951874,38.85662976262273]}},{"type":"Feature","properties":{"OBJECTID":125,"NAME":"KIPP DC – Quest Academy PCS","ADDRESS":"5300 BLAINE STREET NE","DIRECTOR":"Cherese Brauer","PHONE":null,"AUTHORIZER":null,"GRADES":"1-4","ENROLLMENT":0,"GIS_ID":"chrt_123","WEB_URL":"http://www.kippdc.org/our-schools/kipp-dc-quest-academy/","ADDRID":304054,"X":406537.33,"Y":136014.15,"AUTHORIZAT":0,"MYSCHOOL":"Y"},"geometry":{"type":"Point","coordinates":[-76.92464715607197,38.891955665605316]}},{"type":"Feature","properties":{"OBJECTID":126,"NAME":"Center City PCS – Congress Heights","ADDRESS":"220 HIGHVIEW PLACE SE","DIRECTOR":"Russ Williams","PHONE":"202-562-7070","AUTHORIZER":null,"GRADES":"PK-4-8","ENROLLMENT":0,"GIS_ID":"chrt_114","WEB_URL":"http://www.centercitypcs.org/campuses/congress-heights/","ADDRID":303702,"X":399614.14,"Y":130420.96,"AUTHORIZAT":0,"MYSCHOOL":"Y"},"geometry":{"type":"Point","coordinates":[-77.00444691030762,38.841594123678135]}},{"type":"Feature","properties":{"OBJECTID":127,"NAME":"DC Prep PCS – Anacostia Elementary","ADDRESS":"1102 W STREET SE","DIRECTOR":" ","PHONE":" ","AUTHORIZER":" ","GRADES":"PK-3-4","ENROLLMENT":0,"GIS_ID":"chrt_125","WEB_URL":"http://www.dcprep.org/Anacostia_Elementary_Campus","ADDRID":312647,"X":400787.60000000003,"Y":133103.42,"AUTHORIZAT":0,"MYSCHOOL":"Y"},"geometry":{"type":"Point","coordinates":[-76.99092703112204,38.865758614689334]}},{"type":"Feature","properties":{"OBJECTID":128,"NAME":"Eagle Academy PCS – Capitol Riverfront","ADDRESS":"1017 NEW JERSEY AVENUE SE","DIRECTOR":"Cassandra S. Pinkney","PHONE":"202-459-6825","AUTHORIZER":null,"GRADES":"PK-3-1","ENROLLMENT":0,"GIS_ID":"chrt_19","WEB_URL":"http://www.eagleacademypcs.org/apps/pages/index.jsp?type=d&uREC_ID=258658&pREC_ID=588576","ADDRID":276169,"X":399558.98,"Y":134445.1,"AUTHORIZAT":0,"MYSCHOOL":"Y"},"geometry":{"type":"Point","coordinates":[-77.00508486830232,38.87784525262434]}},{"type":"Feature","properties":{"OBJECTID":129,"NAME":"Friendship PCS – Collegiate Academy","ADDRESS":"4095 MINNESOTA AVENUE NE","DIRECTOR":"Kimberly Campbell","PHONE":"202-396-5500","AUTHORIZER":null,"GRADES":"9-12","ENROLLMENT":0,"GIS_ID":"chrt_27","WEB_URL":"http://www.friendshipschools.org/apps/pages/index.jsp?type=d&uREC_ID=211306&pREC_ID=469657","ADDRID":288100,"X":404654.26,"Y":136634.64,"AUTHORIZAT":0,"MYSCHOOL":"Y"},"geometry":{"type":"Point","coordinates":[-76.94634889992794,38.89755725243379]}},{"type":"Feature","properties":{"OBJECTID":130,"NAME":"Friendship PCS – Technology Preparatory Middle School Academy","ADDRESS":"2705 MARTIN LUTHER KING JR AVENUE SE","DIRECTOR":"Kimberly Campbell","PHONE":"202-562-1681","AUTHORIZER":null,"GRADES":"6-8","ENROLLMENT":0,"GIS_ID":"chrt_47","WEB_URL":"http://www.friendshipschools.org/apps/pages/index.jsp?type=d&uREC_ID=211308&pREC_ID=469660","ADDRID":289904,"X":400331.09,"Y":131166.09,"AUTHORIZAT":0,"MYSCHOOL":"Y"},"geometry":{"type":"Point","coordinates":[-76.99618817416676,38.84830660888015]}},{"type":"Feature","properties":{"OBJECTID":131,"NAME":"Washington Leadership Academy PCS","ADDRESS":"3015 4TH STREET NE","DIRECTOR":null,"PHONE":"240-580-3371","AUTHORIZER":null,"GRADES":null,"ENROLLMENT":null,"GIS_ID":"chrt_136","WEB_URL":"http://washingtonleadershipacademy.org/","ADDRID":289740,"X":400115.34,"Y":139998.5,"AUTHORIZAT":null,"MYSCHOOL":"Y"},"geometry":{"type":"Point","coordinates":[-76.9986720984239,38.927872368496615]}}]}