{"type":"FeatureCollection","features":[{"type":"Feature","properties":{"OBJECTID":1,"ADDRESS_ID":278359,"CITY":"WASHINGTON","STATE":"DC","NAME":"Universal Healthcare Management","ADDRESS":"3230 Pennsylvania Ave., SE","XCOORD":"403509.810000002","YCOORD":"133533.180000003","ZIP":"20020"},"geometry":{"type":"Point","coordinates":[-76.95955772821335,38.869623419237904]}},{"type":"Feature","properties":{"OBJECTID":2,"ADDRESS_ID":240262,"CITY":"WASHINGTON","STATE":"DC","NAME":"First Home Care Corporation","ADDRESS":"1012 14th St., NW","XCOORD":"397190.060500003","YCOORD":"137260.449999999","ZIP":"20005"},"geometry":{"type":"Point","coordinates":[-77.0323972697698,38.903202600512174]}},{"type":"Feature","properties":{"OBJECTID":3,"ADDRESS_ID":155959,"CITY":"WASHINGTON","STATE":"DC","NAME":"MBI","ADDRESS":"4130 Hunt Place, NE","XCOORD":"404952.889500007","YCOORD":"136986.219999999","ZIP":"20019"},"geometry":{"type":"Point","coordinates":[-76.94290382451359,38.900722779917494]}},{"type":"Feature","properties":{"OBJECTID":4,"ADDRESS_ID":285425,"CITY":"WASHINGTON","STATE":"DC","NAME":"API Associates","ADDRESS":"7826 Eastern Ave., N.W.","XCOORD":"397620.740500018","YCOORD":"146329.199999996","ZIP":"20012"},"geometry":{"type":"Point","coordinates":[-77.027463539832,38.98489776003987]}},{"type":"Feature","properties":{"OBJECTID":5,"ADDRESS_ID":284370,"CITY":"WASHINGTON","STATE":"DC","NAME":"Maryâ€™s Center","ADDRESS":"2333 Ontario Rd., NW","XCOORD":"396548.080499999","YCOORD":"139234.159999996","ZIP":"20009"},"geometry":{"type":"Point","coordinates":[-77.03980839514088,38.92098016369339]}},{"type":"Feature","properties":{"OBJECTID":6,"ADDRESS_ID":225609,"CITY":"WASHINGTON","STATE":"DC","NAME":"Family Matters of Greater Washington","ADDRESS":"1509 16th St., NW","XCOORD":"396871.830500014","YCOORD":"138012.73","ZIP":"20036"},"geometry":{"type":"Point","coordinates":[-77.03606947870382,38.90997832617661]}},{"type":"Feature","properties":{"OBJECTID":7,"ADDRESS_ID":48854,"CITY":"WASHINGTON","STATE":"DC","NAME":"Inner City Family Services","ADDRESS":"2307 Martin Luther King Ave. SE","XCOORD":"400733.820500001","YCOORD":"132836.740000002","ZIP":"20020"},"geometry":{"type":"Point","coordinates":[-76.99154699870509,38.86335629688184]}},{"type":"Feature","properties":{"OBJECTID":8,"ADDRESS_ID":55416,"CITY":"WASHINGTON","STATE":"DC","NAME":"Life Enhancement Services","ADDRESS":"1818 New York Ave., NE ","XCOORD":"402020.9705","YCOORD":"138872.090000004","ZIP":"20002"},"geometry":{"type":"Point","coordinates":[-76.97669835217813,38.91772297645663]}},{"type":"Feature","properties":{"OBJECTID":9,"ADDRESS_ID":287960,"CITY":"WASHINGTON","STATE":"DC","NAME":"Mental Health Services Division","ADDRESS":"35 K St., NE","XCOORD":"399393.3605","YCOORD":"137139.190000005","ZIP":"20002"},"geometry":{"type":"Point","coordinates":[-77.00699594953565,38.902114530201054]}},{"type":"Feature","properties":{"OBJECTID":10,"ADDRESS_ID":150695,"CITY":"WASHINGTON","STATE":"DC","NAME":"Family Preservation","ADDRESS":"3341 Benning Rd. NE","XCOORD":"403502.389500007","YCOORD":"136505.469999999","ZIP":"20019"},"geometry":{"type":"Point","coordinates":[-76.95962809039735,38.89639898546786]}},{"type":"Feature","properties":{"OBJECTID":11,"ADDRESS_ID":280150,"CITY":"WASHINGTON","STATE":"DC","NAME":"Community Connections, Inc.","ADDRESS":"801 Pa. Ave. SE","XCOORD":"400473.970500007","YCOORD":"135089.140000004","ZIP":"20003"},"geometry":{"type":"Point","coordinates":[-76.9945395104107,38.88364699990264]}},{"type":"Feature","properties":{"OBJECTID":12,"ADDRESS_ID":288946,"CITY":"WASHINGTON","STATE":"DC","NAME":"PSI","ADDRESS":"770 M St., SE","XCOORD":"400383.820500009","YCOORD":"134351.840000004","ZIP":"20003"},"geometry":{"type":"Point","coordinates":[-76.99557895036455,38.877005156794944]}},{"type":"Feature","properties":{"OBJECTID":13,"ADDRESS_ID":145396,"CITY":"WASHINGTON","STATE":"DC","NAME":"Family Wellness","ADDRESS":"2526 Penn Ave SE","XCOORD":"402671.440499999","YCOORD":"133940.800000004","ZIP":"20020"},"geometry":{"type":"Point","coordinates":[-76.96921691725301,38.87329837119362]}},{"type":"Feature","properties":{"OBJECTID":14,"ADDRESS_ID":254165,"CITY":"WASHINGTON","STATE":"DC","NAME":"Contemporary Family Services, Inc,","ADDRESS":"6323 Georgia Ave. NW","XCOORD":"397654.8605","YCOORD":"144333.640000001","ZIP":"20011"},"geometry":{"type":"Point","coordinates":[-77.0270629004895,38.966921389444764]}},{"type":"Feature","properties":{"OBJECTID":15,"ADDRESS_ID":239706,"CITY":"WASHINGTON","STATE":"DC","NAME":"Hillcrest Children & Family Center","ADDRESS":"915 Rhode Island Ave ., NW","XCOORD":"397855.560500003","YCOORD":"138201.030000001","ZIP":"20001"},"geometry":{"type":"Point","coordinates":[-77.02472784923874,38.91167754814166]}},{"type":"Feature","properties":{"OBJECTID":16,"ADDRESS_ID":287362,"CITY":"WASHINGTON","STATE":"DC","NAME":"Affordable Behavioral Consultants","ADDRESS":"3005 Bladensburg Rd, NE            ","XCOORD":"403531.770500019","YCOORD":"140110.399999999","ZIP":"20018"},"geometry":{"type":"Point","coordinates":[-76.95927085790274,38.92887329825343]}},{"type":"Feature","properties":{"OBJECTID":17,"ADDRESS_ID":234363,"CITY":"WASHINGTON","STATE":"DC","NAME":"Latin American Youth Center","ADDRESS":"1419 Columbia Rd., NW","XCOORD":"397107.5405","YCOORD":"139988.130000003","ZIP":"20009"},"geometry":{"type":"Point","coordinates":[-77.03336011153067,38.92777418612183]}},{"type":"Feature","properties":{"OBJECTID":18,"ADDRESS_ID":287806,"CITY":"WASHINGTON","STATE":"DC","NAME":"Contemporary Family Services, Inc,","ADDRESS":"3300 Pennsylvania Ave., S.E.       ","XCOORD":"403632.160000004","YCOORD":"133427.489999998","ZIP":"20020"},"geometry":{"type":"Point","coordinates":[-76.95814841237232,38.868670823846486]}},{"type":"Feature","properties":{"OBJECTID":19,"ADDRESS_ID":287362,"CITY":"WASHINGTON","STATE":"DC","NAME":"Life Stride, Inc","ADDRESS":"3005 Bladensburg Rd, NE            ","XCOORD":"403531.770500019","YCOORD":"140110.399999999","ZIP":"20018"},"geometry":{"type":"Point","coordinates":[-76.95927085790274,38.92887329825343]}},{"type":"Feature","properties":{"OBJECTID":20,"ADDRESS_ID":null,"CITY":"Upper Marlboro","STATE":"MD","NAME":"Affordable Behavioral Consultants","ADDRESS":"1400 Mercantile Lane Suite 206","XCOORD":"414020.569157876","YCOORD":"137942.529778328","ZIP":"20774"},"geometry":{"type":"Point","coordinates":[-76.83834940373262,38.90923968514567]}},{"type":"Feature","properties":{"OBJECTID":21,"ADDRESS_ID":null,"CITY":"Oxon Hill","STATE":"MD","NAME":"MD/DC Family Resource","ADDRESS":"6192 Oxon Hill Road","XCOORD":"401571.837897785","YCOORD":"126206.036861081","ZIP":"20745"},"geometry":{"type":"Point","coordinates":[-76.98190627204076,38.80362276848683]}},{"type":"Feature","properties":{"OBJECTID":22,"ADDRESS_ID":null,"CITY":"Landover","STATE":"MD","NAME":"MD/DC Family Resource","ADDRESS":"903 Brightseat Rd","XCOORD":"412781.578305066","YCOORD":"137226.044483185","ZIP":"20785"},"geometry":{"type":"Point","coordinates":[-76.85264789779883,38.902804233316694]}},{"type":"Feature","properties":{"OBJECTID":23,"ADDRESS_ID":null,"CITY":"Upper Marlboro","STATE":"MD","NAME":"Outreach Solutions","ADDRESS":"14760 Main St.","XCOORD":"421745.372395478","YCOORD":"127758.822179984","ZIP":"20772"},"geometry":{"type":"Point","coordinates":[-76.74960720051574,38.81734377985443]}}]}