{"type":"FeatureCollection","features":[{"type":"Feature","properties":{"OBJECTID":1,"NAME":"2 New Heights Child Development Center","TYPE":"CDC (Child Development Center)","ADDRESS":"4124 3RD STREET NW","XCOORD":398645.03,"YCOORD":141556.1,"WARD":"Ward 4","ZIPCODE":"20011","ADDRID":244152},"geometry":{"type":"Point","coordinates":[-77.01563182575654,38.94190265039498]}},{"type":"Feature","properties":{"OBJECTID":2,"NAME":"A Plus Child Care Development Center","TYPE":"CDC (Child Development Center)","ADDRESS":"1605 MONTELLO AVENUE NE","XCOORD":401142.8,"YCOORD":137703.2,"WARD":"Ward 5","ZIPCODE":"20002","ADDRID":150075},"geometry":{"type":"Point","coordinates":[-76.98682653358681,38.90719479839417]}},{"type":"Feature","properties":{"OBJECTID":3,"NAME":"Abc Child Development Center","TYPE":"CDC (Child Development Center)","ADDRESS":"32 GRANT CIRCLE NW","XCOORD":398259.78,"YCOORD":141645.12,"WARD":"Ward 4","ZIPCODE":"20011","ADDRID":247538},"geometry":{"type":"Point","coordinates":[-77.02007589905135,38.942703889503434]}},{"type":"Feature","properties":{"OBJECTID":4,"NAME":"Ada Masin Guzman","TYPE":"CDH (Child Development Home)","ADDRESS":"305 HAMILTON STREET NW","XCOORD":398570.32,"YCOORD":142834.96,"WARD":"Ward 4","ZIPCODE":"20011","ADDRID":243700},"geometry":{"type":"Point","coordinates":[-77.01649626944393,38.953422861063096]}},{"type":"Feature","properties":{"OBJECTID":5,"NAME":"Adas Israel Congregation","TYPE":"CDC (Child Development Center)","ADDRESS":"2850 QUEBEC STREET NW","XCOORD":395012.47,"YCOORD":140991.13,"WARD":"Ward 3","ZIPCODE":"20008","ADDRID":219289},"geometry":{"type":"Point","coordinates":[-77.05752918591847,38.93680012108077]}},{"type":"Feature","properties":{"OBJECTID":6,"NAME":"Adeola A. Oyekola","TYPE":"CDH (Child Development Home)","ADDRESS":"866 YUMA STREET SE","XCOORD":400659.4,"YCOORD":129395.69,"WARD":"Ward 8","ZIPCODE":"20032","ADDRID":81555},"geometry":{"type":"Point","coordinates":[-76.99240778884715,38.832357861444365]}},{"type":"Feature","properties":{"OBJECTID":7,"NAME":"Adventureland Day Nursery # 1","TYPE":"CDC (Child Development Center)","ADDRESS":"4015 KANSAS AVENUE NW","XCOORD":397673.97,"YCOORD":141365.58,"WARD":"Ward 4","ZIPCODE":"20011","ADDRID":223646},"geometry":{"type":"Point","coordinates":[-77.0268323281869,38.940184355959964]}},{"type":"Feature","properties":{"OBJECTID":8,"NAME":"Adventureland Day Nursery Ii","TYPE":"CDC (Child Development Center)","ADDRESS":"1109 BUCHANAN STREET NW","XCOORD":397622.11,"YCOORD":142049.85,"WARD":"Ward 4","ZIPCODE":"20011","ADDRID":252739},"geometry":{"type":"Point","coordinates":[-77.02743288937428,38.946348317994726]}},{"type":"Feature","properties":{"OBJECTID":9,"NAME":"Agape Woodland Tiger Children Academy Agape Cabbbage Patch  #3","TYPE":"CDC (Child Development Center)","ADDRESS":"3200 S STREET SE","XCOORD":403496.31,"YCOORD":133383.67,"WARD":"Ward 7","ZIPCODE":"20020","ADDRID":38824},"geometry":{"type":"Point","coordinates":[-76.95971405284833,38.86827662589985]}},{"type":"Feature","properties":{"OBJECTID":10,"NAME":"Agape Woodland Tiger Youth Academy Inc Dba Agape Cabbage Patch #2","TYPE":"CDC (Child Development Center)","ADDRESS":"2510 PENNSYLVANIA AVENUE SE","XCOORD":402629.33,"YCOORD":133974.08,"WARD":"Ward 7","ZIPCODE":"20020","ADDRID":46409},"geometry":{"type":"Point","coordinates":[-76.96970206636638,38.873598297702955]}},{"type":"Feature","properties":{"OBJECTID":11,"NAME":"Aida J Mendoza","TYPE":"CDH (Child Development Home)","ADDRESS":"5310 MACARTHUR BOULEVARD NW","XCOORD":390895.59,"YCOORD":139996.45,"WARD":"Ward 3","ZIPCODE":"20016","ADDRID":285157},"geometry":{"type":"Point","coordinates":[-77.10500065292591,38.92780672693584]}},{"type":"Feature","properties":{"OBJECTID":12,"NAME":"Aidan Montessori School","TYPE":"CDC (Child Development Center)","ADDRESS":"2700 27TH STREET NW","XCOORD":395177.92,"YCOORD":139815.5,"WARD":"Ward 3","ZIPCODE":"20008","ADDRID":220050},"geometry":{"type":"Point","coordinates":[-77.05561260097522,38.92621060951962]}},{"type":"Feature","properties":{"OBJECTID":13,"NAME":"Akin Gump Strauss Hauer & Feld Llp","TYPE":"CDC (Child Development Center)","ADDRESS":"1333 NEW HAMPSHIRE AVENUE NW","XCOORD":396182.05,"YCOORD":137848.01,"WARD":"Ward 2","ZIPCODE":"20036","ADDRID":241063},"geometry":{"type":"Point","coordinates":[-77.04402159861287,38.90849174574382]}},{"type":"Feature","properties":{"OBJECTID":14,"NAME":"Alba Turcios - Albina's Cdh","TYPE":"CDH (Child Development Home)","ADDRESS":"3329 18TH STREET NW","XCOORD":396443.87,"YCOORD":140585.76,"WARD":"Ward 1","ZIPCODE":"20010","ADDRID":233707},"geometry":{"type":"Point","coordinates":[-77.04101711082397,38.93315538625871]}},{"type":"Feature","properties":{"OBJECTID":15,"NAME":"Alethia Etinoff/Point Of Care Childcare","TYPE":"CDH (Child Development Home)","ADDRESS":"3229 15TH PLACE SE","XCOORD":401492.45,"YCOORD":131220.58,"WARD":"Ward 8","ZIPCODE":"20020","ADDRID":155551},"geometry":{"type":"Point","coordinates":[-76.98280936638346,38.848796275507745]}},{"type":"Feature","properties":{"OBJECTID":16,"NAME":"Alfreda Offutt","TYPE":"CDH (Child Development Home)","ADDRESS":"1607 28TH PLACE SE","XCOORD":402863.61,"YCOORD":133617.36,"WARD":"Ward 7","ZIPCODE":"20020","ADDRID":60138},"geometry":{"type":"Point","coordinates":[-76.96700372597286,38.87038408827813]}},{"type":"Feature","properties":{"OBJECTID":17,"NAME":"Alfreda Wright Brown","TYPE":"CDH (Child Development Home)","ADDRESS":"3217 ALABAMA AVENUE SE","XCOORD":403419.26,"YCOORD":132637.36,"WARD":"Ward 7","ZIPCODE":"20020","ADDRID":38230},"geometry":{"type":"Point","coordinates":[-76.96060561629697,38.86155385909108]}},{"type":"Feature","properties":{"OBJECTID":18,"NAME":"Alice Burt","TYPE":"CDH (Child Development Home)","ADDRESS":"5026 14TH STREET NE","XCOORD":401216.51,"YCOORD":142562.89,"WARD":"Ward 5","ZIPCODE":"20017","ADDRID":14814},"geometry":{"type":"Point","coordinates":[-76.98596809368756,38.95097230266908]}},{"type":"Feature","properties":{"OBJECTID":19,"NAME":"All About Me Christian Child Development  Center","TYPE":"CDC (Child Development Center)","ADDRESS":"1825 MICHIGAN AVENUE NE","XCOORD":401884.96,"YCOORD":141866.01,"WARD":"Ward 5","ZIPCODE":"20018","ADDRID":289132},"geometry":{"type":"Point","coordinates":[-76.97825847605097,38.94469343292787]}},{"type":"Feature","properties":{"OBJECTID":20,"NAME":"All My Children Cdc Ii","TYPE":"CDC (Child Development Center)","ADDRESS":"1616 W STREET SE","XCOORD":401589.47,"YCOORD":132866.4,"WARD":"Ward 8","ZIPCODE":"20020","ADDRID":59750},"geometry":{"type":"Point","coordinates":[-76.98168790034713,38.86362235674224]}},{"type":"Feature","properties":{"OBJECTID":21,"NAME":"All My Children Child Cdc I","TYPE":"CDC (Child Development Center)","ADDRESS":"510 59TH STREET NE","XCOORD":407230.48,"YCOORD":136483.2,"WARD":"Ward 7","ZIPCODE":"20019","ADDRID":13689},"geometry":{"type":"Point","coordinates":[-76.91665235565993,38.89617561244705]}},{"type":"Feature","properties":{"OBJECTID":22,"NAME":"Alma Tibbs","TYPE":"CDH (Child Development Home)","ADDRESS":"417 3RD STREET NE","XCOORD":399843.65,"YCOORD":136403.55,"WARD":"Ward 6","ZIPCODE":"20002","ADDRID":145691},"geometry":{"type":"Point","coordinates":[-77.00180460257339,38.895487814239]}},{"type":"Feature","properties":{"OBJECTID":23,"NAME":"Altagracia X Sanchez- Mundo De Fant","TYPE":"CDH (Child Development Home)","ADDRESS":"2610 10TH STREET NE","XCOORD":400636.87,"YCOORD":139513.99,"WARD":"Ward 5","ZIPCODE":"20018","ADDRID":45850},"geometry":{"type":"Point","coordinates":[-76.99265790304575,38.92350751356128]}},{"type":"Feature","properties":{"OBJECTID":24,"NAME":"Amazing Life Games Preschool","TYPE":"CDC (Child Development Center)","ADDRESS":"4300 16TH STREET NW","XCOORD":396814.15,"YCOORD":141701.21,"WARD":"Ward 4","ZIPCODE":"20011","ADDRID":258561},"geometry":{"type":"Point","coordinates":[-77.03675164574405,38.94320511075248]}},{"type":"Feature","properties":{"OBJECTID":25,"NAME":"American University Cdc","TYPE":"CDC (Child Development Center)","ADDRESS":"4400 MASSACHUSETTS AVENUE NW","XCOORD":392334.76,"YCOORD":141247.38,"WARD":"Ward 3","ZIPCODE":"20016","ADDRID":223994},"geometry":{"type":"Point","coordinates":[-77.08841713128702,38.93908921390882]}},{"type":"Feature","properties":{"OBJECTID":26,"NAME":"Ana Maria Lora/Bilingual Ia-s Nest","TYPE":"CDH (Child Development Home)","ADDRESS":"1353 TUCKERMAN STREET NW","XCOORD":397229.76,"YCOORD":144425.06,"WARD":"Ward 4","ZIPCODE":"20011","ADDRID":257476},"geometry":{"type":"Point","coordinates":[-77.03196851296099,38.96774368497468]}},{"type":"Feature","properties":{"OBJECTID":27,"NAME":"Angelique A Speight","TYPE":"CDH (Child Development Home)","ADDRESS":"1103 M STREET NW","XCOORD":397627.08,"YCOORD":137551.04,"WARD":"Ward 2","ZIPCODE":"20005","ADDRID":278841},"geometry":{"type":"Point","coordinates":[-77.02736000184956,38.905821626274786]}},{"type":"Feature","properties":{"OBJECTID":28,"NAME":"Anita Ann Miller-tolliver","TYPE":"CDH (Child Development Home)","ADDRESS":"2419 17TH STREET SE","XCOORD":401641.47,"YCOORD":132084.5,"WARD":"Ward 8","ZIPCODE":"20020","ADDRID":47384},"geometry":{"type":"Point","coordinates":[-76.98109060572887,38.85657857586497]}},{"type":"Feature","properties":{"OBJECTID":29,"NAME":"Annie White","TYPE":"CDH (Child Development Home)","ADDRESS":"1728 C STREET NE","XCOORD":401784.84,"YCOORD":136193.34,"WARD":"Ward 6","ZIPCODE":"20002","ADDRID":56959},"geometry":{"type":"Point","coordinates":[-76.97942814717558,38.8935923678715]}},{"type":"Feature","properties":{"OBJECTID":30,"NAME":"Aog Group Inc Dba Ester's Child Developoment Center","TYPE":"CDC (Child Development Center)","ADDRESS":"1927 GALES STREET NE","XCOORD":402080.66,"YCOORD":136609.84,"WARD":"Ward 7","ZIPCODE":"20002","ADDRID":53725},"geometry":{"type":"Point","coordinates":[-76.97601692168362,38.89734370260172]}},{"type":"Feature","properties":{"OBJECTID":31,"NAME":"Apple Tree Early Learning Pcs- Parklands","TYPE":"CDC (Child Development Center)","ADDRESS":"2011 SAVANNAH STREET SE","XCOORD":402190.85,"YCOORD":130971.03,"WARD":"Ward 8","ZIPCODE":"20020","ADDRID":290177},"geometry":{"type":"Point","coordinates":[-76.97476464481714,38.84654675729207]}},{"type":"Feature","properties":{"OBJECTID":32,"NAME":"Apple Tree Early Learning Pcs-douglas Knoll Campus","TYPE":"CDC (Child Development Center)","ADDRESS":"2017 SAVANNAH TERRACE SE","XCOORD":402177.09,"YCOORD":131217.9,"WARD":"Ward 8","ZIPCODE":"20020","ADDRID":278045},"geometry":{"type":"Point","coordinates":[-76.97492237284342,38.848770705188656]}},{"type":"Feature","properties":{"OBJECTID":33,"NAME":"Apple Tree Early Learning Pub. Charter School Oklahoma Ave. Camp.","TYPE":"CDC (Child Development Center)","ADDRESS":"330 21ST STREET NE","XCOORD":402118.19,"YCOORD":136305.64,"WARD":"Ward 7","ZIPCODE":"20002","ADDRID":307321},"geometry":{"type":"Point","coordinates":[-76.97558522243143,38.894603267915336]}},{"type":"Feature","properties":{"OBJECTID":34,"NAME":"Appletree Elpcs Before And After Program","TYPE":"CDC (Child Development Center)","ADDRESS":"2750 14TH STREET NW","XCOORD":397160.68,"YCOORD":139708.07,"WARD":"Ward 1","ZIPCODE":"20009","ADDRID":297626},"geometry":{"type":"Point","coordinates":[-77.03274611178139,38.92525149048841]}},{"type":"Feature","properties":{"OBJECTID":35,"NAME":"Aracelis De Leon","TYPE":"CDH (Child Development Home)","ADDRESS":"1356 RANDOLPH STREET NW","XCOORD":397258.52,"YCOORD":141177.04,"WARD":"Ward 4","ZIPCODE":"20011","ADDRID":225229},"geometry":{"type":"Point","coordinates":[-77.03162366266673,38.93848473383664]}},{"type":"Feature","properties":{"OBJECTID":36,"NAME":"Are Celebration In Learning Inc","TYPE":"CDC (Child Development Center)","ADDRESS":"45 P STREET NW","XCOORD":399080.18,"YCOORD":137997.37,"WARD":"Ward 5","ZIPCODE":"20001","ADDRID":279790},"geometry":{"type":"Point","coordinates":[-77.01060761230741,38.909845044395055]}},{"type":"Feature","properties":{"OBJECTID":37,"NAME":"Arnold & Porter  Llp Children Center","TYPE":"CDC (Child Development Center)","ADDRESS":"601 MASSACHUSETTS AVENUE NW","XCOORD":398247.46,"YCOORD":137113.3,"WARD":"Ward 6","ZIPCODE":"20001","ADDRID":305814},"geometry":{"type":"Point","coordinates":[-77.0202064393861,38.90187976561493]}},{"type":"Feature","properties":{"OBJECTID":38,"NAME":"Artimita J Mitchell","TYPE":"CDH (Child Development Home)","ADDRESS":"3341 DUBOIS PLACE SE","XCOORD":403611.4,"YCOORD":135244.83,"WARD":"Ward 7","ZIPCODE":"20019","ADDRID":35829},"geometry":{"type":"Point","coordinates":[-76.95837808508489,38.88504222759719]}},{"type":"Feature","properties":{"OBJECTID":39,"NAME":"Assembly Of The Saints Cdc","TYPE":"CDC (Child Development Center)","ADDRESS":"4605 KANE PLACE NE","XCOORD":405580.11,"YCOORD":137293.58,"WARD":"Ward 7","ZIPCODE":"20019","ADDRID":19383},"geometry":{"type":"Point","coordinates":[-76.93567053584619,38.90348783024039]}},{"type":"Feature","properties":{"OBJECTID":40,"NAME":"Auguste Montessori School","TYPE":"CDC (Child Development Center)","ADDRESS":"3600 ELLICOTT STREET NW","XCOORD":393901.56,"YCOORD":142806.09,"WARD":"Ward 3","ZIPCODE":"20008","ADDRID":302094},"geometry":{"type":"Point","coordinates":[-77.07035871457342,38.95314278391532]}},{"type":"Feature","properties":{"OBJECTID":41,"NAME":"Baby Einstein Child Development Center","TYPE":"CDC (Child Development Center)","ADDRESS":"1225 GOOD HOPE ROAD SE","XCOORD":401054.36,"YCOORD":133243.64,"WARD":"Ward 8","ZIPCODE":"20020","ADDRID":70926},"geometry":{"type":"Point","coordinates":[-76.9878530302987,38.86702149510445]}},{"type":"Feature","properties":{"OBJECTID":42,"NAME":"Baby's Start","TYPE":"CDC (Child Development Center)","ADDRESS":"3919 14TH STREET NW","XCOORD":397186.45,"YCOORD":141258.07,"WARD":"Ward 4","ZIPCODE":"20011","ADDRID":224886},"geometry":{"type":"Point","coordinates":[-77.03245528042271,38.93921444810541]}},{"type":"Feature","properties":{"OBJECTID":43,"NAME":"Bambini Play & Learn, Day Care Center, Llc","TYPE":"CDC (Child Development Center)","ADDRESS":"900 MASSACHUSETTS AVENUE NW","XCOORD":397832.01,"YCOORD":137224.67,"WARD":"Ward 2","ZIPCODE":"20001","ADDRID":239813},"geometry":{"type":"Point","coordinates":[-77.02499630569211,38.90288209957664]}},{"type":"Feature","properties":{"OBJECTID":44,"NAME":"Barbara Chamber Children's Center #3","TYPE":"CDC (Child Development Center)","ADDRESS":"3400 14TH STREET NW","XCOORD":397142.33,"YCOORD":140414.33,"WARD":"Ward 1","ZIPCODE":"20010","ADDRID":302547},"geometry":{"type":"Point","coordinates":[-77.0329606700036,38.93161364193694]}},{"type":"Feature","properties":{"OBJECTID":45,"NAME":"Barbara Chambers Children  Center #2","TYPE":"CDC (Child Development Center)","ADDRESS":"1734 7TH STREET NW","XCOORD":398075.91,"YCOORD":138422.42,"WARD":"Ward 6","ZIPCODE":"20001","ADDRID":279361},"geometry":{"type":"Point","coordinates":[-77.02218782184775,38.91367241449846]}},{"type":"Feature","properties":{"OBJECTID":46,"NAME":"Barbara Chambers Children's Center","TYPE":"CDC (Child Development Center)","ADDRESS":"1470 IRVING STREET NW","XCOORD":396926.79,"YCOORD":140063.32,"WARD":"Ward 1","ZIPCODE":"20010","ADDRID":284044},"geometry":{"type":"Point","coordinates":[-77.03544498674177,38.92845090753804]}},{"type":"Feature","properties":{"OBJECTID":47,"NAME":"Barbara Elsas","TYPE":"CDH (Child Development Home)","ADDRESS":"5013 SHERIER PLACE NW","XCOORD":391206.7,"YCOORD":139543.57,"WARD":"Ward 3","ZIPCODE":"20016","ADDRID":268347},"geometry":{"type":"Point","coordinates":[-77.10140691778494,38.9237302110178]}},{"type":"Feature","properties":{"OBJECTID":48,"NAME":"Barbara P Joaquin","TYPE":"CDH (Child Development Home)","ADDRESS":"1519 25TH STREET SE","XCOORD":402500.4,"YCOORD":133816.85,"WARD":"Ward 8","ZIPCODE":"20020","ADDRID":61629},"geometry":{"type":"Point","coordinates":[-76.97118841840954,38.87218228256528]}},{"type":"Feature","properties":{"OBJECTID":49,"NAME":"Beauvoir Nursery School","TYPE":"CDC (Child Development Center)","ADDRESS":"3500 WOODLEY ROAD NW","XCOORD":394115.17,"YCOORD":140251.87,"WARD":"Ward 3","ZIPCODE":"20016","ADDRID":300818},"geometry":{"type":"Point","coordinates":[-77.06787243200367,38.93013509123675]}},{"type":"Feature","properties":{"OBJECTID":50,"NAME":"Bell Teen Parent & Child Development","TYPE":"CDC (Child Development Center)","ADDRESS":"3101 16TH STREET NW","XCOORD":396890.8,"YCOORD":140185.59,"WARD":"Ward 1","ZIPCODE":"20010","ADDRID":234375},"geometry":{"type":"Point","coordinates":[-77.03586060596112,38.929552227177076]}},{"type":"Feature","properties":{"OBJECTID":51,"NAME":"Bennett Babies Child Development Center","TYPE":"CDC (Child Development Center)","ADDRESS":"701 MICHIGAN AVENUE NE","XCOORD":400373.38,"YCOORD":140577.34,"WARD":"Ward 5","ZIPCODE":"20017","ADDRID":288865},"geometry":{"type":"Point","coordinates":[-76.99569589063316,38.933086655086264]}},{"type":"Feature","properties":{"OBJECTID":52,"NAME":"Bennett Babies, Inc.","TYPE":"CDC (Child Development Center)","ADDRESS":"700 MONROE STREET NE","XCOORD":400351.98,"YCOORD":140528.73,"WARD":"Ward 5","ZIPCODE":"20017","ADDRID":300},"geometry":{"type":"Point","coordinates":[-76.9959427333946,38.93264877016689]}},{"type":"Feature","properties":{"OBJECTID":53,"NAME":"Bethel Christian Fellowship Early Childhood Development Center","TYPE":"CDC (Child Development Center)","ADDRESS":"2220 MARTIN LUTHER KING JR AVENUE SE","XCOORD":400876.07,"YCOORD":132921.52,"WARD":"Ward 8","ZIPCODE":"20020","ADDRID":50017},"geometry":{"type":"Point","coordinates":[-76.98990785269471,38.86411990033787]}},{"type":"Feature","properties":{"OBJECTID":54,"NAME":"Beverly Hull-carter","TYPE":"CDH (Child Development Home)","ADDRESS":"1376 E STREET NE","XCOORD":401203.35,"YCOORD":136494.91,"WARD":"Ward 6","ZIPCODE":"20002","ADDRID":65444},"geometry":{"type":"Point","coordinates":[-76.98613054715685,38.89631000951329]}},{"type":"Feature","properties":{"OBJECTID":55,"NAME":"Big Mama's Children's Center","TYPE":"CDC (Child Development Center)","ADDRESS":"4680 MARTIN LUTHER KING JR AVENUE SW","XCOORD":399073.8,"YCOORD":128158.04,"WARD":"Ward 8","ZIPCODE":"20032","ADDRID":150826},"geometry":{"type":"Point","coordinates":[-77.01066791263105,38.8212082862442]}},{"type":"Feature","properties":{"OBJECTID":56,"NAME":"Bishop John T. Walker School For Bo","TYPE":"CDC (Child Development Center)","ADDRESS":"3640 MARTIN LUTHER KING JR AVENUE SE","XCOORD":399520.53,"YCOORD":130045.2,"WARD":"Ward 8","ZIPCODE":"20032","ADDRID":32174},"geometry":{"type":"Point","coordinates":[-77.00552491976322,38.83820906157063]}},{"type":"Feature","properties":{"OBJECTID":57,"NAME":"Blandi's Child Learning Center","TYPE":"CDC (Child Development Center)","ADDRESS":"504 KENNEDY STREET NW","XCOORD":398241.79,"YCOORD":143138.75,"WARD":"Ward 4","ZIPCODE":"20011","ADDRID":285060},"geometry":{"type":"Point","coordinates":[-77.02028724477384,38.95615888636322]}},{"type":"Feature","properties":{"OBJECTID":58,"NAME":"Board Of Child Care","TYPE":"CDC (Child Development Center)","ADDRESS":"308 15TH STREET SE","XCOORD":401441.53,"YCOORD":135223.47,"WARD":"Ward 6","ZIPCODE":"20003","ADDRID":289433},"geometry":{"type":"Point","coordinates":[-76.98338757054694,38.88485604274731]}},{"type":"Feature","properties":{"OBJECTID":59,"NAME":"Brenda  Ganey","TYPE":"CDH (Child Development Home)","ADDRESS":"111 42ND STREET NE","XCOORD":405000.37,"YCOORD":136052.82,"WARD":"Ward 7","ZIPCODE":"20019","ADDRID":74237},"geometry":{"type":"Point","coordinates":[-76.94236324822586,38.89231410408539]}},{"type":"Feature","properties":{"OBJECTID":60,"NAME":"Brenda Abney Hill","TYPE":"CDH (Child Development Home)","ADDRESS":"1344 A STREET SE","XCOORD":401224.99,"YCOORD":135669.5,"WARD":"Ward 6","ZIPCODE":"20003","ADDRID":66496},"geometry":{"type":"Point","coordinates":[-76.98588256116425,38.888874379255526]}},{"type":"Feature","properties":{"OBJECTID":61,"NAME":"Brenda Price","TYPE":"CDH (Child Development Home)","ADDRESS":"4308 WHEELER ROAD SE","XCOORD":401079.39,"YCOORD":129406.54,"WARD":"Ward 8","ZIPCODE":"20032","ADDRID":23921},"geometry":{"type":"Point","coordinates":[-76.98757063191586,38.83245518845512]}},{"type":"Feature","properties":{"OBJECTID":62,"NAME":"Brenda Smith","TYPE":"CDH (Child Development Home)","ADDRESS":"2415 MINNESOTA AVENUE SE","XCOORD":402475.41,"YCOORD":133888.78,"WARD":"Ward 8","ZIPCODE":"20020","ADDRID":47542},"geometry":{"type":"Point","coordinates":[-76.97147613671528,38.872830327695645]}},{"type":"Feature","properties":{"OBJECTID":63,"NAME":"Bridges Academy, Inc","TYPE":"CDC (Child Development Center)","ADDRESS":"6119 GEORGIA AVENUE NW","XCOORD":397619.12,"YCOORD":144051.91,"WARD":"Ward 4","ZIPCODE":"20011","ADDRID":295158},"geometry":{"type":"Point","coordinates":[-77.02747433236213,38.96438339954347]}},{"type":"Feature","properties":{"OBJECTID":64,"NAME":"Bridges Babies","TYPE":"CDC (Child Development Center)","ADDRESS":"6127 GEORGIA AVENUE NW","XCOORD":397621.16,"YCOORD":144068.29,"WARD":"Ward 4","ZIPCODE":"20011","ADDRID":276394},"geometry":{"type":"Point","coordinates":[-77.02745085043807,38.96453096021025]}},{"type":"Feature","properties":{"OBJECTID":65,"NAME":"Bridges Early Childhood Academy","TYPE":"CDC (Child Development Center)","ADDRESS":"6119 GEORGIA AVENUE NW","XCOORD":397619.12,"YCOORD":144051.91,"WARD":"Ward 4","ZIPCODE":"20011","ADDRID":295158},"geometry":{"type":"Point","coordinates":[-77.02747433236213,38.96438339954347]}},{"type":"Feature","properties":{"OBJECTID":66,"NAME":"Bright Beginnings Inc.","TYPE":"CDC (Child Development Center)","ADDRESS":"128 M STREET NW","XCOORD":398841.99,"YCOORD":137502.56,"WARD":"Ward 6","ZIPCODE":"20001","ADDRID":279016},"geometry":{"type":"Point","coordinates":[-77.01335305748043,38.905387342155855]}},{"type":"Feature","properties":{"OBJECTID":67,"NAME":"Bright Future Early Learning Center","TYPE":"CDC (Child Development Center)","ADDRESS":"2535 BLADENSBURG ROAD NE","XCOORD":402844.15,"YCOORD":139480.86,"WARD":"Ward 5","ZIPCODE":"20018","ADDRID":46196},"geometry":{"type":"Point","coordinates":[-76.96720369876962,38.92320469696748]}},{"type":"Feature","properties":{"OBJECTID":68,"NAME":"Bright Horizon At Georgetown, Dc","TYPE":"CDC (Child Development Center)","ADDRESS":"1010 WISCONSIN AVENUE NW","XCOORD":394531.73,"YCOORD":137248.53,"WARD":"Ward 2","ZIPCODE":"20007","ADDRID":278784},"geometry":{"type":"Point","coordinates":[-77.06304429687276,38.9030827020733]}},{"type":"Feature","properties":{"OBJECTID":69,"NAME":"Bright Horizon Early Education & Ba","TYPE":"CDC (Child Development Center)","ADDRESS":"901 NEW YORK AVENUE NW","XCOORD":397808.53,"YCOORD":137129.35,"WARD":"Ward 2","ZIPCODE":"20001","ADDRID":300397},"geometry":{"type":"Point","coordinates":[-77.0252666944609,38.90202336484941]}},{"type":"Feature","properties":{"OBJECTID":70,"NAME":"Bright Horizons @ L Street","TYPE":"CDC (Child Development Center)","ADDRESS":"2101 L STREET NW","XCOORD":395933.71,"YCOORD":137350.71,"WARD":"Ward 2","ZIPCODE":"20037","ADDRID":242479},"geometry":{"type":"Point","coordinates":[-77.04688190637735,38.90401077986878]}},{"type":"Feature","properties":{"OBJECTID":71,"NAME":"Bright Horizons @ Metro Square","TYPE":"CDC (Child Development Center)","ADDRESS":"655 15TH STREET NW","XCOORD":397122.2,"YCOORD":136673.07,"WARD":"Ward 2","ZIPCODE":"20005","ADDRID":279876},"geometry":{"type":"Point","coordinates":[-77.0331771527125,38.897911051141875]}},{"type":"Feature","properties":{"OBJECTID":72,"NAME":"Bright Horizons At The Department Of Energy","TYPE":"CDC (Child Development Center)","ADDRESS":"1000 INDEPENDENCE AVENUE SW","XCOORD":397799,"YCOORD":135461.51,"WARD":"Ward 6","ZIPCODE":"20585","ADDRID":277730},"geometry":{"type":"Point","coordinates":[-77.02537121700065,38.886998823326216]}},{"type":"Feature","properties":{"OBJECTID":73,"NAME":"Bright Horizons Children's Center","TYPE":"CDC (Child Development Center)","ADDRESS":"700 19TH STREET NW","XCOORD":396189.31,"YCOORD":136795.68,"WARD":"Ward 2","ZIPCODE":"20431","ADDRID":241084},"geometry":{"type":"Point","coordinates":[-77.04393205479579,38.89901201696585]}},{"type":"Feature","properties":{"OBJECTID":74,"NAME":"Bright Horizons Childrens Ctr Llc/N","TYPE":"CDC (Child Development Center)","ADDRESS":"1111 CONSTITUTION AVENUE NW","XCOORD":397651.64,"YCOORD":136101.09,"WARD":"Ward 2","ZIPCODE":"20224","ADDRID":291699},"geometry":{"type":"Point","coordinates":[-77.02707188852162,38.892760019184436]}},{"type":"Feature","properties":{"OBJECTID":75,"NAME":"Bright Horizonschildren's Center","TYPE":"CDC (Child Development Center)","ADDRESS":"1111 PENNSYLVANIA AVENUE NW","XCOORD":397584.51,"YCOORD":136395.95,"WARD":"Ward 2","ZIPCODE":"20004","ADDRID":278856},"geometry":{"type":"Point","coordinates":[-77.02784673455909,38.89541604506305]}},{"type":"Feature","properties":{"OBJECTID":76,"NAME":"Bright Start Childcare Llc","TYPE":"CDC (Child Development Center)","ADDRESS":"5416 GEORGIA AVENUE NW","XCOORD":397557.98,"YCOORD":143095.09,"WARD":"Ward 4","ZIPCODE":"20011","ADDRID":253065},"geometry":{"type":"Point","coordinates":[-77.02817639502486,38.95576395024769]}},{"type":"Feature","properties":{"OBJECTID":77,"NAME":"Broad Branch Children's House","TYPE":"CDC (Child Development Center)","ADDRESS":"5608 BROAD BRANCH ROAD NW","XCOORD":394052.76,"YCOORD":144192.58,"WARD":"Ward 3","ZIPCODE":"20015","ADDRID":263174},"geometry":{"type":"Point","coordinates":[-77.06862637756714,38.96563367904597]}},{"type":"Feature","properties":{"OBJECTID":78,"NAME":"Broadcasters Child Development Center","TYPE":"CDC (Child Development Center)","ADDRESS":"3400 INTERNATIONAL DRIVE NW","XCOORD":394417.01,"YCOORD":141545.55,"WARD":"Ward 3","ZIPCODE":"20008","ADDRID":301239},"geometry":{"type":"Point","coordinates":[-77.06440181794198,38.94179091632457]}},{"type":"Feature","properties":{"OBJECTID":79,"NAME":"Bundles Of Joy","TYPE":"CDC (Child Development Center)","ADDRESS":"1941 4TH STREET NE","XCOORD":399974.1,"YCOORD":138738.37,"WARD":"Ward 5","ZIPCODE":"20002","ADDRID":53520},"geometry":{"type":"Point","coordinates":[-77.00030093396637,38.916520704744]}},{"type":"Feature","properties":{"OBJECTID":80,"NAME":"Calomiris Ymca Program Center","TYPE":"CDC (Child Development Center)","ADDRESS":"1906 ALLISON STREET NE","XCOORD":401912,"YCOORD":141946.47,"WARD":"Ward 5","ZIPCODE":"20018","ADDRID":302514},"geometry":{"type":"Point","coordinates":[-76.97794633403457,38.945418181079425]}},{"type":"Feature","properties":{"OBJECTID":81,"NAME":"Calvary Christian Academy","TYPE":"CDC (Child Development Center)","ADDRESS":"806 RHODE ISLAND AVENUE NE","XCOORD":400495.52,"YCOORD":139362.39,"WARD":"Ward 5","ZIPCODE":"20018","ADDRID":79837},"geometry":{"type":"Point","coordinates":[-76.99428805994299,38.922141942848]}},{"type":"Feature","properties":{"OBJECTID":82,"NAME":"Capital Kids Ii, Inc","TYPE":"CDC (Child Development Center)","ADDRESS":"1250 24TH STREET NW","XCOORD":395502.35,"YCOORD":137627.52,"WARD":"Ward 2","ZIPCODE":"20037","ADDRID":273946},"geometry":{"type":"Point","coordinates":[-77.05185680035846,38.90650227978522]}},{"type":"Feature","properties":{"OBJECTID":83,"NAME":"Capitol City Child Development Center","TYPE":"CDC (Child Development Center)","ADDRESS":"320 ANACOSTIA ROAD SE","XCOORD":403948.99,"YCOORD":135266.42,"WARD":"Ward 7","ZIPCODE":"20019","ADDRID":298640},"geometry":{"type":"Point","coordinates":[-76.95448697398108,38.885235267268826]}},{"type":"Feature","properties":{"OBJECTID":84,"NAME":"Capitol Hill Cooperative Nurse","TYPE":"CDC (Child Development Center)","ADDRESS":"420 12TH STREET SE","XCOORD":400867.92,"YCOORD":135070.02,"WARD":"Ward 6","ZIPCODE":"20003","ADDRID":294486},"geometry":{"type":"Point","coordinates":[-76.98999904872527,38.8834744591022]}},{"type":"Feature","properties":{"OBJECTID":85,"NAME":"Capitol Hill Learning Group, Llc","TYPE":"CDC (Child Development Center)","ADDRESS":"907 MARYLAND AVENUE NE","XCOORD":400565.22,"YCOORD":136430.05,"WARD":"Ward 6","ZIPCODE":"20002","ADDRID":81944},"geometry":{"type":"Point","coordinates":[-76.99348670714284,38.895726368481014]}},{"type":"Feature","properties":{"OBJECTID":86,"NAME":"Carolyn Stevens Gray","TYPE":"CDH (Child Development Home)","ADDRESS":"5437 C STREET SE","XCOORD":406756.31,"YCOORD":135132.59,"WARD":"Ward 7","ZIPCODE":"20019","ADDRID":8668},"geometry":{"type":"Point","coordinates":[-76.92213166502845,38.884012585956434]}},{"type":"Feature","properties":{"OBJECTID":87,"NAME":"Caterpillar Preschool/City Gate Inc","TYPE":"CDC (Child Development Center)","ADDRESS":"3920 ALTON PLACE NW","XCOORD":393270.43,"YCOORD":142108.9,"WARD":"Ward 3","ZIPCODE":"20016","ADDRID":222948},"geometry":{"type":"Point","coordinates":[-77.07763308578808,38.94685769735277]}},{"type":"Feature","properties":{"OBJECTID":88,"NAME":"Catherine  Ncha/Immanuel Home Cdc","TYPE":"CDH (Child Development Home)","ADDRESS":"3243 THEODORE R HAGANS DRIVE NE","XCOORD":403492.63,"YCOORD":139401.37,"WARD":"Ward 5","ZIPCODE":"20018","ADDRID":304347},"geometry":{"type":"Point","coordinates":[-76.95972586725084,38.922486287629546]}},{"type":"Feature","properties":{"OBJECTID":89,"NAME":"Cecelia Beverly","TYPE":"CDH (Child Development Home)","ADDRESS":"4406 6TH PLACE NE","XCOORD":400208.5,"YCOORD":141677.92,"WARD":"Ward 5","ZIPCODE":"20017","ADDRID":22244},"geometry":{"type":"Point","coordinates":[-76.99759720766656,38.94300106102523]}},{"type":"Feature","properties":{"OBJECTID":90,"NAME":"Centronia","TYPE":"CDC (Child Development Center)","ADDRESS":"1420 COLUMBIA ROAD NW","XCOORD":397111.88,"YCOORD":139924.73,"WARD":"Ward 1","ZIPCODE":"20009","ADDRID":234355},"geometry":{"type":"Point","coordinates":[-77.03330979863522,38.92720307327054]}},{"type":"Feature","properties":{"OBJECTID":91,"NAME":"Centronia @ Upshur Street","TYPE":"CDC (Child Development Center)","ADDRESS":"1288 UPSHUR STREET NW","XCOORD":397505.96,"YCOORD":141520.67,"WARD":"Ward 4","ZIPCODE":"20011","ADDRID":223664},"geometry":{"type":"Point","coordinates":[-77.02877083569287,38.9415809909471]}},{"type":"Feature","properties":{"OBJECTID":92,"NAME":"Chantelle Coles","TYPE":"CDH (Child Development Home)","ADDRESS":"4980 JUST STREET NE","XCOORD":406044.21,"YCOORD":137212.4,"WARD":"Ward 7","ZIPCODE":"20019","ADDRID":304760},"geometry":{"type":"Point","coordinates":[-76.93032075475793,38.90275346362733]}},{"type":"Feature","properties":{"OBJECTID":93,"NAME":"Federal Trade Commission Cdc","TYPE":"CDC (Child Development Center)","ADDRESS":"600 PENNSYLVANIA AVENUE NW","XCOORD":398163.91,"YCOORD":136099.38,"WARD":"Ward 2","ZIPCODE":"20580","ADDRID":238718},"geometry":{"type":"Point","coordinates":[-77.02116693487788,38.892745834232024]}},{"type":"Feature","properties":{"OBJECTID":94,"NAME":"Ferc Child Development Center","TYPE":"CDC (Child Development Center)","ADDRESS":"888 1ST STREET NE","XCOORD":399382.61,"YCOORD":137075.08,"WARD":"Ward 6","ZIPCODE":"20002","ADDRID":81586},"geometry":{"type":"Point","coordinates":[-77.00711982941058,38.901536996923845]}},{"type":"Feature","properties":{"OBJECTID":95,"NAME":"Ffa/ Dot Child Development Center","TYPE":"CDC (Child Development Center)","ADDRESS":"800 INDEPENDENCE AVENUE SW","XCOORD":398008.92,"YCOORD":135447.42,"WARD":"Ward 6","ZIPCODE":"20591","ADDRID":79569},"geometry":{"type":"Point","coordinates":[-77.0229516184909,38.886872395786426]}},{"type":"Feature","properties":{"OBJECTID":96,"NAME":"Finding Dreams In Children","TYPE":"CDC (Child Development Center)","ADDRESS":"1776 F STREET NW","XCOORD":396420.83,"YCOORD":136578.25,"WARD":"Ward 2","ZIPCODE":"20006","ADDRID":218479},"geometry":{"type":"Point","coordinates":[-77.04126195128718,38.89705430194827]}},{"type":"Feature","properties":{"OBJECTID":97,"NAME":"Fingerprints Child Development Center","TYPE":"CDC (Child Development Center)","ADDRESS":"1849 C STREET NW","XCOORD":396304.4,"YCOORD":136289.52,"WARD":"Ward 2","ZIPCODE":"20240","ADDRID":293214},"geometry":{"type":"Point","coordinates":[-77.04260257010688,38.89445283458711]}},{"type":"Feature","properties":{"OBJECTID":98,"NAME":"First Baptist Church Of Washington","TYPE":"CDC (Child Development Center)","ADDRESS":"1328 16TH STREET NW","XCOORD":396758.18,"YCOORD":137844.77,"WARD":"Ward 2","ZIPCODE":"20036","ADDRID":279074},"geometry":{"type":"Point","coordinates":[-77.03737905405097,38.90846487273613]}},{"type":"Feature","properties":{"OBJECTID":99,"NAME":"First Rock Baptist Child Development Center","TYPE":"CDC (Child Development Center)","ADDRESS":"4638 H STREET SE","XCOORD":405835.32,"YCOORD":134561.43,"WARD":"Ward 7","ZIPCODE":"20019","ADDRID":300715},"geometry":{"type":"Point","coordinates":[-76.93275148488826,38.8788739498674]}},{"type":"Feature","properties":{"OBJECTID":100,"NAME":"Florence E Teague","TYPE":"CDH (Child Development Home)","ADDRESS":"2233 PROUT STREET SE","XCOORD":402265.53,"YCOORD":133912.08,"WARD":"Ward 8","ZIPCODE":"20020","ADDRID":49659},"geometry":{"type":"Point","coordinates":[-76.97389467625078,38.87304078914695]}},{"type":"Feature","properties":{"OBJECTID":101,"NAME":"Footsteps Of Children Child Development Center","TYPE":"CDC (Child Development Center)","ADDRESS":"342 8TH STREET NE","XCOORD":400412.4,"YCOORD":136306.09,"WARD":"Ward 6","ZIPCODE":"20002","ADDRID":34877},"geometry":{"type":"Point","coordinates":[-76.99524841473236,38.8946097760865]}},{"type":"Feature","properties":{"OBJECTID":102,"NAME":"Franklin Commons Intergenerational","TYPE":"CDC (Child Development Center)","ADDRESS":"119 FRANKLIN STREET NE","XCOORD":399640.87,"YCOORD":139681.26,"WARD":"Ward 5","ZIPCODE":"20002","ADDRID":149144},"geometry":{"type":"Point","coordinates":[-77.00414385810106,38.92501449227324]}},{"type":"Feature","properties":{"OBJECTID":103,"NAME":"Friendship Children's Center # 1","TYPE":"CDC (Child Development Center)","ADDRESS":"5310 43RD STREET NW","XCOORD":392725.63,"YCOORD":143505.85,"WARD":"Ward 3","ZIPCODE":"20015","ADDRID":302588},"geometry":{"type":"Point","coordinates":[-77.08393258885616,38.95943745308429]}},{"type":"Feature","properties":{"OBJECTID":104,"NAME":"Friendship Childrens Center # 2","TYPE":"CDC (Child Development Center)","ADDRESS":"5411 WESTERN AVENUE NW","XCOORD":392726.66,"YCOORD":143779.78,"WARD":"Ward 3","ZIPCODE":"20015","ADDRID":304108},"geometry":{"type":"Point","coordinates":[-77.08392361055708,38.961905092507486]}},{"type":"Feature","properties":{"OBJECTID":105,"NAME":"Friendship Public Charter School @ Chamberlain","TYPE":"CDC (Child Development Center)","ADDRESS":"1345 POTOMAC AVENUE SE","XCOORD":401145.15,"YCOORD":134616.92,"WARD":"Ward 6","ZIPCODE":"20003","ADDRID":66334},"geometry":{"type":"Point","coordinates":[-76.9868045821557,38.87939244049106]}},{"type":"Feature","properties":{"OBJECTID":106,"NAME":"Friendship Public Charter School Inc","TYPE":"CDC (Child Development Center)","ADDRESS":"2959 CARLTON AVENUE NE","XCOORD":402903.45,"YCOORD":140185.72,"WARD":"Ward 5","ZIPCODE":"20018","ADDRID":42808},"geometry":{"type":"Point","coordinates":[-76.96651687320974,38.92955410479759]}},{"type":"Feature","properties":{"OBJECTID":107,"NAME":"Friendship Public Charter School Inc- Blow Pierce Campus","TYPE":"CDC (Child Development Center)","ADDRESS":"725 19TH STREET NE","XCOORD":402040.17,"YCOORD":136663.58,"WARD":"Ward 7","ZIPCODE":"20002","ADDRID":288919},"geometry":{"type":"Point","coordinates":[-76.97648352133622,38.89782790696176]}},{"type":"Feature","properties":{"OBJECTID":108,"NAME":"Friendship Public Charter Schools/S","TYPE":"CDC (Child Development Center)","ADDRESS":"645 MILWAUKEE PLACE SE","XCOORD":400259.75,"YCOORD":131109.73,"WARD":"Ward 8","ZIPCODE":"20032","ADDRID":1655},"geometry":{"type":"Point","coordinates":[-76.9970100213184,38.84779891710694]}},{"type":"Feature","properties":{"OBJECTID":109,"NAME":"Full Gospel Tabernacle Church","TYPE":"CDC (Child Development Center)","ADDRESS":"632 11TH STREET NE","XCOORD":400712.68,"YCOORD":136707.07,"WARD":"Ward 6","ZIPCODE":"20002","ADDRID":151089},"geometry":{"type":"Point","coordinates":[-76.99178657408679,38.89822175867324]}},{"type":"Feature","properties":{"OBJECTID":110,"NAME":"Future Leaders Academy @ymca Anthony Bowen","TYPE":"CDC (Child Development Center)","ADDRESS":"1325 W STREET NW","XCOORD":397281.68,"YCOORD":139051.94,"WARD":"Ward 1","ZIPCODE":"20009","ADDRID":240290},"geometry":{"type":"Point","coordinates":[-77.0313481077559,38.91934124214246]}},{"type":"Feature","properties":{"OBJECTID":111,"NAME":"Gap Community Childcare Center Inc.","TYPE":"CDC (Child Development Center)","ADDRESS":"209 UPSHUR STREET NW","XCOORD":398775.6,"YCOORD":141612.1,"WARD":"Ward 4","ZIPCODE":"20011","ADDRID":307112},"geometry":{"type":"Point","coordinates":[-77.01412580458708,38.942407306353026]}},{"type":"Feature","properties":{"OBJECTID":112,"NAME":"Gatari Children Development Center","TYPE":"CDC (Child Development Center)","ADDRESS":"2628 BLADENSBURG ROAD NE","XCOORD":402874.96,"YCOORD":139578.34,"WARD":"Ward 5","ZIPCODE":"20018","ADDRID":308140},"geometry":{"type":"Point","coordinates":[-76.96684799131211,38.924082727832435]}},{"type":"Feature","properties":{"OBJECTID":113,"NAME":"Georgetown Law Early Learning Center","TYPE":"CDC (Child Development Center)","ADDRESS":"120 F STREET NW","XCOORD":398838.72,"YCOORD":136559.87,"WARD":"Ward 6","ZIPCODE":"20001","ADDRID":238371},"geometry":{"type":"Point","coordinates":[-77.01338916323508,38.89689524851262]}},{"type":"Feature","properties":{"OBJECTID":114,"NAME":"Georgetown University Hoya Kids","TYPE":"CDC (Child Development Center)","ADDRESS":"3624 P STREET NW","XCOORD":393834.54,"YCOORD":137854.37,"WARD":"Ward 2","ZIPCODE":"20007","ADDRID":302550},"geometry":{"type":"Point","coordinates":[-77.07108742328424,38.90853570571002]}},{"type":"Feature","properties":{"OBJECTID":115,"NAME":"Georgetown Visitation Preparatory School","TYPE":"CDC (Child Development Center)","ADDRESS":"1524 35TH STREET NW","XCOORD":393980.48,"YCOORD":137960.13,"WARD":"Ward 2","ZIPCODE":"20007","ADDRID":301498},"geometry":{"type":"Point","coordinates":[-77.06940572472955,38.90948943973807]}},{"type":"Feature","properties":{"OBJECTID":116,"NAME":"Geraldine T Bacon","TYPE":"CDH (Child Development Home)","ADDRESS":"1011 URELL PLACE NE","XCOORD":400742.53,"YCOORD":141587.14,"WARD":"Ward 5","ZIPCODE":"20017","ADDRID":75860},"geometry":{"type":"Point","coordinates":[-76.99143719044389,38.9421829997215]}},{"type":"Feature","properties":{"OBJECTID":117,"NAME":"Gethsemane Baptist Church Cdc","TYPE":"CDC (Child Development Center)","ADDRESS":"5119 4TH STREET NW","XCOORD":398520.16,"YCOORD":142776.4,"WARD":"Ward 4","ZIPCODE":"20011","ADDRID":243737},"geometry":{"type":"Point","coordinates":[-77.01707483070689,38.95289525364856]}},{"type":"Feature","properties":{"OBJECTID":118,"NAME":"Giin Levy","TYPE":"CDH (Child Development Home)","ADDRESS":"2815 18TH STREET NW","XCOORD":396416.91,"YCOORD":139780.77,"WARD":"Ward 1","ZIPCODE":"20009","ADDRID":235983},"geometry":{"type":"Point","coordinates":[-77.04132385245,38.92590367683005]}},{"type":"Feature","properties":{"OBJECTID":119,"NAME":"Gloria E Green","TYPE":"CDH (Child Development Home)","ADDRESS":"1838 VALLEY TERRACE SE","XCOORD":401900.52,"YCOORD":130357.75,"WARD":"Ward 8","ZIPCODE":"20032","ADDRID":55044},"geometry":{"type":"Point","coordinates":[-76.97811081334011,38.84102273231422]}},{"type":"Feature","properties":{"OBJECTID":120,"NAME":"Goldies Child Development Center","TYPE":"CDC (Child Development Center)","ADDRESS":"6226 3RD STREET NW","XCOORD":398575.77,"YCOORD":144212.43,"WARD":"Ward 4","ZIPCODE":"20011","ADDRID":280085},"geometry":{"type":"Point","coordinates":[-77.0164362553031,38.965831476503496]}},{"type":"Feature","properties":{"OBJECTID":121,"NAME":"Goldies Child Development Center II","TYPE":"CDC (Child Development Center)","ADDRESS":"6234 3RD STREET NW","XCOORD":398581.55,"YCOORD":144228.65,"WARD":"Ward 4","ZIPCODE":"20011","ADDRID":285327},"geometry":{"type":"Point","coordinates":[-77.01636959435176,38.96597759964046]}},{"type":"Feature","properties":{"OBJECTID":122,"NAME":"Growing Seeds Child Development Center","TYPE":"CDC (Child Development Center)","ADDRESS":"3800 14TH STREET NW","XCOORD":397095.72,"YCOORD":141146.48,"WARD":"Ward 4","ZIPCODE":"20011","ADDRID":259018},"geometry":{"type":"Point","coordinates":[-77.0335013364176,38.93820891716595]}},{"type":"Feature","properties":{"OBJECTID":123,"NAME":"Growth Spurts Cdc @ Bethel","TYPE":"CDC (Child Development Center)","ADDRESS":"60 I STREET SW","XCOORD":399026.13,"YCOORD":134575.9,"WARD":"Ward 6","ZIPCODE":"20024","ADDRID":276677},"geometry":{"type":"Point","coordinates":[-77.01122594525876,38.87902312167882]}},{"type":"Feature","properties":{"OBJECTID":124,"NAME":"Growth Spurts CDC @ D Street","TYPE":"CDC (Child Development Center)","ADDRESS":"1802 D STREET NE","XCOORD":401841.25,"YCOORD":136348.72,"WARD":"Ward 6","ZIPCODE":"20002","ADDRID":55997},"geometry":{"type":"Point","coordinates":[-76.97877748376469,38.89499197196741]}},{"type":"Feature","properties":{"OBJECTID":125,"NAME":"Growth Spurts Cdc @ Judah","TYPE":"CDC (Child Development Center)","ADDRESS":"1715 RHODE ISLAND AVENUE NE","XCOORD":401725.81,"YCOORD":139887.73,"WARD":"Ward 5","ZIPCODE":"20018","ADDRID":57426},"geometry":{"type":"Point","coordinates":[-76.98009931275327,38.926872819111445]}},{"type":"Feature","properties":{"OBJECTID":126,"NAME":"Growth Spurts Child Development Center @adams St","TYPE":"CDC (Child Development Center)","ADDRESS":"3101 ADAMS STREET NE","XCOORD":403166.04,"YCOORD":139242.59,"WARD":"Ward 5","ZIPCODE":"20018","ADDRID":40730},"geometry":{"type":"Point","coordinates":[-76.96349277960236,38.921057183169644]}},{"type":"Feature","properties":{"OBJECTID":127,"NAME":"Guardian Angels Child Development And Learning Center","TYPE":"CDC (Child Development Center)","ADDRESS":"1814 CENTRAL PLACE NE","XCOORD":401254.57,"YCOORD":138241.25,"WARD":"Ward 5","ZIPCODE":"20002","ADDRID":286491},"geometry":{"type":"Point","coordinates":[-76.98553691458105,38.91204158578986]}},{"type":"Feature","properties":{"OBJECTID":128,"NAME":"Happy Faces Learning Center #1","TYPE":"CDC (Child Development Center)","ADDRESS":"1905 9TH STREET NE","XCOORD":400583.63,"YCOORD":138764.04,"WARD":"Ward 5","ZIPCODE":"20018","ADDRID":54411},"geometry":{"type":"Point","coordinates":[-76.99327250362782,38.916751755505175]}},{"type":"Feature","properties":{"OBJECTID":129,"NAME":"Happy Faces Learning Center #2","TYPE":"CDC (Child Development Center)","ADDRESS":"1905 9TH STREET NE","XCOORD":400583.63,"YCOORD":138764.04,"WARD":"Ward 5","ZIPCODE":"20018","ADDRID":54411},"geometry":{"type":"Point","coordinates":[-76.99327250362782,38.916751755505175]}},{"type":"Feature","properties":{"OBJECTID":130,"NAME":"Happy Feet Llc","TYPE":"CDC (Child Development Center)","ADDRESS":"127 KENNEDY STREET NW","XCOORD":398896.88,"YCOORD":143214.75,"WARD":"Ward 4","ZIPCODE":"20011","ADDRID":245866},"geometry":{"type":"Point","coordinates":[-77.0127294116491,38.95684458176651]}},{"type":"Feature","properties":{"OBJECTID":131,"NAME":"Hegens Academic Group Child Care Center","TYPE":"CDC (Child Development Center)","ADDRESS":"1505 1ST STREET SW","XCOORD":398924.42,"YCOORD":133775.93,"WARD":"Ward 6","ZIPCODE":"20024","ADDRID":62516},"geometry":{"type":"Point","coordinates":[-77.01239688107566,38.8718165541289]}},{"type":"Feature","properties":{"OBJECTID":132,"NAME":"Helenaer Mack","TYPE":"CDH (Child Development Home)","ADDRESS":"1921 P STREET SE","XCOORD":402046.5,"YCOORD":133780.18,"WARD":"Ward 8","ZIPCODE":"20020","ADDRID":54002},"geometry":{"type":"Point","coordinates":[-76.97641913544467,38.87185311765622]}},{"type":"Feature","properties":{"OBJECTID":133,"NAME":"Heydi M. Benavides","TYPE":"CDH (Child Development Home)","ADDRESS":"328 ALLISON STREET NW","XCOORD":398543.84,"YCOORD":141914.78,"WARD":"Ward 4","ZIPCODE":"20011","ADDRID":244021},"geometry":{"type":"Point","coordinates":[-77.01679981093916,38.94513358095528]}},{"type":"Feature","properties":{"OBJECTID":134,"NAME":"Hhs/Ed Children's Center","TYPE":"CDC (Child Development Center)","ADDRESS":"330 C STREET SW","XCOORD":398579.72,"YCOORD":135287.2,"WARD":"Ward 6","ZIPCODE":"20201","ADDRID":276582},"geometry":{"type":"Point","coordinates":[-77.01637220428448,38.885430180402984]}},{"type":"Feature","properties":{"OBJECTID":135,"NAME":"Hill Havurah Preschool  Ii","TYPE":"CDC (Child Development Center)","ADDRESS":"421 SEWARD SQUARE SE","XCOORD":400013.2,"YCOORD":135271.8,"WARD":"Ward 6","ZIPCODE":"20003","ADDRID":25345},"geometry":{"type":"Point","coordinates":[-76.99985014183147,38.88529259896445]}},{"type":"Feature","properties":{"OBJECTID":136,"NAME":"Hill Havurah Preschool Dba Gan Shalom","TYPE":"CDC (Child Development Center)","ADDRESS":"118 10TH STREET NE","XCOORD":400619.52,"YCOORD":135960.6,"WARD":"Ward 6","ZIPCODE":"20002","ADDRID":72476},"geometry":{"type":"Point","coordinates":[-76.99286118671354,38.89149735237681]}},{"type":"Feature","properties":{"OBJECTID":137,"NAME":"Hogan Lovells Emergency Child Care","TYPE":"CDC (Child Development Center)","ADDRESS":"555 13TH STREET NW","XCOORD":397453.61,"YCOORD":136572.32,"WARD":"Ward 2","ZIPCODE":"20004","ADDRID":240935},"geometry":{"type":"Point","coordinates":[-77.02935633210859,38.89700448108541]}},{"type":"Feature","properties":{"OBJECTID":138,"NAME":"Home Away From Home","TYPE":"CDC (Child Development Center)","ADDRESS":"414 R STREET NW","XCOORD":398538.88,"YCOORD":138287.71,"WARD":"Ward 5","ZIPCODE":"20001","ADDRID":237354},"geometry":{"type":"Point","coordinates":[-77.01684930353669,38.91245979299823]}},{"type":"Feature","properties":{"OBJECTID":139,"NAME":"House Of Ruth Kidspace","TYPE":"CDC (Child Development Center)","ADDRESS":"4115 ALABAMA AVENUE SE","XCOORD":405000.19,"YCOORD":133650.99,"WARD":"Ward 7","ZIPCODE":"20019","ADDRID":26681},"geometry":{"type":"Point","coordinates":[-76.94238279646873,38.87067748896646]}},{"type":"Feature","properties":{"OBJECTID":140,"NAME":"House Of Ruth-kidspace Infant","TYPE":"CDC (Child Development Center)","ADDRESS":"2916 PENNSYLVANIA AVENUE SE","XCOORD":403006.53,"YCOORD":133757.38,"WARD":"Ward 7","ZIPCODE":"20020","ADDRID":43375},"geometry":{"type":"Point","coordinates":[-76.96535618790126,38.871644968237035]}},{"type":"Feature","properties":{"OBJECTID":141,"NAME":"Howard University Early Learning Program","TYPE":"CDC (Child Development Center)","ADDRESS":"531 COLLEGE STREET NW","XCOORD":398208.88,"YCOORD":139269.81,"WARD":"Ward 1","ZIPCODE":"20059","ADDRID":291470},"geometry":{"type":"Point","coordinates":[-77.02065683506771,38.92130626556322]}},{"type":"Feature","properties":{"OBJECTID":142,"NAME":"Chantelle's Quality Child Care Cent","TYPE":"CDC (Child Development Center)","ADDRESS":"4221 7TH STREET NW","XCOORD":398140.38,"YCOORD":141654.06,"WARD":"Ward 4","ZIPCODE":"20011","ADDRID":247500},"geometry":{"type":"Point","coordinates":[-77.02145321426028,38.94278417892448]}},{"type":"Feature","properties":{"OBJECTID":143,"NAME":"Charlene Edmondson","TYPE":"CDH (Child Development Home)","ADDRESS":"5538 B STREET SE","XCOORD":406892.26,"YCOORD":135302.1,"WARD":"Ward 7","ZIPCODE":"20019","ADDRID":7739},"geometry":{"type":"Point","coordinates":[-76.92056305863933,38.885538541508765]}},{"type":"Feature","properties":{"OBJECTID":144,"NAME":"Chevy Chase Presbyterian Church","TYPE":"CDC (Child Development Center)","ADDRESS":"1 CHEVY CHASE CIRCLE NW","XCOORD":393435.96,"YCOORD":144371,"WARD":"Ward 3","ZIPCODE":"20015","ADDRID":283905},"geometry":{"type":"Point","coordinates":[-77.07574522255659,38.96723653625855]}},{"type":"Feature","properties":{"OBJECTID":145,"NAME":"Chevy Chase-bethesda Community Children Center","TYPE":"CDC (Child Development Center)","ADDRESS":"5671 WESTERN AVENUE NW","XCOORD":393224.65,"YCOORD":144266.69,"WARD":"Ward 3","ZIPCODE":"20015","ADDRID":264763},"geometry":{"type":"Point","coordinates":[-77.0781825119746,38.96629528152476]}},{"type":"Feature","properties":{"OBJECTID":146,"NAME":"Children First Inc. Of Washington Dc","TYPE":"CDC (Child Development Center)","ADDRESS":"1725 I STREET NW","XCOORD":396499.6,"YCOORD":137085.84,"WARD":"Ward 2","ZIPCODE":"20006","ADDRID":279349},"geometry":{"type":"Point","coordinates":[-77.04035649981758,38.901627172858156]}},{"type":"Feature","properties":{"OBJECTID":147,"NAME":"Children's Creative Learning Center","TYPE":"CDC (Child Development Center)","ADDRESS":"1875 I STREET NW","XCOORD":396281.88,"YCOORD":137075.69,"WARD":"Ward 2","ZIPCODE":"20006","ADDRID":279443},"geometry":{"type":"Point","coordinates":[-77.04286642049793,38.90153484398554]}},{"type":"Feature","properties":{"OBJECTID":148,"NAME":"Children's Creative Learning Center","TYPE":"CDC (Child Development Center)","ADDRESS":"1225 CONNECTICUT AVENUE NW","XCOORD":396406.46,"YCOORD":137679.78,"WARD":"Ward 2","ZIPCODE":"20036","ADDRID":241767},"geometry":{"type":"Point","coordinates":[-77.04143336821608,38.90697721780703]}},{"type":"Feature","properties":{"OBJECTID":149,"NAME":"Children's Creative Learning Center Inc.","TYPE":"CDC (Child Development Center)","ADDRESS":"2200 PENNSYLVANIA AVENUE NW","XCOORD":395725.86,"YCOORD":137121.43,"WARD":"Ward 2","ZIPCODE":"20037","ADDRID":306440},"geometry":{"type":"Point","coordinates":[-77.04927674921609,38.901944358231]}},{"type":"Feature","properties":{"OBJECTID":150,"NAME":"Children's Creative Learning Center, Inc","TYPE":"CDC (Child Development Center)","ADDRESS":"2033 K STREET NW","XCOORD":395979.6,"YCOORD":137244,"WARD":"Ward 2","ZIPCODE":"20006","ADDRID":243320},"geometry":{"type":"Point","coordinates":[-77.04635222313287,38.903049709588274]}},{"type":"Feature","properties":{"OBJECTID":151,"NAME":"Children's House Of Washington","TYPE":"CDC (Child Development Center)","ADDRESS":"3133 DUMBARTON STREET NW","XCOORD":394577.09,"YCOORD":137783.23,"WARD":"Ward 2","ZIPCODE":"20007","ADDRID":275439},"geometry":{"type":"Point","coordinates":[-77.0625255777355,38.907899747463944]}},{"type":"Feature","properties":{"OBJECTID":152,"NAME":"Children's Hut","TYPE":"CDC (Child Development Center)","ADDRESS":"510 KENNEDY STREET NW","XCOORD":398222.93,"YCOORD":143138.5,"WARD":"Ward 4","ZIPCODE":"20011","ADDRID":285080},"geometry":{"type":"Point","coordinates":[-77.0205048371844,38.95615659633425]}},{"type":"Feature","properties":{"OBJECTID":153,"NAME":"Christian Family Montessori School Inc.","TYPE":"CDC (Child Development Center)","ADDRESS":"201 ALLISON STREET NW","XCOORD":398830.95,"YCOORD":141994.53,"WARD":"Ward 4","ZIPCODE":"20011","ADDRID":284159},"geometry":{"type":"Point","coordinates":[-77.01348799131542,38.94585242071146]}},{"type":"Feature","properties":{"OBJECTID":154,"NAME":"Christian Tabernacle Child Development Center  2","TYPE":"CDC (Child Development Center)","ADDRESS":"2033 11TH STREET NW","XCOORD":397676.62,"YCOORD":138894.34,"WARD":"Ward 1","ZIPCODE":"20001","ADDRID":239193},"geometry":{"type":"Point","coordinates":[-77.02679339432176,38.917922662487825]}},{"type":"Feature","properties":{"OBJECTID":155,"NAME":"Christian Tabernacle Of God Inc","TYPE":"CDC (Child Development Center)","ADDRESS":"1000 V STREET NW","XCOORD":397715.21,"YCOORD":138887.25,"WARD":"Ward 1","ZIPCODE":"20001","ADDRID":283908},"geometry":{"type":"Point","coordinates":[-77.0263483858884,38.91785889461505]}},{"type":"Feature","properties":{"OBJECTID":156,"NAME":"Cleotilde Galvez Kimmell","TYPE":"CDX (Child Development Home Expanded)","ADDRESS":"6524 8TH STREET NW","XCOORD":397886.03,"YCOORD":144642.93,"WARD":"Ward 4","ZIPCODE":"20012","ADDRID":253994},"geometry":{"type":"Point","coordinates":[-77.02439638486702,38.969708135996875]}},{"type":"Feature","properties":{"OBJECTID":157,"NAME":"Cleveland Park Kinderhaus","TYPE":"CDC (Child Development Center)","ADDRESS":"3400 LOWELL STREET NW","XCOORD":394218.36,"YCOORD":140494.56,"WARD":"Ward 3","ZIPCODE":"20016","ADDRID":221258},"geometry":{"type":"Point","coordinates":[-77.0666843797538,38.932322002149036]}},{"type":"Feature","properties":{"OBJECTID":158,"NAME":"Combined Federal Agencies/Us Kids C","TYPE":"CDC (Child Development Center)","ADDRESS":"1425 NEW YORK AVENUE NW","XCOORD":397174.19,"YCOORD":136849.53,"WARD":"Ward 2","ZIPCODE":"20005","ADDRID":300903},"geometry":{"type":"Point","coordinates":[-77.03257854543693,38.89950083535044]}},{"type":"Feature","properties":{"OBJECTID":159,"NAME":"Commerce Department Child Care","TYPE":"CDC (Child Development Center)","ADDRESS":"1500 PENNSYLVANIA AVENUE NW","XCOORD":397021.71,"YCOORD":136699.68,"WARD":"Ward 2","ZIPCODE":"20229","ADDRID":297687},"geometry":{"type":"Point","coordinates":[-77.0343357024248,38.89815042891565]}},{"type":"Feature","properties":{"OBJECTID":160,"NAME":"Communikids Preschool Llc","TYPE":"CDC (Child Development Center)","ADDRESS":"4719 WISCONSIN AVENUE NW","XCOORD":393005.31,"YCOORD":142627.07,"WARD":"Ward 3","ZIPCODE":"20016","ADDRID":300798},"geometry":{"type":"Point","coordinates":[-77.08069673274322,38.95152344365042]}},{"type":"Feature","properties":{"OBJECTID":161,"NAME":"Community Educational Research Group","TYPE":"CDC (Child Development Center)","ADDRESS":"4021 MINNESOTA AVENUE NE","XCOORD":404487.1,"YCOORD":136427.62,"WARD":"Ward 7","ZIPCODE":"20019","ADDRID":27825},"geometry":{"type":"Point","coordinates":[-76.94827723883073,38.895693209928986]}},{"type":"Feature","properties":{"OBJECTID":162,"NAME":"Community Educational Research Group","TYPE":"CDC (Child Development Center)","ADDRESS":"1105 50TH STREET NE","XCOORD":406221.45,"YCOORD":137463.2,"WARD":"Ward 7","ZIPCODE":"20019","ADDRID":74277},"geometry":{"type":"Point","coordinates":[-76.92827514752831,38.90501152158919]}},{"type":"Feature","properties":{"OBJECTID":163,"NAME":"Covenant House Child Development Center","TYPE":"CDC (Child Development Center)","ADDRESS":"2001 MISSISSIPPI AVENUE SE","XCOORD":402236.97,"YCOORD":130644.33,"WARD":"Ward 8","ZIPCODE":"20020","ADDRID":295846},"geometry":{"type":"Point","coordinates":[-76.97423442470252,38.843603582453284]}},{"type":"Feature","properties":{"OBJECTID":164,"NAME":"Creative Korner Early Learning Center","TYPE":"CDC (Child Development Center)","ADDRESS":"3223 23RD STREET SE","XCOORD":402287.1,"YCOORD":131421.03,"WARD":"Ward 8","ZIPCODE":"20020","ADDRID":302077},"geometry":{"type":"Point","coordinates":[-76.97365439098668,38.85060031002632]}},{"type":"Feature","properties":{"OBJECTID":165,"NAME":"Curious Mind Child Development Center","TYPE":"CDC (Child Development Center)","ADDRESS":"5309 GEORGIA AVENUE NW","XCOORD":397613.78,"YCOORD":142952.54,"WARD":"Ward 4","ZIPCODE":"20011","ADDRID":254651},"geometry":{"type":"Point","coordinates":[-77.02753212245717,38.95447997520533]}},{"type":"Feature","properties":{"OBJECTID":166,"NAME":"Cynthia Davis","TYPE":"CDH (Child Development Home)","ADDRESS":"4831 9TH STREET NW","XCOORD":397815.44,"YCOORD":142409.3,"WARD":"Ward 4","ZIPCODE":"20011","ADDRID":251948},"geometry":{"type":"Point","coordinates":[-77.02520383935689,38.949586846145266]}},{"type":"Feature","properties":{"OBJECTID":167,"NAME":"D.I.W.V.A Dba/ Little Scholars At Play Academy","TYPE":"CDC (Child Development Center)","ADDRESS":"1546 5TH STREET NW","XCOORD":398332.04,"YCOORD":138119.38,"WARD":"Ward 6","ZIPCODE":"20001","ADDRID":279234},"geometry":{"type":"Point","coordinates":[-77.01923380296468,38.91094305066179]}},{"type":"Feature","properties":{"OBJECTID":168,"NAME":"Dalia Perez Barrious","TYPE":"CDH (Child Development Home)","ADDRESS":"5123 12TH STREET NE","XCOORD":400923.03,"YCOORD":142933.64,"WARD":"Ward 5","ZIPCODE":"20011","ADDRID":12786},"geometry":{"type":"Point","coordinates":[-76.9893533089314,38.954312476607456]}},{"type":"Feature","properties":{"OBJECTID":169,"NAME":"Damaris Mejia Vasquez","TYPE":"CDH (Child Development Home)","ADDRESS":"707 SOMERSET PLACE NW","XCOORD":398013.89,"YCOORD":144326.76,"WARD":"Ward 4","ZIPCODE":"20011","ADDRID":250647},"geometry":{"type":"Point","coordinates":[-77.02292003197027,38.96686029819982]}},{"type":"Feature","properties":{"OBJECTID":170,"NAME":"Danbury Day Care Center #2","TYPE":"CDC (Child Development Center)","ADDRESS":"1634 16TH STREET SE","XCOORD":401562.79,"YCOORD":133550.09,"WARD":"Ward 8","ZIPCODE":"20020","ADDRID":58913},"geometry":{"type":"Point","coordinates":[-76.9819937621593,38.8697813659604]}},{"type":"Feature","properties":{"OBJECTID":171,"NAME":"David's Stars Child Development Center","TYPE":"CDC (Child Development Center)","ADDRESS":"2711 ONTARIO ROAD NW","XCOORD":396505.95,"YCOORD":139658.05,"WARD":"Ward 1","ZIPCODE":"20009","ADDRID":235943},"geometry":{"type":"Point","coordinates":[-77.04029638442415,38.92479853468689]}},{"type":"Feature","properties":{"OBJECTID":172,"NAME":"Dawn To Dusk Child Dev. Center Ii","TYPE":"CDC (Child Development Center)","ADDRESS":"2907 7TH STREET SE","XCOORD":400330.34,"YCOORD":130881.53,"WARD":"Ward 8","ZIPCODE":"20032","ADDRID":43568},"geometry":{"type":"Point","coordinates":[-76.99619695054218,38.84574316693356]}},{"type":"Feature","properties":{"OBJECTID":173,"NAME":"Dawn To Dusk Child Development Cent","TYPE":"CDC (Child Development Center)","ADDRESS":"657 LEBAUM STREET SE","XCOORD":400335.69,"YCOORD":130907.06,"WARD":"Ward 8","ZIPCODE":"20032","ADDRID":1206},"geometry":{"type":"Point","coordinates":[-76.99613530912897,38.845973150476084]}},{"type":"Feature","properties":{"OBJECTID":174,"NAME":"Dc Childcare Llc","TYPE":"CDC (Child Development Center)","ADDRESS":"501 E STREET SE","XCOORD":400064.47,"YCOORD":134963.77,"WARD":"Ward 6","ZIPCODE":"20003","ADDRID":15241},"geometry":{"type":"Point","coordinates":[-76.999259241828,38.882517743611864]}},{"type":"Feature","properties":{"OBJECTID":175,"NAME":"Dc Citywide Welfare Rights Org","TYPE":"CDC (Child Development Center)","ADDRESS":"2458 MARTIN LUTHER KING JR AVENUE SE","XCOORD":400585.76,"YCOORD":132619.91,"WARD":"Ward 8","ZIPCODE":"20020","ADDRID":287071},"geometry":{"type":"Point","coordinates":[-76.99325317728683,38.86140311239645]}},{"type":"Feature","properties":{"OBJECTID":176,"NAME":"Dc Prep Academy Benning Elem. Campus","TYPE":"CDC (Child Development Center)","ADDRESS":"100 41ST STREET NE","XCOORD":404787,"YCOORD":135910.06,"WARD":"Ward 7","ZIPCODE":"20019","ADDRID":294468},"geometry":{"type":"Point","coordinates":[-76.94482374836551,38.891029256528704]}},{"type":"Feature","properties":{"OBJECTID":177,"NAME":"Dc Prep Academy Edgewood  Elem. Campus","TYPE":"CDC (Child Development Center)","ADDRESS":"707 EDGEWOOD STREET NE","XCOORD":400369.83,"YCOORD":139600.22,"WARD":"Ward 5","ZIPCODE":"20017","ADDRID":289577},"geometry":{"type":"Point","coordinates":[-76.99573736068795,38.92428445392179]}},{"type":"Feature","properties":{"OBJECTID":178,"NAME":"Dc Superior Court Child Care Center","TYPE":"CDC (Child Development Center)","ADDRESS":"500 INDIANA AVENUE NW","XCOORD":398360,"YCOORD":136248.81,"WARD":"Ward 2","ZIPCODE":"20001","ADDRID":285553},"geometry":{"type":"Point","coordinates":[-77.01890695777931,38.89409234281498]}},{"type":"Feature","properties":{"OBJECTID":179,"NAME":"Dcjcc Preschool","TYPE":"CDC (Child Development Center)","ADDRESS":"1529 16TH STREET NW","XCOORD":396881.95,"YCOORD":138113.53,"WARD":"Ward 2","ZIPCODE":"20036","ADDRID":225737},"geometry":{"type":"Point","coordinates":[-77.03595326057285,38.91088640307446]}},{"type":"Feature","properties":{"OBJECTID":180,"NAME":"De Colores Learning Center","TYPE":"CDC (Child Development Center)","ADDRESS":"6216 3RD STREET NW","XCOORD":398577.63,"YCOORD":144180.69,"WARD":"Ward 4","ZIPCODE":"20011","ADDRID":285581},"geometry":{"type":"Point","coordinates":[-77.01641472719079,38.96554555771957]}},{"type":"Feature","properties":{"OBJECTID":181,"NAME":"De Colores Learning Center #2","TYPE":"CDC (Child Development Center)","ADDRESS":"308 SHERIDAN STREET NW","XCOORD":398570.09,"YCOORD":144225.69,"WARD":"Ward 4","ZIPCODE":"20011","ADDRID":284574},"geometry":{"type":"Point","coordinates":[-77.01650182359695,38.96595091663834]}},{"type":"Feature","properties":{"OBJECTID":182,"NAME":"Deliverance Child Care Center ","TYPE":"CDC (Child Development Center)","ADDRESS":"441 CHAPLIN STREET SE","XCOORD":405020.86,"YCOORD":135089.02,"WARD":"Ward 7","ZIPCODE":"20019","ADDRID":288204},"geometry":{"type":"Point","coordinates":[-76.94213410294405,38.88363171290243]}},{"type":"Feature","properties":{"OBJECTID":183,"NAME":"Delores Ford/Ma Dear's Loving & Caring Arms","TYPE":"CDH (Child Development Home)","ADDRESS":"740 OGLETHORPE STREET NE","XCOORD":400350.43,"YCOORD":143513.64,"WARD":"Ward 4","ZIPCODE":"20011","ADDRID":116905},"geometry":{"type":"Point","coordinates":[-76.99595908716796,38.959537684545886]}},{"type":"Feature","properties":{"OBJECTID":184,"NAME":"Delores Woods","TYPE":"CDH (Child Development Home)","ADDRESS":"3668 HAYES STREET NE","XCOORD":404123.37,"YCOORD":137525.77,"WARD":"Ward 7","ZIPCODE":"20019","ADDRID":287988},"geometry":{"type":"Point","coordinates":[-76.952463543985,38.90558751945518]}},{"type":"Feature","properties":{"OBJECTID":185,"NAME":"Dequilla Lynn Thomas","TYPE":"CDH (Child Development Home)","ADDRESS":"3128 BANNEKER DRIVE NE","XCOORD":403269.07,"YCOORD":139690.21,"WARD":"Ward 5","ZIPCODE":"20018","ADDRID":287590},"geometry":{"type":"Point","coordinates":[-76.96230254761115,38.925089110882624]}},{"type":"Feature","properties":{"OBJECTID":186,"NAME":"Diane Gallmon","TYPE":"CDH (Child Development Home)","ADDRESS":"324 17TH STREET NE","XCOORD":401646.36,"YCOORD":136258.18,"WARD":"Ward 6","ZIPCODE":"20002","ADDRID":37872},"geometry":{"type":"Point","coordinates":[-76.98102427287647,38.89417674076089]}},{"type":"Feature","properties":{"OBJECTID":187,"NAME":"Diane Jackson","TYPE":"CDH (Child Development Home)","ADDRESS":"4962 JUST STREET NE","XCOORD":406012.21,"YCOORD":137207.95,"WARD":"Ward 7","ZIPCODE":"20019","ADDRID":288380},"geometry":{"type":"Point","coordinates":[-76.93068971008687,38.9027135958967]}},{"type":"Feature","properties":{"OBJECTID":188,"NAME":"Dilsia Teresa Linares","TYPE":"CDH (Child Development Home)","ADDRESS":"717 KENYON STREET NW","XCOORD":397889.56,"YCOORD":140254.1,"WARD":"Ward 1","ZIPCODE":"20010","ADDRID":232964},"geometry":{"type":"Point","coordinates":[-77.02434214491737,38.93017235343525]}},{"type":"Feature","properties":{"OBJECTID":189,"NAME":"Diplotots, Inc.","TYPE":"CDC (Child Development Center)","ADDRESS":"2401 E STREET NW","XCOORD":395496.47,"YCOORD":136520.71,"WARD":"Ward 2","ZIPCODE":"20226","ADDRID":274047},"geometry":{"type":"Point","coordinates":[-77.05191733480669,38.8965317107577]}},{"type":"Feature","properties":{"OBJECTID":190,"NAME":"Discovering You Child Development Center","TYPE":"CDC (Child Development Center)","ADDRESS":"3552 EAST CAPITOL STREET NE","XCOORD":404017.04,"YCOORD":135818.66,"WARD":"Ward 7","ZIPCODE":"20019","ADDRID":287976},"geometry":{"type":"Point","coordinates":[-76.95369941461601,38.8902097460924]}},{"type":"Feature","properties":{"OBJECTID":191,"NAME":"Dora Soravia","TYPE":"CDH (Child Development Home)","ADDRESS":"2201 15TH STREET NW","XCOORD":397003.42,"YCOORD":139057.84,"WARD":"Ward 1","ZIPCODE":"20009","ADDRID":234158},"geometry":{"type":"Point","coordinates":[-77.03455683886041,38.91939348639072]}},{"type":"Feature","properties":{"OBJECTID":192,"NAME":"Doris S Haney","TYPE":"CDH (Child Development Home)","ADDRESS":"3826 EAST CAPITOL STREET NE","XCOORD":404303.52,"YCOORD":135802.32,"WARD":"Ward 7","ZIPCODE":"20019","ADDRID":29970},"geometry":{"type":"Point","coordinates":[-76.95039737328445,38.89006119371778]}},{"type":"Feature","properties":{"OBJECTID":193,"NAME":"Eagle Academy Public Charter School  #1","TYPE":"CDC (Child Development Center)","ADDRESS":"3400 WHEELER ROAD SE","XCOORD":400604.46,"YCOORD":130274.71,"WARD":"Ward 8","ZIPCODE":"20032","ADDRID":294566},"geometry":{"type":"Point","coordinates":[-76.99303977622442,38.84027651513957]}},{"type":"Feature","properties":{"OBJECTID":194,"NAME":"Eagle Academy Public Charter School #2","TYPE":"CDC (Child Development Center)","ADDRESS":"1017 NEW JERSEY AVENUE SE","XCOORD":399558.98,"YCOORD":134445.1,"WARD":"Ward 6","ZIPCODE":"20003","ADDRID":276169},"geometry":{"type":"Point","coordinates":[-77.00508486830242,38.87784525262435]}},{"type":"Feature","properties":{"OBJECTID":195,"NAME":"Easter Seals Serving DC/MD/VA Inc","TYPE":"CDC (Child Development Center)","ADDRESS":"2800 13TH STREET NW","XCOORD":397391.3,"YCOORD":139798.73,"WARD":"Ward 1","ZIPCODE":"20009","ADDRID":231593},"geometry":{"type":"Point","coordinates":[-77.03008688270597,38.92606889955697]}},{"type":"Feature","properties":{"OBJECTID":196,"NAME":"Ec Mazique Parent Child Center","TYPE":"CDC (Child Development Center)","ADDRESS":"1719 13TH STREET NW","XCOORD":397460.67,"YCOORD":138379.01,"WARD":"Ward 2","ZIPCODE":"20009","ADDRID":240868},"geometry":{"type":"Point","coordinates":[-77.0292816273956,38.91327980002091]}},{"type":"Feature","properties":{"OBJECTID":197,"NAME":"Ec Mazique Wardman Court Child Dev","TYPE":"CDC (Child Development Center)","ADDRESS":"1308 CLIFTON STREET NW","XCOORD":397376.44,"YCOORD":139359.38,"WARD":"Ward 1","ZIPCODE":"20009","ADDRID":232076},"geometry":{"type":"Point","coordinates":[-77.03025657486556,38.92211104985949]}},{"type":"Feature","properties":{"OBJECTID":198,"NAME":"Edna De Leon/Peaceful Play Bilingual Cdh","TYPE":"CDH (Child Development Home)","ADDRESS":"823 INGRAHAM STREET NW","XCOORD":397841.37,"YCOORD":142938.86,"WARD":"Ward 4","ZIPCODE":"20011","ADDRID":254684},"geometry":{"type":"Point","coordinates":[-77.02490637222732,38.95435733098665]}},{"type":"Feature","properties":{"OBJECTID":199,"NAME":"Educare Of Washington DC","TYPE":"CDC (Child Development Center)","ADDRESS":"640 ANACOSTIA AVENUE NE","XCOORD":404079.16,"YCOORD":136970.02,"WARD":"Ward 7","ZIPCODE":"20019","ADDRID":309405},"geometry":{"type":"Point","coordinates":[-76.95297654565475,38.90058133292465]}},{"type":"Feature","properties":{"OBJECTID":200,"NAME":"Edward C. Mazique @ Developing Families Center","TYPE":"CDC (Child Development Center)","ADDRESS":"801 17TH STREET NE","XCOORD":401888.91,"YCOORD":136995.37,"WARD":"Ward 5","ZIPCODE":"20002","ADDRID":288960},"geometry":{"type":"Point","coordinates":[-76.97822631080221,38.900817129071406]}},{"type":"Feature","properties":{"OBJECTID":201,"NAME":"Edward C. Mazique Parent Child Center, Inc.","TYPE":"CDC (Child Development Center)","ADDRESS":"2000 14TH STREET NW","XCOORD":397189.88,"YCOORD":138842.23,"WARD":"Ward 1","ZIPCODE":"20009","ADDRID":239976},"geometry":{"type":"Point","coordinates":[-77.03240582453643,38.91745181655676]}},{"type":"Feature","properties":{"OBJECTID":202,"NAME":"Eleanor Jackson","TYPE":"CDH (Child Development Home)","ADDRESS":"4926 MINNESOTA AVENUE NE","XCOORD":405901.22,"YCOORD":138012.26,"WARD":"Ward 7","ZIPCODE":"20019","ADDRID":16113},"geometry":{"type":"Point","coordinates":[-76.93196236210302,38.909959851970626]}},{"type":"Feature","properties":{"OBJECTID":203,"NAME":"Elisabeth Hando","TYPE":"CDH (Child Development Home)","ADDRESS":"240 QUACKENBOS STREET NE","XCOORD":399741.66,"YCOORD":144003.04,"WARD":"Ward 4","ZIPCODE":"20011","ADDRID":47837},"geometry":{"type":"Point","coordinates":[-77.00298315353386,38.96394635640805]}},{"type":"Feature","properties":{"OBJECTID":204,"NAME":"Elizabeth  Palomino","TYPE":"CDH (Child Development Home)","ADDRESS":"5728 OREGON AVENUE NW","XCOORD":395266.86,"YCOORD":144279.6,"WARD":"Ward 4","ZIPCODE":"20015","ADDRID":259942},"geometry":{"type":"Point","coordinates":[-77.05461770929719,38.96642495953091]}},{"type":"Feature","properties":{"OBJECTID":205,"NAME":"Elonda J. Edwards / Elonda's Child Care","TYPE":"CDH (Child Development Home)","ADDRESS":"816 6TH STREET NE","XCOORD":400113.58,"YCOORD":136982.66,"WARD":"Ward 6","ZIPCODE":"20002","ADDRID":80385},"geometry":{"type":"Point","coordinates":[-76.9986928982386,38.90070465422406]}},{"type":"Feature","properties":{"OBJECTID":206,"NAME":"Elsa D. Gaiem/Our Children First","TYPE":"CDH (Child Development Home)","ADDRESS":"27 GIRARD STREET NE","XCOORD":399349.19,"YCOORD":139774.76,"WARD":"Ward 5","ZIPCODE":"20002","ADDRID":45364},"geometry":{"type":"Point","coordinates":[-77.0075076702988,38.92585660229698]}},{"type":"Feature","properties":{"OBJECTID":207,"NAME":"Elvera Patrick","TYPE":"CDH (Child Development Home)","ADDRESS":"3304 BROTHERS PLACE SE","XCOORD":399819.97,"YCOORD":130602.63,"WARD":"Ward 8","ZIPCODE":"20032","ADDRID":37018},"geometry":{"type":"Point","coordinates":[-77.00207605072428,38.84323075483176]}},{"type":"Feature","properties":{"OBJECTID":208,"NAME":"Emergent Preparatory Academy","TYPE":"CDC (Child Development Center)","ADDRESS":"2801 STANTON ROAD SE","XCOORD":401098.25,"YCOORD":132124.24,"WARD":"Ward 8","ZIPCODE":"20020","ADDRID":44747},"geometry":{"type":"Point","coordinates":[-76.98734907885574,38.85693741655958]}},{"type":"Feature","properties":{"OBJECTID":209,"NAME":"Emergent Preparatory Academy  II","TYPE":"CDC (Child Development Center)","ADDRESS":"227 42ND STREET NE","XCOORD":405000.07,"YCOORD":136197.75,"WARD":"Ward 7","ZIPCODE":"20019","ADDRID":49172},"geometry":{"type":"Point","coordinates":[-76.94236565162689,38.89361968882344]}},{"type":"Feature","properties":{"OBJECTID":210,"NAME":"Episcopal Center For Children","TYPE":"CDC (Child Development Center)","ADDRESS":"5901 UTAH AVENUE NW","XCOORD":394748.64,"YCOORD":144422.79,"WARD":"Ward 4","ZIPCODE":"20015","ADDRID":260122},"geometry":{"type":"Point","coordinates":[-77.06059851429694,38.967711903973466]}},{"type":"Feature","properties":{"OBJECTID":211,"NAME":"Estrellitas Child Development Center","TYPE":"CDC (Child Development Center)","ADDRESS":"5331 COLORADO AVENUE NW","XCOORD":397074.5,"YCOORD":143015.36,"WARD":"Ward 4","ZIPCODE":"20011","ADDRID":255845},"geometry":{"type":"Point","coordinates":[-77.03375406678951,38.95504424375525]}},{"type":"Feature","properties":{"OBJECTID":212,"NAME":"Euphemia L. Haynes Public Charter School","TYPE":"CDC (Child Development Center)","ADDRESS":"4501 KANSAS AVENUE NW","XCOORD":398056.76,"YCOORD":141967.7,"WARD":"Ward 4","ZIPCODE":"20011","ADDRID":284930},"geometry":{"type":"Point","coordinates":[-77.02241866898952,38.945609356735694]}},{"type":"Feature","properties":{"OBJECTID":213,"NAME":"Evelyn Armstrong","TYPE":"CDH (Child Development Home)","ADDRESS":"5222 CENTRAL AVENUE SE","XCOORD":406407.67,"YCOORD":135591.52,"WARD":"Ward 7","ZIPCODE":"20019","ADDRID":11288},"geometry":{"type":"Point","coordinates":[-76.9261456739523,38.888149411358405]}},{"type":"Feature","properties":{"OBJECTID":214,"NAME":"Fannie Mae Emergency Child Care Center","TYPE":"CDC (Child Development Center)","ADDRESS":"4000 WISCONSIN AVENUE NW","XCOORD":393333.56,"YCOORD":141535.98,"WARD":"Ward 3","ZIPCODE":"20016","ADDRID":222230},"geometry":{"type":"Point","coordinates":[-77.07689926523821,38.94169715324728]}},{"type":"Feature","properties":{"OBJECTID":215,"NAME":"Fathema Johra","TYPE":"CDH (Child Development Home)","ADDRESS":"602 TUCKERMAN STREET NW","XCOORD":398148.97,"YCOORD":144355.61,"WARD":"Ward 4","ZIPCODE":"20011","ADDRID":251514},"geometry":{"type":"Point","coordinates":[-77.02136142038323,38.96712048124399]}},{"type":"Feature","properties":{"OBJECTID":216,"NAME":"Federal Home Loan Bank Board Small Saver Cdc","TYPE":"CDC (Child Development Center)","ADDRESS":"1800 F STREET NW","XCOORD":396307.35,"YCOORD":136585.96,"WARD":"Ward 2","ZIPCODE":"20405","ADDRID":291709},"geometry":{"type":"Point","coordinates":[-77.04257015816167,38.897123287026425]}},{"type":"Feature","properties":{"OBJECTID":217,"NAME":"Huckleberry Cheesecake/Sonnenberg & Maier, Llc","TYPE":"CDC (Child Development Center)","ADDRESS":"1307 19TH STREET NW","XCOORD":396253.45,"YCOORD":137758.94,"WARD":"Ward 2","ZIPCODE":"20036","ADDRID":301805},"geometry":{"type":"Point","coordinates":[-77.04319790160142,38.90768967963275]}},{"type":"Feature","properties":{"OBJECTID":218,"NAME":"I-care Child Development Center","TYPE":"CDC (Child Development Center)","ADDRESS":"3737 12TH STREET NE","XCOORD":400787.3,"YCOORD":140873.49,"WARD":"Ward 5","ZIPCODE":"20017","ADDRID":31063},"geometry":{"type":"Point","coordinates":[-76.99092158622757,38.935754190829584]}},{"type":"Feature","properties":{"OBJECTID":219,"NAME":"Idb/Iic Child Care Center Inc","TYPE":"CDC (Child Development Center)","ADDRESS":"1300 NEW YORK AVENUE NW","XCOORD":397351.93,"YCOORD":136839.32,"WARD":"Ward 2","ZIPCODE":"20577","ADDRID":242919},"geometry":{"type":"Point","coordinates":[-77.03052949911431,38.89940941346337]}},{"type":"Feature","properties":{"OBJECTID":220,"NAME":"Ideal Child Care Development Center","TYPE":"CDC (Child Development Center)","ADDRESS":"3816 4TH STREET NW","XCOORD":398505,"YCOORD":141207.34,"WARD":"Ward 4","ZIPCODE":"20011","ADDRID":247888},"geometry":{"type":"Point","coordinates":[-77.0172463076012,38.93876069099907]}},{"type":"Feature","properties":{"OBJECTID":221,"NAME":"Institute Of Our Lady Of Mt Carmel","TYPE":"CDC (Child Development Center)","ADDRESS":"4407 8TH STREET NE","XCOORD":400450.92,"YCOORD":141745.76,"WARD":"Ward 5","ZIPCODE":"20017","ADDRID":289252},"geometry":{"type":"Point","coordinates":[-76.99480081237927,38.94361209239523]}},{"type":"Feature","properties":{"OBJECTID":222,"NAME":"Intown Play Group, Inc.","TYPE":"CDC (Child Development Center)","ADDRESS":"1334 29TH STREET NW","XCOORD":394936.6,"YCOORD":137795.33,"WARD":"Ward 2","ZIPCODE":"20007","ADDRID":223532},"geometry":{"type":"Point","coordinates":[-77.05838070733513,38.90801089317842]}},{"type":"Feature","properties":{"OBJECTID":223,"NAME":"Isle Of Patmos Christian Learning Center","TYPE":"CDC (Child Development Center)","ADDRESS":"1216 SARATOGA AVENUE NE","XCOORD":400920.03,"YCOORD":139434.75,"WARD":"Ward 5","ZIPCODE":"20018","ADDRID":300658},"geometry":{"type":"Point","coordinates":[-76.98939260940462,38.92279344339744]}},{"type":"Feature","properties":{"OBJECTID":224,"NAME":"Israel Baptist Church CDC","TYPE":"CDC (Child Development Center)","ADDRESS":"1251 SARATOGA AVENUE NE","XCOORD":400923.31,"YCOORD":139312,"WARD":"Ward 5","ZIPCODE":"20018","ADDRID":69666},"geometry":{"type":"Point","coordinates":[-76.98935494987084,38.921687668228316]}},{"type":"Feature","properties":{"OBJECTID":225,"NAME":"Jacqueline Valentine","TYPE":"CDH (Child Development Home)","ADDRESS":"117 U STREET NE","XCOORD":399482.75,"YCOORD":138771.95,"WARD":"Ward 5","ZIPCODE":"20002","ADDRID":72443},"geometry":{"type":"Point","coordinates":[-77.00596665011514,38.91682305252004]}},{"type":"Feature","properties":{"OBJECTID":226,"NAME":"Jas All Saints All Day Childcare Center","TYPE":"CDC (Child Development Center)","ADDRESS":"6045 16TH STREET NW","XCOORD":396883.1,"YCOORD":144017.12,"WARD":"Ward 4","ZIPCODE":"20011","ADDRID":256159},"geometry":{"type":"Point","coordinates":[-77.03596682087621,38.96406769850435]}},{"type":"Feature","properties":{"OBJECTID":227,"NAME":"Jeannette Dunn","TYPE":"CDH (Child Development Home)","ADDRESS":"3002 25TH STREET NE","XCOORD":402476.21,"YCOORD":140011.42,"WARD":"Ward 5","ZIPCODE":"20018","ADDRID":42379},"geometry":{"type":"Point","coordinates":[-76.97144484923817,38.92798526365255]}},{"type":"Feature","properties":{"OBJECTID":228,"NAME":"Jenkins Hill Child Development Center","TYPE":"CDC (Child Development Center)","ADDRESS":"1527 PENNSYLVANIA AVENUE SE","XCOORD":401498.02,"YCOORD":134557.53,"WARD":"Ward 6","ZIPCODE":"20003","ADDRID":61368},"geometry":{"type":"Point","coordinates":[-76.98273793224139,38.878856901801974]}},{"type":"Feature","properties":{"OBJECTID":229,"NAME":"Jenkins Hill Child Development Center","TYPE":"CDC (Child Development Center)","ADDRESS":"1529 PENNSYLVANIA AVENUE SE","XCOORD":401502.32,"YCOORD":134555.14,"WARD":"Ward 6","ZIPCODE":"20003","ADDRID":61206},"geometry":{"type":"Point","coordinates":[-76.98268838091404,38.87883536440677]}},{"type":"Feature","properties":{"OBJECTID":230,"NAME":"Jewel's New Beginning Learning Center, Llc","TYPE":"CDC (Child Development Center)","ADDRESS":"4309 3RD STREET SE","XCOORD":399802.29,"YCOORD":129045.07,"WARD":"Ward 8","ZIPCODE":"20032","ADDRID":295828},"geometry":{"type":"Point","coordinates":[-77.0022792587788,38.82919953781507]}},{"type":"Feature","properties":{"OBJECTID":231,"NAME":"Joyce Bagley","TYPE":"CDH (Child Development Home)","ADDRESS":"2204 SAVANNAH STREET SE","XCOORD":402375.14,"YCOORD":131098.51,"WARD":"Ward 8","ZIPCODE":"20020","ADDRID":146721},"geometry":{"type":"Point","coordinates":[-76.97264126452777,38.84769467520316]}},{"type":"Feature","properties":{"OBJECTID":232,"NAME":"Jubilee Jumpstart","TYPE":"CDC (Child Development Center)","ADDRESS":"2525 ONTARIO ROAD NW","XCOORD":396529.03,"YCOORD":139549.45,"WARD":"Ward 1","ZIPCODE":"20009","ADDRID":235734},"geometry":{"type":"Point","coordinates":[-77.04002967197701,38.92382032267847]}},{"type":"Feature","properties":{"OBJECTID":233,"NAME":"Julia Ruiz/Julia's Home Daycare Llc","TYPE":"CDH (Child Development Home)","ADDRESS":"2123 11TH STREET NW","XCOORD":397677.58,"YCOORD":139004.16,"WARD":"Ward 1","ZIPCODE":"20001","ADDRID":300773},"geometry":{"type":"Point","coordinates":[-77.02678269602903,38.91891195979602]}},{"type":"Feature","properties":{"OBJECTID":234,"NAME":"Julie  A. Lujan","TYPE":"CDH (Child Development Home)","ADDRESS":"1761 LANIER PLACE NW","XCOORD":396350.29,"YCOORD":139657.29,"WARD":"Ward 1","ZIPCODE":"20009","ADDRID":236055},"geometry":{"type":"Point","coordinates":[-77.04209148309694,38.9247910555746]}},{"type":"Feature","properties":{"OBJECTID":235,"NAME":"Just Us Kids Inc","TYPE":"CDC (Child Development Center)","ADDRESS":"625 INDIANA AVENUE NW","XCOORD":398200.59,"YCOORD":136300.9,"WARD":"Ward 2","ZIPCODE":"20004","ADDRID":279862},"geometry":{"type":"Point","coordinates":[-77.020744651607,38.89456127686151]}},{"type":"Feature","properties":{"OBJECTID":236,"NAME":"Jynell Williams","TYPE":"CDH (Child Development Home)","ADDRESS":"1114 CHICAGO STREET SE","XCOORD":400690.65,"YCOORD":132972.12,"WARD":"Ward 8","ZIPCODE":"20020","ADDRID":74014},"geometry":{"type":"Point","coordinates":[-76.99204428522667,38.86457589126535]}},{"type":"Feature","properties":{"OBJECTID":237,"NAME":"Kennedy Child Development Center","TYPE":"CDC (Child Development Center)","ADDRESS":"801 BUCHANAN STREET NE","XCOORD":400517.79,"YCOORD":141986.74,"WARD":"Ward 5","ZIPCODE":"20017","ADDRID":288962},"geometry":{"type":"Point","coordinates":[-76.99402926863064,38.9457828721752]}},{"type":"Feature","properties":{"OBJECTID":238,"NAME":"Khadijah Thomas-ngegha Beginner Chi","TYPE":"CDH (Child Development Home)","ADDRESS":"1890 ALABAMA AVENUE SE","XCOORD":402038.05,"YCOORD":131403.07,"WARD":"Ward 8","ZIPCODE":"20020","ADDRID":299075},"geometry":{"type":"Point","coordinates":[-76.97652355423553,38.850439130682865]}},{"type":"Feature","properties":{"OBJECTID":239,"NAME":"Kiddie Academy Of DC - West End","TYPE":"CDC (Child Development Center)","ADDRESS":"1227 25TH STREET NW","XCOORD":395423.43,"YCOORD":137572.48,"WARD":"Ward 2","ZIPCODE":"20037","ADDRID":273948},"geometry":{"type":"Point","coordinates":[-77.05276632150067,38.9060060528651]}},{"type":"Feature","properties":{"OBJECTID":240,"NAME":"Kiddie City Day Care Center","TYPE":"CDC (Child Development Center)","ADDRESS":"1816 BENNING ROAD NE","XCOORD":402003.99,"YCOORD":136818.59,"WARD":"Ward 5","ZIPCODE":"20002","ADDRID":55560},"geometry":{"type":"Point","coordinates":[-76.97690014659578,38.89922437642194]}},{"type":"Feature","properties":{"OBJECTID":241,"NAME":"Kiddie University, LLC","TYPE":"CDC (Child Development Center)","ADDRESS":"728 F STREET NE","XCOORD":400419.95,"YCOORD":136632.92,"WARD":"Ward 6","ZIPCODE":"20002","ADDRID":78138},"geometry":{"type":"Point","coordinates":[-76.99516118382273,38.89755397696481]}},{"type":"Feature","properties":{"OBJECTID":242,"NAME":"Kiddies Kollege","TYPE":"CDC (Child Development Center)","ADDRESS":"1130 VARNEY STREET SE","XCOORD":401036.06,"YCOORD":129875.85,"WARD":"Ward 8","ZIPCODE":"20032","ADDRID":277895},"geometry":{"type":"Point","coordinates":[-76.98806896976743,38.83668300084433]}},{"type":"Feature","properties":{"OBJECTID":243,"NAME":"Kids Are People Too Cdc Iii","TYPE":"CDC (Child Development Center)","ADDRESS":"2275 SAVANNAH STREET SE","XCOORD":402469.63,"YCOORD":131091.16,"WARD":"Ward 8","ZIPCODE":"20020","ADDRID":278134},"geometry":{"type":"Point","coordinates":[-76.97155278992923,38.84762820300672]}},{"type":"Feature","properties":{"OBJECTID":244,"NAME":"Kids Are People Too Child Development Center","TYPE":"CDC (Child Development Center)","ADDRESS":"408 61ST STREET NE","XCOORD":407457.64,"YCOORD":136341.75,"WARD":"Ward 7","ZIPCODE":"20019","ADDRID":288097},"geometry":{"type":"Point","coordinates":[-76.91403528783991,38.894899481794376]}},{"type":"Feature","properties":{"OBJECTID":245,"NAME":"Kids Are People Too Child Development Center Iv","TYPE":"CDC (Child Development Center)","ADDRESS":"2279 SAVANNAH STREET SE","XCOORD":402478.96,"YCOORD":131096.53,"WARD":"Ward 8","ZIPCODE":"20020","ADDRID":278135},"geometry":{"type":"Point","coordinates":[-76.97144529143274,38.84767655209377]}},{"type":"Feature","properties":{"OBJECTID":246,"NAME":"Kids Are People Too Child Development Center V","TYPE":"CDC (Child Development Center)","ADDRESS":"4315 NANNIE HELEN BURROUGHS AVENUE NE","XCOORD":405153.95,"YCOORD":137006.4,"WARD":"Ward 7","ZIPCODE":"20019","ADDRID":310999},"geometry":{"type":"Point","coordinates":[-76.94058578542686,38.90090341278388]}},{"type":"Feature","properties":{"OBJECTID":247,"NAME":"Kids Are Us Learning Center","TYPE":"CDC (Child Development Center)","ADDRESS":"1236 SOUTHERN AVENUE SE","XCOORD":401132.78,"YCOORD":129774.52,"WARD":"Ward 8","ZIPCODE":"20032","ADDRID":289853},"geometry":{"type":"Point","coordinates":[-76.98695511829612,38.83577005467281]}},{"type":"Feature","properties":{"OBJECTID":248,"NAME":"Kids Come First","TYPE":"CDC (Child Development Center)","ADDRESS":"1720 MINNESOTA AVENUE SE","XCOORD":401744.09,"YCOORD":133484.26,"WARD":"Ward 8","ZIPCODE":"20020","ADDRID":286426},"geometry":{"type":"Point","coordinates":[-76.97990475240387,38.86918800166221]}},{"type":"Feature","properties":{"OBJECTID":249,"NAME":"Kids Come First - Unit 2","TYPE":"CDC (Child Development Center)","ADDRESS":"200 K STREET NW","XCOORD":398768.83,"YCOORD":137152.83,"WARD":"Ward 6","ZIPCODE":"20001","ADDRID":238362},"geometry":{"type":"Point","coordinates":[-77.01419589682894,38.90223675104603]}},{"type":"Feature","properties":{"OBJECTID":250,"NAME":"Kids Come First - Unit 5","TYPE":"CDC (Child Development Center)","ADDRESS":"200 K STREET NW","XCOORD":398768.83,"YCOORD":137152.83,"WARD":"Ward 6","ZIPCODE":"20001","ADDRID":238362},"geometry":{"type":"Point","coordinates":[-77.01419589682894,38.90223675104603]}},{"type":"Feature","properties":{"OBJECTID":251,"NAME":"Kids Come First Iv","TYPE":"CDC (Child Development Center)","ADDRESS":"1310 RIDGE PLACE SE","XCOORD":401182.27,"YCOORD":133465.37,"WARD":"Ward 8","ZIPCODE":"20020","ADDRID":68315},"geometry":{"type":"Point","coordinates":[-76.98637875908756,38.86901876734145]}},{"type":"Feature","properties":{"OBJECTID":252,"NAME":"Kids Corner Daycare, Inc","TYPE":"CDC (Child Development Center)","ADDRESS":"2200 CALIFORNIA STREET NW","XCOORD":395727.28,"YCOORD":138662.11,"WARD":"Ward 2","ZIPCODE":"20008","ADDRID":235042},"geometry":{"type":"Point","coordinates":[-77.04926996545284,38.915823341365076]}},{"type":"Feature","properties":{"OBJECTID":253,"NAME":"Kids R Us Learning Center","TYPE":"CDC (Child Development Center)","ADDRESS":"800 SOUTHERN AVENUE SE","XCOORD":400467.3,"YCOORD":128840.97,"WARD":"Ward 8","ZIPCODE":"20032","ADDRID":79579},"geometry":{"type":"Point","coordinates":[-76.99462063353704,38.82736080771573]}},{"type":"Feature","properties":{"OBJECTID":254,"NAME":"Kids Village Learning Center","TYPE":"CDC (Child Development Center)","ADDRESS":"7750 16TH STREET NW","XCOORD":396804.08,"YCOORD":146373.03,"WARD":"Ward 4","ZIPCODE":"20012","ADDRID":256418},"geometry":{"type":"Point","coordinates":[-77.03688958324472,38.98528999681959]}},{"type":"Feature","properties":{"OBJECTID":255,"NAME":"Kinderhaus","TYPE":"CDC (Child Development Center)","ADDRESS":"5307 CONNECTICUT AVENUE NW","XCOORD":393755.81,"YCOORD":143502.56,"WARD":"Ward 3","ZIPCODE":"20015","ADDRID":264143},"geometry":{"type":"Point","coordinates":[-77.07204654274457,38.95941574432697]}},{"type":"Feature","properties":{"OBJECTID":256,"NAME":"Kingman Boys- Club, Inc.","TYPE":"CDC (Child Development Center)","ADDRESS":"1529 KINGMAN PLACE NW","XCOORD":397335.57,"YCOORD":138080.82,"WARD":"Ward 2","ZIPCODE":"20005","ADDRID":225740},"geometry":{"type":"Point","coordinates":[-77.03072291585217,38.91059323261233]}},{"type":"Feature","properties":{"OBJECTID":257,"NAME":"Klc Champions - Tolson","TYPE":"CDC (Child Development Center)","ADDRESS":"2917 8TH STREET NE","XCOORD":400466.83,"YCOORD":139897.04,"WARD":"Ward 5","ZIPCODE":"20017","ADDRID":43392},"geometry":{"type":"Point","coordinates":[-76.99461854324133,38.926958256746104]}},{"type":"Feature","properties":{"OBJECTID":258,"NAME":"KLC/CCLC at Diplotots","TYPE":"CDC (Child Development Center)","ADDRESS":"600 19TH STREET NW","XCOORD":396197.02,"YCOORD":136668.71,"WARD":"Ward 2","ZIPCODE":"20431","ADDRID":241087},"geometry":{"type":"Point","coordinates":[-77.04384247065155,38.897868258664666]}},{"type":"Feature","properties":{"OBJECTID":259,"NAME":"Knowledge  Universe Champions @6200  Kansas","TYPE":"CDC (Child Development Center)","ADDRESS":"6200 KANSAS AVENUE NE","XCOORD":399254.07,"YCOORD":144200.69,"WARD":"Ward 4","ZIPCODE":"20011","ADDRID":304055},"geometry":{"type":"Point","coordinates":[-77.00860944473003,38.96572655801233]}},{"type":"Feature","properties":{"OBJECTID":260,"NAME":"Knowledge Universe Champion @1800 Perry","TYPE":"CDC (Child Development Center)","ADDRESS":"1800 PERRY STREET NE","XCOORD":401855.75,"YCOORD":140990.2,"WARD":"Ward 5","ZIPCODE":"20018","ADDRID":294529},"geometry":{"type":"Point","coordinates":[-76.9785977940712,38.93680394287589]}},{"type":"Feature","properties":{"OBJECTID":261,"NAME":"Knowledge Universe/Champions @ Buridick Campus","TYPE":"CDC (Child Development Center)","ADDRESS":"1300 ALLISON STREET NW","XCOORD":397352.45,"YCOORD":141867.84,"WARD":"Ward 4","ZIPCODE":"20011","ADDRID":255251},"geometry":{"type":"Point","coordinates":[-77.03054290091909,38.944707948889295]}},{"type":"Feature","properties":{"OBJECTID":262,"NAME":"Knowledge Universe-champions @ Democracy Prep.","TYPE":"CDC (Child Development Center)","ADDRESS":"3100 MARTIN LUTHER KING JR AVENUE SE","XCOORD":400161.23,"YCOORD":130633.04,"WARD":"Ward 8","ZIPCODE":"20032","ADDRID":301280},"geometry":{"type":"Point","coordinates":[-76.99814506005384,38.84350470550558]}},{"type":"Feature","properties":{"OBJECTID":263,"NAME":"Kuumba Learning Center","TYPE":"CDC (Child Development Center)","ADDRESS":"3328 MARTIN LUTHER KING JR AVENUE SE","XCOORD":399772.09,"YCOORD":130477.92,"WARD":"Ward 8","ZIPCODE":"20032","ADDRID":36183},"geometry":{"type":"Point","coordinates":[-77.00262754041371,38.84210730012539]}},{"type":"Feature","properties":{"OBJECTID":264,"NAME":"La Petite Academy, Inc.","TYPE":"CDC (Child Development Center)","ADDRESS":"1 MICHIGAN AVENUE NW","XCOORD":398983.71,"YCOORD":139871.6,"WARD":"Ward 5","ZIPCODE":"20010","ADDRID":302472},"geometry":{"type":"Point","coordinates":[-77.01172266622977,38.926728620853225]}},{"type":"Feature","properties":{"OBJECTID":265,"NAME":"La-juanda Denise Hill","TYPE":"CDH (Child Development Home)","ADDRESS":"4634 H STREET SE","XCOORD":405790.06,"YCOORD":134559.46,"WARD":"Ward 7","ZIPCODE":"20019","ADDRID":18551},"geometry":{"type":"Point","coordinates":[-76.93327311297992,38.87885650251288]}},{"type":"Feature","properties":{"OBJECTID":266,"NAME":"Lakeisha Cameron ","TYPE":"CDX (Child Development Home Expanded)","ADDRESS":"3249 STANTON ROAD SE","XCOORD":401650.91,"YCOORD":131135.61,"WARD":"Ward 8","ZIPCODE":"20020","ADDRID":155568},"geometry":{"type":"Point","coordinates":[-76.98098412278644,38.84803054533876]}},{"type":"Feature","properties":{"OBJECTID":267,"NAME":"Lanier Lullabies Child Development Center","TYPE":"CDC (Child Development Center)","ADDRESS":"1844 COLUMBIA ROAD NW","XCOORD":396255.53,"YCOORD":139292.85,"WARD":"Ward 1","ZIPCODE":"20009","ADDRID":226499},"geometry":{"type":"Point","coordinates":[-77.04318228638182,38.92150766427592]}},{"type":"Feature","properties":{"OBJECTID":268,"NAME":"Lateika Jones Dba Femi's Loving Care, Llc","TYPE":"CDH (Child Development Home)","ADDRESS":"1818 H PLACE NE","XCOORD":402012.27,"YCOORD":137020.94,"WARD":"Ward 5","ZIPCODE":"20002","ADDRID":55409},"geometry":{"type":"Point","coordinates":[-76.9768041015064,38.901047199112504]}},{"type":"Feature","properties":{"OBJECTID":269,"NAME":"Latrell Duncan","TYPE":"CDX (Child Development Home Expanded)","ADDRESS":"508 15TH STREET SE","XCOORD":401436.89,"YCOORD":134957.9,"WARD":"Ward 6","ZIPCODE":"20003","ADDRID":13700},"geometry":{"type":"Point","coordinates":[-76.98344160514993,38.882463693233014]}},{"type":"Feature","properties":{"OBJECTID":270,"NAME":"Lavel P. Jackson","TYPE":"CDH (Child Development Home)","ADDRESS":"4017 13TH STREET NE","XCOORD":401036.57,"YCOORD":141249.01,"WARD":"Ward 5","ZIPCODE":"20017","ADDRID":27897},"geometry":{"type":"Point","coordinates":[-76.98804594493012,38.93913672822886]}},{"type":"Feature","properties":{"OBJECTID":271,"NAME":"Leila  Moore","TYPE":"CDH (Child Development Home)","ADDRESS":"7527 8TH STREET NW","XCOORD":397899.61,"YCOORD":146021.44,"WARD":"Ward 4","ZIPCODE":"20012","ADDRID":251116},"geometry":{"type":"Point","coordinates":[-77.024243903778,38.98212610311347]}},{"type":"Feature","properties":{"OBJECTID":272,"NAME":"Lena Sears Child Development Center","TYPE":"CDC (Child Development Center)","ADDRESS":"3456 PENNSYLVANIA AVENUE SE","XCOORD":404018.03,"YCOORD":133236.54,"WARD":"Ward 7","ZIPCODE":"20020","ADDRID":150712},"geometry":{"type":"Point","coordinates":[-76.95370309692919,38.86694898982662]}},{"type":"Feature","properties":{"OBJECTID":273,"NAME":"Linda T Waller","TYPE":"CDH (Child Development Home)","ADDRESS":"130 ELMIRA STREET SW","XCOORD":399052.89,"YCOORD":128675.97,"WARD":"Ward 8","ZIPCODE":"20032","ADDRID":68945},"geometry":{"type":"Point","coordinates":[-77.01090941411852,38.82587402372802]}},{"type":"Feature","properties":{"OBJECTID":274,"NAME":"Little Blessings LLC/ Irma Yolanda Tzul-de Morales","TYPE":"CDH (Child Development Home)","ADDRESS":"4840 FORT TOTTEN DRIVE NE","XCOORD":399361.55,"YCOORD":142435.52,"WARD":"Ward 5","ZIPCODE":"20011","ADDRID":288289},"geometry":{"type":"Point","coordinates":[-77.00736760731756,38.94982552816909]}},{"type":"Feature","properties":{"OBJECTID":275,"NAME":"Little Flower Montessori School","TYPE":"CDC (Child Development Center)","ADDRESS":"3029 16TH STREET NW","XCOORD":396884.86,"YCOORD":139912.17,"WARD":"Ward 1","ZIPCODE":"20009","ADDRID":234357},"geometry":{"type":"Point","coordinates":[-77.03592787070076,38.927089153250186]}},{"type":"Feature","properties":{"OBJECTID":276,"NAME":"Little Folks School Inc.","TYPE":"CDC (Child Development Center)","ADDRESS":"3247 Q STREET NW","XCOORD":394301.26,"YCOORD":138119.52,"WARD":"Ward 2","ZIPCODE":"20007","ADDRID":305086},"geometry":{"type":"Point","coordinates":[-77.06570854205486,38.91092741779973]}},{"type":"Feature","properties":{"OBJECTID":277,"NAME":"Little Jewels Child Development","TYPE":"CDC (Child Development Center)","ADDRESS":"5216 SHERIFF ROAD NE","XCOORD":406559.11,"YCOORD":137363.86,"WARD":"Ward 7","ZIPCODE":"20019","ADDRID":11610},"geometry":{"type":"Point","coordinates":[-76.9243832136421,38.90411417743867]}},{"type":"Feature","properties":{"OBJECTID":278,"NAME":"Little Praudde Child Developmentcenter Llc","TYPE":"CDC (Child Development Center)","ADDRESS":"1341 RANDOLPH STREET NW","XCOORD":397251.61,"YCOORD":141223.02,"WARD":"Ward 4","ZIPCODE":"20011","ADDRID":225136},"geometry":{"type":"Point","coordinates":[-77.03170354968802,38.93889891366108]}},{"type":"Feature","properties":{"OBJECTID":279,"NAME":"Little Samaritan Child Dev. Center","TYPE":"CDC (Child Development Center)","ADDRESS":"5100 E STREET SE","XCOORD":406183.69,"YCOORD":134963.96,"WARD":"Ward 7","ZIPCODE":"20019","ADDRID":13524},"geometry":{"type":"Point","coordinates":[-76.92873297626295,38.88249771560652]}},{"type":"Feature","properties":{"OBJECTID":280,"NAME":"Little Samaritan Child Dev. Center","TYPE":"CDC (Child Development Center)","ADDRESS":"5111 E STREET SE","XCOORD":406193.51,"YCOORD":134913.32,"WARD":"Ward 7","ZIPCODE":"20019","ADDRID":288503},"geometry":{"type":"Point","coordinates":[-76.9286202535364,38.88204146184033]}},{"type":"Feature","properties":{"OBJECTID":281,"NAME":"Little Seasons Of Georgetown","TYPE":"CDC (Child Development Center)","ADDRESS":"3222 O STREET NW","XCOORD":394414.98,"YCOORD":137750.66,"WARD":"Ward 2","ZIPCODE":"20007","ADDRID":272129},"geometry":{"type":"Point","coordinates":[-77.06439435507687,38.90760533044748]}},{"type":"Feature","properties":{"OBJECTID":282,"NAME":"Little Workers Of The Sacred Heart","TYPE":"CDC (Child Development Center)","ADDRESS":"3620 15TH STREET NE","XCOORD":401318.22,"YCOORD":140750.2,"WARD":"Ward 5","ZIPCODE":"20017","ADDRID":149360},"geometry":{"type":"Point","coordinates":[-76.98479820442233,38.934642921387294]}},{"type":"Feature","properties":{"OBJECTID":283,"NAME":"Lois Denise Lightfoot","TYPE":"CDH (Child Development Home)","ADDRESS":"1824 VALLEY TERRACE SE","XCOORD":401919.72,"YCOORD":130314.03,"WARD":"Ward 8","ZIPCODE":"20032","ADDRID":55385},"geometry":{"type":"Point","coordinates":[-76.97788977680585,38.84062884117122]}},{"type":"Feature","properties":{"OBJECTID":284,"NAME":"Love & Care Child Development Center","TYPE":"CDC (Child Development Center)","ADDRESS":"5427 4TH STREET NW","XCOORD":398478.27,"YCOORD":143153.29,"WARD":"Ward 4","ZIPCODE":"20011","ADDRID":249473},"geometry":{"type":"Point","coordinates":[-77.01755894158126,38.95629030816761]}},{"type":"Feature","properties":{"OBJECTID":285,"NAME":"Love And Care Cdc","TYPE":"CDC (Child Development Center)","ADDRESS":"330 KENNEDY STREET NW","XCOORD":398493.22,"YCOORD":143161.72,"WARD":"Ward 4","ZIPCODE":"20011","ADDRID":284622},"geometry":{"type":"Point","coordinates":[-77.01738647748549,38.95636627362037]}},{"type":"Feature","properties":{"OBJECTID":286,"NAME":"Love And Care Child Development Center Inc","TYPE":"CDC (Child Development Center)","ADDRESS":"330 RHODE ISLAND AVENUE NE","XCOORD":399918.85,"YCOORD":139111.52,"WARD":"Ward 5","ZIPCODE":"20002","ADDRID":155946},"geometry":{"type":"Point","coordinates":[-77.00093805860547,38.919882159870056]}},{"type":"Feature","properties":{"OBJECTID":287,"NAME":"Love And Care Education Center, Inc","TYPE":"CDC (Child Development Center)","ADDRESS":"554 MALCOLM X AVENUE SE","XCOORD":400061.16,"YCOORD":130829.94,"WARD":"Ward 8","ZIPCODE":"20032","ADDRID":155863},"geometry":{"type":"Point","coordinates":[-76.99929775623177,38.84527848108305]}},{"type":"Feature","properties":{"OBJECTID":288,"NAME":"Loving Care Day Nursery, Inc  #2","TYPE":"CDC (Child Development Center)","ADDRESS":"1818 NEW YORK AVENUE NE","XCOORD":402020.97,"YCOORD":138872.09,"WARD":"Ward 5","ZIPCODE":"20002","ADDRID":55416},"geometry":{"type":"Point","coordinates":[-76.97669835794368,38.91772297645775]}},{"type":"Feature","properties":{"OBJECTID":289,"NAME":"Loving Care Day Nursery, Inc.","TYPE":"CDC (Child Development Center)","ADDRESS":"114 KENNEDY STREET NW","XCOORD":398930.09,"YCOORD":143169.64,"WARD":"Ward 4","ZIPCODE":"20011","ADDRID":289381},"geometry":{"type":"Point","coordinates":[-77.01234618456306,38.956438260053545]}},{"type":"Feature","properties":{"OBJECTID":290,"NAME":"Lowell School Inc","TYPE":"CDC (Child Development Center)","ADDRESS":"1640 KALMIA ROAD NW","XCOORD":396672.58,"YCOORD":146320.89,"WARD":"Ward 4","ZIPCODE":"20012","ADDRID":302442},"geometry":{"type":"Point","coordinates":[-77.0384071022827,38.98481982006677]}},{"type":"Feature","properties":{"OBJECTID":291,"NAME":"Lubertha Wilson Payne","TYPE":"CDH (Child Development Home)","ADDRESS":"620 SOUTHERN AVENUE SE","XCOORD":400231.11,"YCOORD":128531.82,"WARD":"Ward 8","ZIPCODE":"20032","ADDRID":3686},"geometry":{"type":"Point","coordinates":[-76.99734081178242,38.82457593216425]}},{"type":"Feature","properties":{"OBJECTID":292,"NAME":"Lula Mae Jackson","TYPE":"CDH (Child Development Home)","ADDRESS":"1101 1ST TERRACE NW","XCOORD":399029.28,"YCOORD":137339.5,"WARD":"Ward 6","ZIPCODE":"20001","ADDRID":295964},"geometry":{"type":"Point","coordinates":[-77.01119354819548,38.90391866703949]}},{"type":"Feature","properties":{"OBJECTID":293,"NAME":"Lynn Carol's Academy Of Early Learning","TYPE":"CDC (Child Development Center)","ADDRESS":"5506 3RD STREET NW","XCOORD":398576.9,"YCOORD":143215.3,"WARD":"Ward 4","ZIPCODE":"20011","ADDRID":249459},"geometry":{"type":"Point","coordinates":[-77.0164211464765,38.956849076027034]}},{"type":"Feature","properties":{"OBJECTID":294,"NAME":"Maira  Romero","TYPE":"CDH (Child Development Home)","ADDRESS":"3603 14TH STREET NW","XCOORD":397191.39,"YCOORD":140941.46,"WARD":"Ward 1","ZIPCODE":"20010","ADDRID":230182},"geometry":{"type":"Point","coordinates":[-77.03239700371024,38.93636234706544]}},{"type":"Feature","properties":{"OBJECTID":295,"NAME":"Make One Dc","TYPE":"CDC (Child Development Center)","ADDRESS":"850 26TH STREET NE","XCOORD":402544.36,"YCOORD":137194.17,"WARD":"Ward 5","ZIPCODE":"20002","ADDRID":294501},"geometry":{"type":"Point","coordinates":[-76.97066933279865,38.90260633790191]}},{"type":"Feature","properties":{"OBJECTID":296,"NAME":"Mana Bilingual Child Development Center","TYPE":"CDC (Child Development Center)","ADDRESS":"604 KENNEDY STREET NW","XCOORD":398161.13,"YCOORD":143147.37,"WARD":"Ward 4","ZIPCODE":"20011","ADDRID":246782},"geometry":{"type":"Point","coordinates":[-77.0212178647134,38.95623637241247]}},{"type":"Feature","properties":{"OBJECTID":297,"NAME":"Mana Bilingual Childdevelopment Center 2","TYPE":"CDC (Child Development Center)","ADDRESS":"5511 COLORADO AVENUE NW","XCOORD":397175.48,"YCOORD":143194.45,"WARD":"Ward 4","ZIPCODE":"20011","ADDRID":254851},"geometry":{"type":"Point","coordinates":[-77.03258978841306,38.9566578645545]}},{"type":"Feature","properties":{"OBJECTID":298,"NAME":"Manley Science and Technology Center","TYPE":"CDC (Child Development Center)","ADDRESS":"4628 H STREET SE","XCOORD":405765.89,"YCOORD":134559.44,"WARD":"Ward 7","ZIPCODE":"20019","ADDRID":18660},"geometry":{"type":"Point","coordinates":[-76.93355166698831,38.87885648115869]}},{"type":"Feature","properties":{"OBJECTID":299,"NAME":"Maria A Romano Cdh","TYPE":"CDH (Child Development Home)","ADDRESS":"601 KENNEDY STREET NW","XCOORD":398167.55,"YCOORD":143189.2,"WARD":"Ward 4","ZIPCODE":"20011","ADDRID":246715},"geometry":{"type":"Point","coordinates":[-77.02114390710001,38.956613201542226]}},{"type":"Feature","properties":{"OBJECTID":300,"NAME":"Maria Alfaro","TYPE":"CDH (Child Development Home)","ADDRESS":"1351 RANDOLPH STREET NW","XCOORD":397213.16,"YCOORD":141223.12,"WARD":"Ward 4","ZIPCODE":"20011","ADDRID":225118},"geometry":{"type":"Point","coordinates":[-77.03214705101372,38.93889969335102]}},{"type":"Feature","properties":{"OBJECTID":301,"NAME":"Maria Dolores Naranjo","TYPE":"CDH (Child Development Home)","ADDRESS":"2909 NORTH CAPITOL STREET NE","XCOORD":399244.06,"YCOORD":139813.9,"WARD":"Ward 5","ZIPCODE":"20002","ADDRID":43407},"geometry":{"type":"Point","coordinates":[-77.0087201120363,38.92620910364051]}},{"type":"Feature","properties":{"OBJECTID":302,"NAME":"Maria Paola Miranda@washington Family Cdh","TYPE":"CDH (Child Development Home)","ADDRESS":"1527 PARK ROAD NW","XCOORD":396899.19,"YCOORD":140416.19,"WARD":"Ward 1","ZIPCODE":"20010","ADDRID":234441},"geometry":{"type":"Point","coordinates":[-77.03576488632189,38.93162957287464]}},{"type":"Feature","properties":{"OBJECTID":303,"NAME":"Marilyn J. Medmedrano","TYPE":"CDX (Child Development Home Expanded)","ADDRESS":"1414 DELAFIELD PLACE NW","XCOORD":397027.01,"YCOORD":142324.03,"WARD":"Ward 4","ZIPCODE":"20011","ADDRID":255742},"geometry":{"type":"Point","coordinates":[-77.03429896661123,38.948816395485956]}},{"type":"Feature","properties":{"OBJECTID":304,"NAME":"Marion Crawford","TYPE":"CDC (Child Development Center)","ADDRESS":"2214 NAYLOR ROAD SE","XCOORD":402244.7,"YCOORD":133697.16,"WARD":"Ward 8","ZIPCODE":"20020","ADDRID":290129},"geometry":{"type":"Point","coordinates":[-76.97413541949194,38.87110475638564]}},{"type":"Feature","properties":{"OBJECTID":305,"NAME":"Marjorie Mccollough-jackson","TYPE":"CDH (Child Development Home)","ADDRESS":"4300 4TH STREET NW","XCOORD":398488.93,"YCOORD":141714.46,"WARD":"Ward 4","ZIPCODE":"20011","ADDRID":248097},"geometry":{"type":"Point","coordinates":[-77.017432783559,38.94332894833133]}},{"type":"Feature","properties":{"OBJECTID":306,"NAME":"Marlene A Hudson","TYPE":"CDH (Child Development Home)","ADDRESS":"708 ADRIAN STREET SE","XCOORD":404825.2,"YCOORD":134767.97,"WARD":"Ward 7","ZIPCODE":"20019","ADDRID":76674},"geometry":{"type":"Point","coordinates":[-76.9443914456927,38.8807406657329]}},{"type":"Feature","properties":{"OBJECTID":307,"NAME":"Martha's Table Cdc Ii","TYPE":"CDC (Child Development Center)","ADDRESS":"2114 14TH STREET NW","XCOORD":397194.29,"YCOORD":138979.35,"WARD":"Ward 1","ZIPCODE":"20009","ADDRID":243001},"geometry":{"type":"Point","coordinates":[-77.03235553319755,38.91868705287556]}},{"type":"Feature","properties":{"OBJECTID":308,"NAME":"Martha's Table Child And Parent Cen","TYPE":"CDC (Child Development Center)","ADDRESS":"2114 14TH STREET NW","XCOORD":397194.29,"YCOORD":138979.35,"WARD":"Ward 1","ZIPCODE":"20009","ADDRID":243001},"geometry":{"type":"Point","coordinates":[-77.03235553319755,38.91868705287556]}},{"type":"Feature","properties":{"OBJECTID":309,"NAME":"Mary A Thomas","TYPE":"CDH (Child Development Home)","ADDRESS":"1611 28TH PLACE SE","XCOORD":402864.57,"YCOORD":133606.81,"WARD":"Ward 7","ZIPCODE":"20020","ADDRID":59899},"geometry":{"type":"Point","coordinates":[-76.96699270745316,38.870289046464904]}},{"type":"Feature","properties":{"OBJECTID":310,"NAME":"Mary Ann Ross","TYPE":"CDH (Child Development Home)","ADDRESS":"250 NEWCOMB STREET SE","XCOORD":399602.8,"YCOORD":131296.01,"WARD":"Ward 8","ZIPCODE":"20032","ADDRID":278171},"geometry":{"type":"Point","coordinates":[-77.00457803879816,38.84947695761653]}},{"type":"Feature","properties":{"OBJECTID":311,"NAME":"Matthews Memorial Baptist Cdc","TYPE":"CDC (Child Development Center)","ADDRESS":"2616 MARTIN LUTHER KING JR AVENUE SE","XCOORD":400435.52,"YCOORD":132317.08,"WARD":"Ward 8","ZIPCODE":"20020","ADDRID":278192},"geometry":{"type":"Point","coordinates":[-76.99498442833355,38.85867517895669]}},{"type":"Feature","properties":{"OBJECTID":312,"NAME":"Mayra Barrientos","TYPE":"CDH (Child Development Home)","ADDRESS":"6600 LUZON AVENUE NW","XCOORD":397137.48,"YCOORD":144731.21,"WARD":"Ward 4","ZIPCODE":"20012","ADDRID":285344},"geometry":{"type":"Point","coordinates":[-77.03303462444221,38.970501262170835]}},{"type":"Feature","properties":{"OBJECTID":313,"NAME":"Medora Sims","TYPE":"CDH (Child Development Home)","ADDRESS":"220 LONGFELLOW STREET NW","XCOORD":398695.52,"YCOORD":143285.91,"WARD":"Ward 4","ZIPCODE":"20011","ADDRID":244891},"geometry":{"type":"Point","coordinates":[-77.01505271566936,38.95748533373825]}},{"type":"Feature","properties":{"OBJECTID":314,"NAME":"Melbert Johnson","TYPE":"CDH (Child Development Home)","ADDRESS":"2955 FORT BAKER DRIVE SE","XCOORD":402947.37,"YCOORD":132732.11,"WARD":"Ward 7","ZIPCODE":"20020","ADDRID":42792},"geometry":{"type":"Point","coordinates":[-76.96604231952641,38.86240911456117]}},{"type":"Feature","properties":{"OBJECTID":315,"NAME":"Mercedes  Montano","TYPE":"CDH (Child Development Home)","ADDRESS":"1847 MINTWOOD PLACE NW","XCOORD":396116.11,"YCOORD":139303.36,"WARD":"Ward 1","ZIPCODE":"20009","ADDRID":235362},"geometry":{"type":"Point","coordinates":[-77.04479009136874,38.92160173657218]}},{"type":"Feature","properties":{"OBJECTID":316,"NAME":"Meriam  Academy Llc","TYPE":"CDC (Child Development Center)","ADDRESS":"704 KENNEDY STREET NW","XCOORD":398038.95,"YCOORD":143141.17,"WARD":"Ward 4","ZIPCODE":"20011","ADDRID":250247},"geometry":{"type":"Point","coordinates":[-77.02262747310257,38.956180256831374]}},{"type":"Feature","properties":{"OBJECTID":317,"NAME":"Metropolitan Meth. Church Nursery School","TYPE":"CDC (Child Development Center)","ADDRESS":"3401 NEBRASKA AVENUE NW","XCOORD":392387.68,"YCOORD":140789.73,"WARD":"Ward 3","ZIPCODE":"20016","ADDRID":298676},"geometry":{"type":"Point","coordinates":[-77.08780164773404,38.93496702807299]}},{"type":"Feature","properties":{"OBJECTID":318,"NAME":"Mi Palacio Child Development Center Llc/ Marisol Espinosa","TYPE":"CDC (Child Development Center)","ADDRESS":"7005 PINEY BRANCH ROAD NW","XCOORD":398201.48,"YCOORD":145287.97,"WARD":"Ward 4","ZIPCODE":"20012","ADDRID":251254},"geometry":{"type":"Point","coordinates":[-77.02075795136145,38.97551951115139]}},{"type":"Feature","properties":{"OBJECTID":319,"NAME":"Mildred Omar","TYPE":"CDH (Child Development Home)","ADDRESS":"4602 B STREET SE","XCOORD":405598,"YCOORD":135599.71,"WARD":"Ward 7","ZIPCODE":"20019","ADDRID":19543},"geometry":{"type":"Point","coordinates":[-76.93547808832942,38.8882287178229]}},{"type":"Feature","properties":{"OBJECTID":320,"NAME":"Milestone Enrichment Center Inc","TYPE":"CDC (Child Development Center)","ADDRESS":"755 8TH STREET NW","XCOORD":398032.51,"YCOORD":136838.45,"WARD":"Ward 2","ZIPCODE":"20001","ADDRID":295164},"geometry":{"type":"Point","coordinates":[-77.02268370274251,38.89940336322]}},{"type":"Feature","properties":{"OBJECTID":321,"NAME":"Mindbloom Preschool","TYPE":"CDC (Child Development Center)","ADDRESS":"2420 RHODE ISLAND AVENUE NE","XCOORD":402498.87,"YCOORD":140434.06,"WARD":"Ward 5","ZIPCODE":"20018","ADDRID":302530},"geometry":{"type":"Point","coordinates":[-76.97118197924918,38.93179247181788]}},{"type":"Feature","properties":{"OBJECTID":322,"NAME":"Minnie Allen","TYPE":"CDH (Child Development Home)","ADDRESS":"410 53RD STREET NE","XCOORD":406494.11,"YCOORD":136320.33,"WARD":"Ward 7","ZIPCODE":"20019","ADDRID":302105},"geometry":{"type":"Point","coordinates":[-76.9251424543323,38.89471416801197]}},{"type":"Feature","properties":{"OBJECTID":323,"NAME":"Miriam Powell-Bowie","TYPE":"CDH (Child Development Home)","ADDRESS":"1903 17TH STREET SE","XCOORD":401646.19,"YCOORD":133250.73,"WARD":"Ward 8","ZIPCODE":"20020","ADDRID":54353},"geometry":{"type":"Point","coordinates":[-76.98103343444971,38.86708445631583]}},{"type":"Feature","properties":{"OBJECTID":324,"NAME":"Monica Lester","TYPE":"CDH (Child Development Home)","ADDRESS":"1440 KEARNY STREET NE","XCOORD":401342.87,"YCOORD":140354.14,"WARD":"Ward 5","ZIPCODE":"20017","ADDRID":63307},"geometry":{"type":"Point","coordinates":[-76.98451467112562,38.9310750545276]}},{"type":"Feature","properties":{"OBJECTID":325,"NAME":"Montessori School Of Chevy Chase","TYPE":"CDC (Child Development Center)","ADDRESS":"5312 CONNECTICUT AVENUE NW","XCOORD":393703.31,"YCOORD":143493.29,"WARD":"Ward 3","ZIPCODE":"20015","ADDRID":301282},"geometry":{"type":"Point","coordinates":[-77.07265219220457,38.95933186295887]}},{"type":"Feature","properties":{"OBJECTID":326,"NAME":"Mount Calvary Holy Church Cdc","TYPE":"CDC (Child Development Center)","ADDRESS":"5900 CHILLUM PLACE NE","XCOORD":399449.05,"YCOORD":143769.54,"WARD":"Ward 4","ZIPCODE":"20011","ADDRID":288734},"geometry":{"type":"Point","coordinates":[-77.00635925758847,38.96184279430655]}},{"type":"Feature","properties":{"OBJECTID":327,"NAME":"Muluwork  Kenea","TYPE":"CDH (Child Development Home)","ADDRESS":"5357 GAY STREET NE","XCOORD":406669.47,"YCOORD":136765.37,"WARD":"Ward 7","ZIPCODE":"20019","ADDRID":304674},"geometry":{"type":"Point","coordinates":[-76.92311670004715,38.89872193677417]}},{"type":"Feature","properties":{"OBJECTID":328,"NAME":"Natalie K. Hubbard/ Happy Hearts Family Daycare","TYPE":"CDH (Child Development Home)","ADDRESS":"4013 COLE BOULEVARD SE","XCOORD":400822.41,"YCOORD":129674.79,"WARD":"Ward 8","ZIPCODE":"20032","ADDRID":280198},"geometry":{"type":"Point","coordinates":[-76.99053002461471,38.83487198579851]}},{"type":"Feature","properties":{"OBJECTID":329,"NAME":"National Child Research Center","TYPE":"CDC (Child Development Center)","ADDRESS":"3209 HIGHLAND PLACE NW","XCOORD":394446.66,"YCOORD":140891.95,"WARD":"Ward 3","ZIPCODE":"20008","ADDRID":221029},"geometry":{"type":"Point","coordinates":[-77.06405451643212,38.935903283744935]}},{"type":"Feature","properties":{"OBJECTID":330,"NAME":"National Childrens Center","TYPE":"CDC (Child Development Center)","ADDRESS":"3400 MARTIN LUTHER KING JR AVENUE SE","XCOORD":399732.21,"YCOORD":130357.3,"WARD":"Ward 8","ZIPCODE":"20032","ADDRID":35265},"geometry":{"type":"Point","coordinates":[-77.00308686501565,38.84102068964807]}},{"type":"Feature","properties":{"OBJECTID":331,"NAME":"National Presbyterian Child Care Center","TYPE":"CDC (Child Development Center)","ADDRESS":"4124 VAN NESS STREET NW","XCOORD":392999.88,"YCOORD":141655.1,"WARD":"Ward 3","ZIPCODE":"20016","ADDRID":301246},"geometry":{"type":"Point","coordinates":[-77.08074945718666,38.94276762477419]}},{"type":"Feature","properties":{"OBJECTID":332,"NAME":"Nccfd Carver Terrace Cdc","TYPE":"CDC (Child Development Center)","ADDRESS":"2229 M STREET NE","XCOORD":402432.68,"YCOORD":137504.66,"WARD":"Ward 5","ZIPCODE":"20002","ADDRID":49752},"geometry":{"type":"Point","coordinates":[-76.97195574905237,38.905403657667684]}},{"type":"Feature","properties":{"OBJECTID":333,"NAME":"Nellie Sydnor","TYPE":"CDH (Child Development Home)","ADDRESS":"4403 6TH PLACE NE","XCOORD":400263.42,"YCOORD":141660.97,"WARD":"Ward 5","ZIPCODE":"20017","ADDRID":22381},"geometry":{"type":"Point","coordinates":[-76.99696370380059,38.94284835580782]}},{"type":"Feature","properties":{"OBJECTID":334,"NAME":"New Creation Child Development Center","TYPE":"CDC (Child Development Center)","ADDRESS":"1839 ALABAMA AVENUE SE","XCOORD":401923.66,"YCOORD":131095.25,"WARD":"Ward 8","ZIPCODE":"20020","ADDRID":54816},"geometry":{"type":"Point","coordinates":[-76.97784220953736,38.84766641063713]}},{"type":"Feature","properties":{"OBJECTID":335,"NAME":"Nicole  Jasper","TYPE":"CDH (Child Development Home)","ADDRESS":"4540 C STREET SE","XCOORD":405378.37,"YCOORD":135445.32,"WARD":"Ward 7","ZIPCODE":"20019","ADDRID":19740},"geometry":{"type":"Point","coordinates":[-76.938010815867,38.88683928524128]}},{"type":"Feature","properties":{"OBJECTID":336,"NAME":"Nobel Learning Communities Cdc @ De","TYPE":"CDC (Child Development Center)","ADDRESS":"200 CONSTITUTION AVENUE NW","XCOORD":398751.12,"YCOORD":136164.69,"WARD":"Ward 2","ZIPCODE":"20210","ADDRID":291712},"geometry":{"type":"Point","coordinates":[-77.01439827055684,38.893335201511825]}},{"type":"Feature","properties":{"OBJECTID":337,"NAME":"Northeast Stars Montessori Learning","TYPE":"CDC (Child Development Center)","ADDRESS":"1325 MARYLAND AVENUE NE","XCOORD":401103.78,"YCOORD":136700.77,"WARD":"Ward 6","ZIPCODE":"20002","ADDRID":67591},"geometry":{"type":"Point","coordinates":[-76.98727801950758,38.8981646020768]}},{"type":"Feature","properties":{"OBJECTID":338,"NAME":"Northwest Settlement House Cdc","TYPE":"CDC (Child Development Center)","ADDRESS":"1739 7TH STREET NW","XCOORD":398129.07,"YCOORD":138448.18,"WARD":"Ward 6","ZIPCODE":"20001","ADDRID":242768},"geometry":{"type":"Point","coordinates":[-77.0215749357313,38.91390458406979]}},{"type":"Feature","properties":{"OBJECTID":339,"NAME":"Octavia Riddick","TYPE":"CDH (Child Development Home)","ADDRESS":"1024 49TH STREET NE","XCOORD":405901.21,"YCOORD":137340.07,"WARD":"Ward 7","ZIPCODE":"20019","ADDRID":297737},"geometry":{"type":"Point","coordinates":[-76.93196825298931,38.90390453157885]}},{"type":"Feature","properties":{"OBJECTID":340,"NAME":"Odily De Leon","TYPE":"CDH (Child Development Home)","ADDRESS":"819 INGRAHAM STREET NW","XCOORD":397852.22,"YCOORD":142939.22,"WARD":"Ward 4","ZIPCODE":"20011","ADDRID":254682},"geometry":{"type":"Point","coordinates":[-77.0247811970565,38.95436060056486]}},{"type":"Feature","properties":{"OBJECTID":341,"NAME":"Our Children Infant Care & Pre","TYPE":"CDC (Child Development Center)","ADDRESS":"6640 GEORGIA AVENUE NW","XCOORD":397625.33,"YCOORD":144816.77,"WARD":"Ward 4","ZIPCODE":"20012","ADDRID":253386},"geometry":{"type":"Point","coordinates":[-77.02740532724262,38.97127346196261]}},{"type":"Feature","properties":{"OBJECTID":342,"NAME":"Our Redeemer Preshool & Infant Center","TYPE":"CDC (Child Development Center)","ADDRESS":"1725 MICHIGAN AVENUE NE","XCOORD":401812.53,"YCOORD":141765.17,"WARD":"Ward 5","ZIPCODE":"20017","ADDRID":286441},"geometry":{"type":"Point","coordinates":[-76.97909425304367,38.94378518976175]}},{"type":"Feature","properties":{"OBJECTID":343,"NAME":"Owl School, Inc.","TYPE":"CDC (Child Development Center)","ADDRESS":"1920 G STREET NW","XCOORD":396123.45,"YCOORD":136697.6,"WARD":"Ward 2","ZIPCODE":"20006","ADDRID":293216},"geometry":{"type":"Point","coordinates":[-77.04469073757274,38.89812818887005]}},{"type":"Feature","properties":{"OBJECTID":344,"NAME":"Palisades Montessori Llc","TYPE":"CDC (Child Development Center)","ADDRESS":"2828 HURST TERRACE NW","XCOORD":391212.37,"YCOORD":139973.55,"WARD":"Ward 3","ZIPCODE":"20016","ADDRID":224133},"geometry":{"type":"Point","coordinates":[-77.10134703621276,38.92760366191473]}},{"type":"Feature","properties":{"OBJECTID":345,"NAME":"Paramount Child Development Center","TYPE":"CDC (Child Development Center)","ADDRESS":"3924 4TH STREET SE","XCOORD":399972.54,"YCOORD":129377.64,"WARD":"Ward 8","ZIPCODE":"20032","ADDRID":29051},"geometry":{"type":"Point","coordinates":[-77.00031854303667,38.832195505048055]}},{"type":"Feature","properties":{"OBJECTID":346,"NAME":"Patricia D. Reeves","TYPE":"CDH (Child Development Home)","ADDRESS":"2000 SAVANNAH PLACE SE","XCOORD":402084.68,"YCOORD":131326.96,"WARD":"Ward 8","ZIPCODE":"20020","ADDRID":53126},"geometry":{"type":"Point","coordinates":[-76.97598659835293,38.84975338928364]}},{"type":"Feature","properties":{"OBJECTID":347,"NAME":"Paulette A Sansbury","TYPE":"CDH (Child Development Home)","ADDRESS":"4100 3RD STREET NW","XCOORD":398646.49,"YCOORD":141483,"WARD":"Ward 4","ZIPCODE":"20011","ADDRID":259600},"geometry":{"type":"Point","coordinates":[-77.01561484045013,38.94124414659507]}},{"type":"Feature","properties":{"OBJECTID":348,"NAME":"Peaches N Cream Child Development Center","TYPE":"CDC (Child Development Center)","ADDRESS":"356 EASTERN AVENUE NE","XCOORD":407688.53,"YCOORD":136246.62,"WARD":"Ward 7","ZIPCODE":"20019","ADDRID":33218},"geometry":{"type":"Point","coordinates":[-76.91137479899606,38.894040527122]}},{"type":"Feature","properties":{"OBJECTID":349,"NAME":"Petit Scholars","TYPE":"CDC (Child Development Center)","ADDRESS":"2940 12TH STREET NE","XCOORD":400794.33,"YCOORD":139952.55,"WARD":"Ward 5","ZIPCODE":"20017","ADDRID":289593},"geometry":{"type":"Point","coordinates":[-76.99084156778576,38.92745807345135]}},{"type":"Feature","properties":{"OBJECTID":350,"NAME":"Petit Scholars North Campus","TYPE":"CDC (Child Development Center)","ADDRESS":"3740 10TH STREET NE","XCOORD":400531.05,"YCOORD":140962.52,"WARD":"Ward 5","ZIPCODE":"20017","ADDRID":30872},"geometry":{"type":"Point","coordinates":[-76.99387709877723,38.93655639193296]}},{"type":"Feature","properties":{"OBJECTID":351,"NAME":"Pilgrim Baptist Church Cdc","TYPE":"CDC (Child Development Center)","ADDRESS":"700 I STREET NE","XCOORD":400350.61,"YCOORD":137075.11,"WARD":"Ward 6","ZIPCODE":"20002","ADDRID":289},"geometry":{"type":"Point","coordinates":[-76.99596029600794,38.90153741448263]}},{"type":"Feature","properties":{"OBJECTID":352,"NAME":"Preparatory School For Early Learning","TYPE":"CDC (Child Development Center)","ADDRESS":"3220 17TH STREET NW","XCOORD":396599.62,"YCOORD":140491.36,"WARD":"Ward 1","ZIPCODE":"20010","ADDRID":233527},"geometry":{"type":"Point","coordinates":[-77.0392202918777,38.93230561888268]}},{"type":"Feature","properties":{"OBJECTID":353,"NAME":"Quickie Becky Child Care Dev","TYPE":"CDC (Child Development Center)","ADDRESS":"6135 GEORGIA AVENUE NW","XCOORD":397613.43,"YCOORD":144080.94,"WARD":"Ward 4","ZIPCODE":"20011","ADDRID":302600},"geometry":{"type":"Point","coordinates":[-77.02754008810763,38.96464489359732]}},{"type":"Feature","properties":{"OBJECTID":354,"NAME":"Rainbow Child Development Center","TYPE":"CDC (Child Development Center)","ADDRESS":"505 57TH STREET NE","XCOORD":407037.1,"YCOORD":136468.91,"WARD":"Ward 7","ZIPCODE":"20019","ADDRID":14215},"geometry":{"type":"Point","coordinates":[-76.91888170402362,38.89604845213461]}},{"type":"Feature","properties":{"OBJECTID":355,"NAME":"Randall Hyland Private School","TYPE":"CDC (Child Development Center)","ADDRESS":"4339 BOWEN ROAD SE","XCOORD":405547.31,"YCOORD":133911.39,"WARD":"Ward 7","ZIPCODE":"20019","ADDRID":23109},"geometry":{"type":"Point","coordinates":[-76.93607598229644,38.87301999611146]}},{"type":"Feature","properties":{"OBJECTID":356,"NAME":"Red Robin CDC @ Mount Bethel Church","TYPE":"CDC (Child Development Center)","ADDRESS":"75 RHODE ISLAND AVENUE NW","XCOORD":398988.64,"YCOORD":138704.35,"WARD":"Ward 5","ZIPCODE":"20001","ADDRID":227379},"geometry":{"type":"Point","coordinates":[-77.0116640906419,38.91621365926693]}},{"type":"Feature","properties":{"OBJECTID":357,"NAME":"Rehoboth Baptist Church Day Ca","TYPE":"CDC (Child Development Center)","ADDRESS":"621 ALABAMA AVENUE SE","XCOORD":400256.8,"YCOORD":130578.48,"WARD":"Ward 8","ZIPCODE":"20032","ADDRID":3799},"geometry":{"type":"Point","coordinates":[-76.99704420264105,38.84301318194895]}},{"type":"Feature","properties":{"OBJECTID":358,"NAME":"Reina  Calderon","TYPE":"CDH (Child Development Home)","ADDRESS":"5608 EASTERN AVENUE NE","XCOORD":400660.27,"YCOORD":143297.37,"WARD":"Ward 4","ZIPCODE":"20011","ADDRID":7583},"geometry":{"type":"Point","coordinates":[-76.99238441559594,38.957589289788864]}},{"type":"Feature","properties":{"OBJECTID":359,"NAME":"Renee Lewis/Angels Rising Childcare","TYPE":"CDH (Child Development Home)","ADDRESS":"864 BELLEVUE STREET SE","XCOORD":400767.7,"YCOORD":129263.35,"WARD":"Ward 8","ZIPCODE":"20032","ADDRID":151178},"geometry":{"type":"Point","coordinates":[-76.99116061561661,38.83116559354175]}},{"type":"Feature","properties":{"OBJECTID":360,"NAME":"Renita Simril-hill","TYPE":"CDH (Child Development Home)","ADDRESS":"1425 BANGOR STREET SE","XCOORD":401121.45,"YCOORD":132505.1,"WARD":"Ward 8","ZIPCODE":"20020","ADDRID":63989},"geometry":{"type":"Point","coordinates":[-76.98708116521395,38.86036833587546]}},{"type":"Feature","properties":{"OBJECTID":361,"NAME":"Rhonda Ayers","TYPE":"CDH (Child Development Home)","ADDRESS":"1208 ORREN STREET NE","XCOORD":401212.19,"YCOORD":137187.29,"WARD":"Ward 5","ZIPCODE":"20002","ADDRID":71924},"geometry":{"type":"Point","coordinates":[-76.98602742172348,38.902547206433454]}},{"type":"Feature","properties":{"OBJECTID":362,"NAME":"Richard Dunn  / Fort Lincoln Tots","TYPE":"CDH (Child Development Home)","ADDRESS":"2444 BALDWIN CRESCENT NE","XCOORD":403808.77,"YCOORD":139397.92,"WARD":"Ward 5","ZIPCODE":"20018","ADDRID":311328},"geometry":{"type":"Point","coordinates":[-76.95608021399029,38.9224538957]}},{"type":"Feature","properties":{"OBJECTID":363,"NAME":"River Park Nursery School","TYPE":"CDC (Child Development Center)","ADDRESS":"212 EAST CAPITOL STREET NE","XCOORD":399752.08,"YCOORD":135807.71,"WARD":"Ward 6","ZIPCODE":"20003","ADDRID":286648},"geometry":{"type":"Point","coordinates":[-77.00285995729772,38.89012024487675]}},{"type":"Feature","properties":{"OBJECTID":364,"NAME":"Robbin's Nest Learning Center","TYPE":"CDC (Child Development Center)","ADDRESS":"909 19TH STREET NE","XCOORD":402083.98,"YCOORD":137176.84,"WARD":"Ward 5","ZIPCODE":"20002","ADDRID":81999},"geometry":{"type":"Point","coordinates":[-76.97597692960228,38.90245143494027]}},{"type":"Feature","properties":{"OBJECTID":365,"NAME":"Robin Barnes","TYPE":"CDH (Child Development Home)","ADDRESS":"51 TUCKERMAN STREET NW","XCOORD":399084.11,"YCOORD":144418.13,"WARD":"Ward 4","ZIPCODE":"20011","ADDRID":245477},"geometry":{"type":"Point","coordinates":[-77.01057087433004,38.967685150257296]}},{"type":"Feature","properties":{"OBJECTID":366,"NAME":"Roots Activity Learning Center","TYPE":"CDC (Child Development Center)","ADDRESS":"6222 NORTH CAPITOL STREET NW","XCOORD":399182.01,"YCOORD":144257.74,"WARD":"Ward 4","ZIPCODE":"20011","ADDRID":277484},"geometry":{"type":"Point","coordinates":[-77.00944100068811,38.9662404143586]}},{"type":"Feature","properties":{"OBJECTID":367,"NAME":"Rosemount Center","TYPE":"CDC (Child Development Center)","ADDRESS":"2000 ROSEMOUNT AVENUE NW","XCOORD":395925.23,"YCOORD":140582.29,"WARD":"Ward 1","ZIPCODE":"20010","ADDRID":234873},"geometry":{"type":"Point","coordinates":[-77.04699885282362,38.93312187504628]}},{"type":"Feature","properties":{"OBJECTID":368,"NAME":"Rosilene Ribeiro","TYPE":"CDH (Child Development Home)","ADDRESS":"817 TEWKESBURY PLACE NW","XCOORD":397830.07,"YCOORD":144464.25,"WARD":"Ward 4","ZIPCODE":"20012","ADDRID":254044},"geometry":{"type":"Point","coordinates":[-77.0250415680293,38.96809840675628]}},{"type":"Feature","properties":{"OBJECTID":369,"NAME":"Roslyn Taylor/Lia's Rainbow LLC","TYPE":"CDX (Child Development Home Expanded)","ADDRESS":"4428 ORD STREET NE","XCOORD":405270.06,"YCOORD":137878.85,"WARD":"Ward 7","ZIPCODE":"20019","ADDRID":21443},"geometry":{"type":"Point","coordinates":[-76.9392405359589,38.90876205974756]}},{"type":"Feature","properties":{"OBJECTID":370,"NAME":"Safe And Sound Day Care Center","TYPE":"CDC (Child Development Center)","ADDRESS":"4922 NANNIE HELEN BURROUGHS AVENUE NE","XCOORD":406043.12,"YCOORD":136756.88,"WARD":"Ward 7","ZIPCODE":"20019","ADDRID":16043},"geometry":{"type":"Point","coordinates":[-76.93033732831555,38.89864998455197]}},{"type":"Feature","properties":{"OBJECTID":371,"NAME":"Saint Alban's Early Childhood Center","TYPE":"CDC (Child Development Center)","ADDRESS":"3001 WISCONSIN AVENUE NW","XCOORD":393720.79,"YCOORD":140179.36,"WARD":"Ward 3","ZIPCODE":"20016","ADDRID":221620},"geometry":{"type":"Point","coordinates":[-77.07242017821609,38.929479168818695]}},{"type":"Feature","properties":{"OBJECTID":372,"NAME":"Saint John's Church Preschool","TYPE":"CDC (Child Development Center)","ADDRESS":"3240 O STREET NW","XCOORD":394363.14,"YCOORD":137737.66,"WARD":"Ward 2","ZIPCODE":"20007","ADDRID":272132},"geometry":{"type":"Point","coordinates":[-77.0649919335743,38.90748789099954]}},{"type":"Feature","properties":{"OBJECTID":373,"NAME":"Saint Patrick's Episcopal Day School","TYPE":"CDC (Child Development Center)","ADDRESS":"4700 WHITEHAVEN PARKWAY NW","XCOORD":392074.86,"YCOORD":138695.11,"WARD":"Ward 3","ZIPCODE":"20007","ADDRID":224448},"geometry":{"type":"Point","coordinates":[-77.09138547929847,38.916095268040785]}},{"type":"Feature","properties":{"OBJECTID":374,"NAME":"Saint Paul's Lutheran Church","TYPE":"CDC (Child Development Center)","ADDRESS":"3600 ELLICOTT STREET NW","XCOORD":393901.56,"YCOORD":142806.09,"WARD":"Ward 3","ZIPCODE":"20008","ADDRID":302094},"geometry":{"type":"Point","coordinates":[-77.07035871457342,38.95314278391532]}},{"type":"Feature","properties":{"OBJECTID":375,"NAME":"Saint Timothy Episcopal CDC","TYPE":"CDC (Child Development Center)","ADDRESS":"3601 ALABAMA AVENUE SE","XCOORD":403810.7,"YCOORD":132797.74,"WARD":"Ward 7","ZIPCODE":"20020","ADDRID":33104},"geometry":{"type":"Point","coordinates":[-76.95609456215745,38.862997020457335]}},{"type":"Feature","properties":{"OBJECTID":376,"NAME":"Samaritan Inn, Inc","TYPE":"CDC (Child Development Center)","ADDRESS":"1422 HARVARD STREET NW","XCOORD":397107.56,"YCOORD":139819.07,"WARD":"Ward 1","ZIPCODE":"20009","ADDRID":234317},"geometry":{"type":"Point","coordinates":[-77.0333591741227,38.92625124043421]}},{"type":"Feature","properties":{"OBJECTID":377,"NAME":"School For Friends","TYPE":"CDC (Child Development Center)","ADDRESS":"2201 P STREET NW","XCOORD":395722.41,"YCOORD":138053.75,"WARD":"Ward 2","ZIPCODE":"20037","ADDRID":301069},"geometry":{"type":"Point","coordinates":[-77.0493223299953,38.91034300539213]}},{"type":"Feature","properties":{"OBJECTID":378,"NAME":"Second New St. Paul Baptist Church","TYPE":"CDC (Child Development Center)","ADDRESS":"2400 FRANKLIN STREET NE","XCOORD":402454.77,"YCOORD":139769.17,"WARD":"Ward 5","ZIPCODE":"20018","ADDRID":287025},"geometry":{"type":"Point","coordinates":[-76.97169297698099,38.925803059376655]}},{"type":"Feature","properties":{"OBJECTID":379,"NAME":"Semillitas Child Development Center","TYPE":"CDC (Child Development Center)","ADDRESS":"2100 NEW HAMPSHIRE AVENUE NW","XCOORD":396924.69,"YCOORD":138968.6,"WARD":"Ward 1","ZIPCODE":"20009","ADDRID":299902},"geometry":{"type":"Point","coordinates":[-77.03546430061795,38.918589311140735]}},{"type":"Feature","properties":{"OBJECTID":380,"NAME":"Sheila J Harley","TYPE":"CDH (Child Development Home)","ADDRESS":"3926 BURNS COURT SE","XCOORD":404362.27,"YCOORD":135590.98,"WARD":"Ward 7","ZIPCODE":"20019","ADDRID":299491},"geometry":{"type":"Point","coordinates":[-76.9497215278941,38.88815707394245]}},{"type":"Feature","properties":{"OBJECTID":381,"NAME":"Shiloh Child Development Center","TYPE":"CDC (Child Development Center)","ADDRESS":"1507 9TH STREET NW","XCOORD":397937.8,"YCOORD":138011.52,"WARD":"Ward 6","ZIPCODE":"20001","ADDRID":225596},"geometry":{"type":"Point","coordinates":[-77.0237790518176,38.90997057402584]}},{"type":"Feature","properties":{"OBJECTID":382,"NAME":"Shining Star Early Learning Center","TYPE":"CDC (Child Development Center)","ADDRESS":"5307 EAST CAPITOL STREET SE","XCOORD":406456.17,"YCOORD":135722.74,"WARD":"Ward 7","ZIPCODE":"20019","ADDRID":147569},"geometry":{"type":"Point","coordinates":[-76.92558541666618,38.88933113557017]}},{"type":"Feature","properties":{"OBJECTID":383,"NAME":"Shirley Cox","TYPE":"CDX (Child Development Home Expanded)","ADDRESS":"3008 K STREET SE","XCOORD":403108.5,"YCOORD":134527.09,"WARD":"Ward 7","ZIPCODE":"20019","ADDRID":42327},"geometry":{"type":"Point","coordinates":[-76.96417764461147,38.878578468460944]}},{"type":"Feature","properties":{"OBJECTID":384,"NAME":"Shirley Washington Roberts/Capitol Hill Tender Hearts","TYPE":"CDH (Child Development Home)","ADDRESS":"1736 INDEPENDENCE AVENUE SE","XCOORD":401777.73,"YCOORD":135549.52,"WARD":"Ward 6","ZIPCODE":"20003","ADDRID":56738},"geometry":{"type":"Point","coordinates":[-76.97951177072788,38.88779261030779]}},{"type":"Feature","properties":{"OBJECTID":385,"NAME":"Silvia Mego Jara","TYPE":"CDH (Child Development Home)","ADDRESS":"518 ONEIDA PLACE NW","XCOORD":398206.21,"YCOORD":143768.31,"WARD":"Ward 4","ZIPCODE":"20011","ADDRID":246512},"geometry":{"type":"Point","coordinates":[-77.02069938823692,38.96183005463256]}},{"type":"Feature","properties":{"OBJECTID":386,"NAME":"Smithsonian Early Enrichment Center","TYPE":"CDC (Child Development Center)","ADDRESS":"1400 CONSTITUTION AVENUE NW","XCOORD":397154.17,"YCOORD":135933.91,"WARD":"Ward 2","ZIPCODE":"20004","ADDRID":310702},"geometry":{"type":"Point","coordinates":[-77.03280554484462,38.89125252964262]}},{"type":"Feature","properties":{"OBJECTID":387,"NAME":"Smithsonian Early Enrichment Center Ii-nhn","TYPE":"CDC (Child Development Center)","ADDRESS":"1000 CONSTITUTION AVENUE NE","XCOORD":400652.2,"YCOORD":136038.3,"WARD":"Ward 6","ZIPCODE":"20002","ADDRID":76130},"geometry":{"type":"Point","coordinates":[-76.99248441648122,38.892197279361675]}},{"type":"Feature","properties":{"OBJECTID":388,"NAME":"Social Solutions International Inc","TYPE":"CDC (Child Development Center)","ADDRESS":"555 4TH STREET NW","XCOORD":398643.4,"YCOORD":136555.14,"WARD":"Ward 2","ZIPCODE":"20001","ADDRID":237750},"geometry":{"type":"Point","coordinates":[-77.01564074294178,38.896852359141064]}},{"type":"Feature","properties":{"OBJECTID":389,"NAME":"Sonia Lee","TYPE":"CDH (Child Development Home)","ADDRESS":"8 FARRAGUT PLACE NW","XCOORD":399190.94,"YCOORD":142567.23,"WARD":"Ward 4","ZIPCODE":"20011","ADDRID":276087},"geometry":{"type":"Point","coordinates":[-77.00933596285738,38.951011867481746]}},{"type":"Feature","properties":{"OBJECTID":390,"NAME":"Southeast Children's Fund Cdc I","TYPE":"CDC (Child Development Center)","ADDRESS":"4233 6TH STREET SE","XCOORD":400111,"YCOORD":128886.32,"WARD":"Ward 8","ZIPCODE":"20032","ADDRID":278478},"geometry":{"type":"Point","coordinates":[-76.99872394385706,38.82776945875871]}},{"type":"Feature","properties":{"OBJECTID":391,"NAME":"Southeast Children's Fund Cdc II","TYPE":"CDC (Child Development Center)","ADDRESS":"2300 MARTIN LUTHER KING JR AVENUE SE","XCOORD":400748.97,"YCOORD":132808.09,"WARD":"Ward 8","ZIPCODE":"20020","ADDRID":307921},"geometry":{"type":"Point","coordinates":[-76.99137247317147,38.863098192949614]}},{"type":"Feature","properties":{"OBJECTID":392,"NAME":"Spanish Education Development Center","TYPE":"CDC (Child Development Center)","ADDRESS":"4110 KANSAS AVENUE NW","XCOORD":397676.62,"YCOORD":141481.81,"WARD":"Ward 4","ZIPCODE":"20011","ADDRID":223667},"geometry":{"type":"Point","coordinates":[-77.02680215490305,38.94123139674651]}},{"type":"Feature","properties":{"OBJECTID":393,"NAME":"Springboard  Education In America #1","TYPE":"CDC (Child Development Center)","ADDRESS":"421 P STREET NW","XCOORD":398428.65,"YCOORD":138002.89,"WARD":"Ward 6","ZIPCODE":"20001","ADDRID":294487},"geometry":{"type":"Point","coordinates":[-77.01811962654844,38.9098938468423]}},{"type":"Feature","properties":{"OBJECTID":394,"NAME":"Springboard Education  In America","TYPE":"CDC (Child Development Center)","ADDRESS":"1375 MOUNT OLIVET ROAD NE","XCOORD":401636.15,"YCOORD":137801.71,"WARD":"Ward 5","ZIPCODE":"20002","ADDRID":286108},"geometry":{"type":"Point","coordinates":[-76.98113829028553,38.90808143103589]}},{"type":"Feature","properties":{"OBJECTID":395,"NAME":"Springboard Education In Amerdica #2","TYPE":"CDC (Child Development Center)","ADDRESS":"2600 DOUGLASS ROAD SE","XCOORD":401037.32,"YCOORD":132090.08,"WARD":"Ward 8","ZIPCODE":"20020","ADDRID":311456},"geometry":{"type":"Point","coordinates":[-76.98805111951874,38.85662976262273]}},{"type":"Feature","properties":{"OBJECTID":396,"NAME":"Springfield Baptist Church \"kingdom Kids\" Cdc","TYPE":"CDC (Child Development Center)","ADDRESS":"508 P STREET NW","XCOORD":398302.51,"YCOORD":137939.73,"WARD":"Ward 6","ZIPCODE":"20001","ADDRID":279812},"geometry":{"type":"Point","coordinates":[-77.01957383860938,38.90932464518533]}},{"type":"Feature","properties":{"OBJECTID":397,"NAME":"St. Albans Early Childhood Center At Christ","TYPE":"CDC (Child Development Center)","ADDRESS":"3855 MASSACHUSETTS AVENUE NW","XCOORD":393411.27,"YCOORD":140389.99,"WARD":"Ward 3","ZIPCODE":"20016","ADDRID":222182},"geometry":{"type":"Point","coordinates":[-77.07599188132886,38.93137432195288]}},{"type":"Feature","properties":{"OBJECTID":398,"NAME":"St. Columba's Nursery School","TYPE":"CDC (Child Development Center)","ADDRESS":"4201 ALBEMARLE STREET NW","XCOORD":392853.08,"YCOORD":142261.1,"WARD":"Ward 3","ZIPCODE":"20016","ADDRID":301545},"geometry":{"type":"Point","coordinates":[-77.08244912434844,38.94822546063586]}},{"type":"Feature","properties":{"OBJECTID":399,"NAME":"St. Philip's Child Development Center","TYPE":"CDC (Child Development Center)","ADDRESS":"2001 14TH STREET SE","XCOORD":401228.99,"YCOORD":133091.83,"WARD":"Ward 8","ZIPCODE":"20020","ADDRID":53134},"geometry":{"type":"Point","coordinates":[-76.98584106314577,38.86565370130943]}},{"type":"Feature","properties":{"OBJECTID":400,"NAME":"Step By Step @ G Street","TYPE":"CDC (Child Development Center)","ADDRESS":"4625 G STREET SE","XCOORD":405661.84,"YCOORD":134751.01,"WARD":"Ward 7","ZIPCODE":"20019","ADDRID":18817},"geometry":{"type":"Point","coordinates":[-76.9347492419306,38.88058289455352]}},{"type":"Feature","properties":{"OBJECTID":401,"NAME":"Stephanie Dobson","TYPE":"CDH (Child Development Home)","ADDRESS":"3327 AMES STREET NE","XCOORD":403531.42,"YCOORD":135845.23,"WARD":"Ward 7","ZIPCODE":"20019","ADDRID":36377},"geometry":{"type":"Point","coordinates":[-76.95929683142418,38.89045118316868]}},{"type":"Feature","properties":{"OBJECTID":402,"NAME":"Sunshine Early Learning Center","TYPE":"CDC (Child Development Center)","ADDRESS":"4224 6TH STREET SE","XCOORD":400161.98,"YCOORD":128964.64,"WARD":"Ward 8","ZIPCODE":"20032","ADDRID":149601},"geometry":{"type":"Point","coordinates":[-76.99813681256134,38.82847499417815]}},{"type":"Feature","properties":{"OBJECTID":403,"NAME":"Sybrett  Hawkins","TYPE":"CDH (Child Development Home)","ADDRESS":"4020 1ST STREET SE","XCOORD":399518.08,"YCOORD":129198.12,"WARD":"Ward 8","ZIPCODE":"20032","ADDRID":27774},"geometry":{"type":"Point","coordinates":[-77.00555254572492,38.83057817375329]}},{"type":"Feature","properties":{"OBJECTID":404,"NAME":"Sylvia Crews","TYPE":"CDH (Child Development Home)","ADDRESS":"5036 QUEENS STROLL PLACE SE","XCOORD":406090.85,"YCOORD":135052.47,"WARD":"Ward 7","ZIPCODE":"20019","ADDRID":155967},"geometry":{"type":"Point","coordinates":[-76.92980220664624,38.88329569573879]}},{"type":"Feature","properties":{"OBJECTID":405,"NAME":"Tabernacle Baptist Church CDC","TYPE":"CDC (Child Development Center)","ADDRESS":"719 DIVISION AVENUE NE","XCOORD":406504.61,"YCOORD":136849.4,"WARD":"Ward 7","ZIPCODE":"20019","ADDRID":288914},"geometry":{"type":"Point","coordinates":[-76.92501640795459,38.89948014443179]}},{"type":"Feature","properties":{"OBJECTID":406,"NAME":"Takoma Childrens Center Inc","TYPE":"CDC (Child Development Center)","ADDRESS":"6925 WILLOW STREET NW","XCOORD":398753.46,"YCOORD":145044.48,"WARD":"Ward 4","ZIPCODE":"20012","ADDRID":280101},"geometry":{"type":"Point","coordinates":[-77.014387431513,38.973327053906864]}},{"type":"Feature","properties":{"OBJECTID":407,"NAME":"Tara Goitein","TYPE":"CDH (Child Development Home)","ADDRESS":"2950 LEGATION STREET NW","XCOORD":394765.38,"YCOORD":143953.55,"WARD":"Ward 4","ZIPCODE":"20015","ADDRID":261581},"geometry":{"type":"Point","coordinates":[-77.06040176623995,38.96348497429797]}},{"type":"Feature","properties":{"OBJECTID":408,"NAME":"Temple Sinai Nursery School","TYPE":"CDC (Child Development Center)","ADDRESS":"3100 MILITARY ROAD NW","XCOORD":394547.72,"YCOORD":143629.18,"WARD":"Ward 4","ZIPCODE":"20015","ADDRID":261370},"geometry":{"type":"Point","coordinates":[-77.06291064836334,38.96056164298461]}},{"type":"Feature","properties":{"OBJECTID":409,"NAME":"Terri Denice Boyd","TYPE":"CDH (Child Development Home)","ADDRESS":"3457 25TH STREET SE","XCOORD":402585.25,"YCOORD":130951.53,"WARD":"Ward 8","ZIPCODE":"20020","ADDRID":34415},"geometry":{"type":"Point","coordinates":[-76.97022140258225,38.84637002218104]}},{"type":"Feature","properties":{"OBJECTID":410,"NAME":"The C.H.I.L.D. Center, Inc.","TYPE":"CDC (Child Development Center)","ADDRESS":"202 RIGGS ROAD NE","XCOORD":399701.63,"YCOORD":143160.74,"WARD":"Ward 4","ZIPCODE":"20011","ADDRID":302032},"geometry":{"type":"Point","coordinates":[-77.00344467428359,38.956358687771264]}},{"type":"Feature","properties":{"OBJECTID":411,"NAME":"The Child Center B/A School Program","TYPE":"CDC (Child Development Center)","ADDRESS":"801 DIVISION AVENUE NE","XCOORD":406552.65,"YCOORD":136970.78,"WARD":"Ward 7","ZIPCODE":"20019","ADDRID":289787},"geometry":{"type":"Point","coordinates":[-76.92446143985119,38.90057322205526]}},{"type":"Feature","properties":{"OBJECTID":412,"NAME":"The Community Preschool Of The Pali","TYPE":"CDC (Child Development Center)","ADDRESS":"5200 CATHEDRAL AVENUE NW","XCOORD":390823.66,"YCOORD":140236.01,"WARD":"Ward 3","ZIPCODE":"20016","ADDRID":224233},"geometry":{"type":"Point","coordinates":[-77.10583340183285,38.92996400858246]}},{"type":"Feature","properties":{"OBJECTID":413,"NAME":"The Elizabeth Ministry/Asa Early Learning Academy","TYPE":"CDC (Child Development Center)","ADDRESS":"200 55TH STREET NE","XCOORD":406684.63,"YCOORD":135980.13,"WARD":"Ward 7","ZIPCODE":"20019","ADDRID":53307},"geometry":{"type":"Point","coordinates":[-76.92294957597353,38.89164809324175]}},{"type":"Feature","properties":{"OBJECTID":414,"NAME":"The Enrichment Center","TYPE":"CDC (Child Development Center)","ADDRESS":"4501 16TH STREET NW","XCOORD":396900.21,"YCOORD":141952.32,"WARD":"Ward 4","ZIPCODE":"20011","ADDRID":255485},"geometry":{"type":"Point","coordinates":[-77.03576006282275,38.94546748920123]}},{"type":"Feature","properties":{"OBJECTID":415,"NAME":"The Franklin Montessori School","TYPE":"CDC (Child Development Center)","ADDRESS":"4473 CONNECTICUT AVENUE NW","XCOORD":394365.51,"YCOORD":142176.03,"WARD":"Ward 3","ZIPCODE":"20008","ADDRID":284925},"geometry":{"type":"Point","coordinates":[-77.06500104637819,38.947470129946794]}},{"type":"Feature","properties":{"OBJECTID":416,"NAME":"The French Maternal School","TYPE":"CDC (Child Development Center)","ADDRESS":"3115 P STREET NW","XCOORD":394613.53,"YCOORD":137964.49,"WARD":"Ward 2","ZIPCODE":"20007","ADDRID":275539},"geometry":{"type":"Point","coordinates":[-77.06210686570961,38.909532823992194]}},{"type":"Feature","properties":{"OBJECTID":417,"NAME":"The French Maternal School @ N Street)","TYPE":"CDC (Child Development Center)","ADDRESS":"3224 N STREET NW","XCOORD":394443.07,"YCOORD":137647.33,"WARD":"Ward 2","ZIPCODE":"20007","ADDRID":272154},"geometry":{"type":"Point","coordinates":[-77.06406965747564,38.906674676058216]}},{"type":"Feature","properties":{"OBJECTID":418,"NAME":"The Georgetown Montessori School Inc.","TYPE":"CDC (Child Development Center)","ADDRESS":"1041 WISCONSIN AVENUE NW","XCOORD":394620.16,"YCOORD":137303.84,"WARD":"Ward 2","ZIPCODE":"20007","ADDRID":273796},"geometry":{"type":"Point","coordinates":[-77.06202524801469,38.90358149977965]}},{"type":"Feature","properties":{"OBJECTID":419,"NAME":"The Happy Kids Learning Center","TYPE":"CDC (Child Development Center)","ADDRESS":"3233 PENNSYLVANIA AVENUE SE","XCOORD":403519.37,"YCOORD":133402.95,"WARD":"Ward 7","ZIPCODE":"20020","ADDRID":37792},"geometry":{"type":"Point","coordinates":[-76.95944823217938,38.8684502160554]}},{"type":"Feature","properties":{"OBJECTID":420,"NAME":"The Harbor At Station Place","TYPE":"CDC (Child Development Center)","ADDRESS":"100 F STREET NE","XCOORD":399637.45,"YCOORD":136632.63,"WARD":"Ward 6","ZIPCODE":"20549","ADDRID":297732},"geometry":{"type":"Point","coordinates":[-77.00418168708714,38.89755138975021]}},{"type":"Feature","properties":{"OBJECTID":421,"NAME":"The Hill Preschool","TYPE":"CDC (Child Development Center)","ADDRESS":"337 NORTH CAROLINA AVENUE SE","XCOORD":399917.93,"YCOORD":135256.92,"WARD":"Ward 6","ZIPCODE":"20003","ADDRID":301926},"geometry":{"type":"Point","coordinates":[-77.00094820480713,38.88515855044088]}},{"type":"Feature","properties":{"OBJECTID":422,"NAME":"The Ideal Child Care Development Center Ii","TYPE":"CDC (Child Development Center)","ADDRESS":"801 ROCK CREEK CHURCH ROAD NW","XCOORD":397979.55,"YCOORD":140988.43,"WARD":"Ward 4","ZIPCODE":"20010","ADDRID":228315},"geometry":{"type":"Point","coordinates":[-77.02330644607775,38.93678763320557]}},{"type":"Feature","properties":{"OBJECTID":423,"NAME":"The Montessori School Of Washington","TYPE":"CDC (Child Development Center)","ADDRESS":"4380 MACARTHUR BOULEVARD NW","XCOORD":392941.33,"YCOORD":137635.44,"WARD":"Ward 3","ZIPCODE":"20007","ADDRID":284898},"geometry":{"type":"Point","coordinates":[-77.08138350034184,38.90655678903574]}},{"type":"Feature","properties":{"OBJECTID":424,"NAME":"The River School, Inc.","TYPE":"CDC (Child Development Center)","ADDRESS":"4880 MACARTHUR BOULEVARD NW","XCOORD":391500.34,"YCOORD":138875.43,"WARD":"Ward 3","ZIPCODE":"20007","ADDRID":285007},"geometry":{"type":"Point","coordinates":[-77.09801238132994,38.91771428077462]}},{"type":"Feature","properties":{"OBJECTID":425,"NAME":"The World Bank Cdc","TYPE":"CDC (Child Development Center)","ADDRESS":"1850 I STREET NW","XCOORD":396290.42,"YCOORD":137016.66,"WARD":"Ward 2","ZIPCODE":"20433","ADDRID":240965},"geometry":{"type":"Point","coordinates":[-77.04276764877038,38.90100311674181]}},{"type":"Feature","properties":{"OBJECTID":426,"NAME":"The Ymca @ The Children's House","TYPE":"CDC (Child Development Center)","ADDRESS":"451 7TH STREET SW","XCOORD":398020,"YCOORD":135162.56,"WARD":"Ward 6","ZIPCODE":"20410","ADDRID":291719},"geometry":{"type":"Point","coordinates":[-77.02282308865625,38.88430629283918]}},{"type":"Feature","properties":{"OBJECTID":427,"NAME":"Tina    Zewde","TYPE":"CDH (Child Development Home)","ADDRESS":"6019 2ND STREET NW","XCOORD":398835.67,"YCOORD":143961.48,"WARD":"Ward 4","ZIPCODE":"20011","ADDRID":245594},"geometry":{"type":"Point","coordinates":[-77.01343688352067,38.96357123928368]}},{"type":"Feature","properties":{"OBJECTID":428,"NAME":"Tiny Findings, Inc.","TYPE":"CDC (Child Development Center)","ADDRESS":"441 G STREET NW","XCOORD":398477.75,"YCOORD":136802.66,"WARD":"Ward 2","ZIPCODE":"20548","ADDRID":237589},"geometry":{"type":"Point","coordinates":[-77.01755085281484,38.89908183793949]}},{"type":"Feature","properties":{"OBJECTID":429,"NAME":"Tita Gashaw Beza","TYPE":"CDH (Child Development Home)","ADDRESS":"511 FLORIDA AVENUE NE","XCOORD":400081.64,"YCOORD":137606.08,"WARD":"Ward 6","ZIPCODE":"20002","ADDRID":13317},"geometry":{"type":"Point","coordinates":[-76.99906103866978,38.906320646184575]}},{"type":"Feature","properties":{"OBJECTID":430,"NAME":"Toddlers On The Hill","TYPE":"CDC (Child Development Center)","ADDRESS":"800 11TH STREET NE","XCOORD":400712.33,"YCOORD":136953.85,"WARD":"Ward 6","ZIPCODE":"20002","ADDRID":79534},"geometry":{"type":"Point","coordinates":[-76.9917903530788,38.90044484236606]}},{"type":"Feature","properties":{"OBJECTID":431,"NAME":"Towana M. Mcmickens","TYPE":"CDH (Child Development Home)","ADDRESS":"2739 KNOX TERRACE SE","XCOORD":402831.62,"YCOORD":131611.27,"WARD":"Ward 8","ZIPCODE":"20020","ADDRID":289153},"geometry":{"type":"Point","coordinates":[-76.96738061955391,38.85231249059089]}},{"type":"Feature","properties":{"OBJECTID":432,"NAME":"Triangle Tots","TYPE":"CDC (Child Development Center)","ADDRESS":"1300 PENNSYLVANIA AVENUE NW","XCOORD":397379.12,"YCOORD":136343.99,"WARD":"Ward 2","ZIPCODE":"20004","ADDRID":293198},"geometry":{"type":"Point","coordinates":[-77.03021416003615,38.894947381854784]}},{"type":"Feature","properties":{"OBJECTID":433,"NAME":"Trina Walker","TYPE":"CDH (Child Development Home)","ADDRESS":"212 RANDOLPH PLACE NE","XCOORD":399750.34,"YCOORD":138407.67,"WARD":"Ward 5","ZIPCODE":"20002","ADDRID":51570},"geometry":{"type":"Point","coordinates":[-77.00288096003626,38.91354161294343]}},{"type":"Feature","properties":{"OBJECTID":434,"NAME":"Trusting Hands Child Development Center","TYPE":"CDC (Child Development Center)","ADDRESS":"7750 16TH STREET NW","XCOORD":396804.08,"YCOORD":146373.03,"WARD":"Ward 4","ZIPCODE":"20012","ADDRID":256418},"geometry":{"type":"Point","coordinates":[-77.03688958324472,38.98528999681959]}},{"type":"Feature","properties":{"OBJECTID":435,"NAME":"Tsgreda Thare","TYPE":"CDH (Child Development Home)","ADDRESS":"6427 9TH STREET NW","XCOORD":397767.74,"YCOORD":144490.5,"WARD":"Ward 4","ZIPCODE":"20012","ADDRID":254095},"geometry":{"type":"Point","coordinates":[-77.02576089250314,38.96833471690103]}},{"type":"Feature","properties":{"OBJECTID":436,"NAME":"Tucker's Day Care Center I","TYPE":"CDC (Child Development Center)","ADDRESS":"3215 11TH PLACE SE","XCOORD":400717.09,"YCOORD":130626.58,"WARD":"Ward 8","ZIPCODE":"20032","ADDRID":38378},"geometry":{"type":"Point","coordinates":[-76.9917420752246,38.84344623369066]}},{"type":"Feature","properties":{"OBJECTID":437,"NAME":"Tucker's Day Care Center Ii","TYPE":"CDC (Child Development Center)","ADDRESS":"3219 9TH PLACE SE","XCOORD":400578.26,"YCOORD":130578.73,"WARD":"Ward 8","ZIPCODE":"20032","ADDRID":38286},"geometry":{"type":"Point","coordinates":[-76.9933413069227,38.84301528163079]}},{"type":"Feature","properties":{"OBJECTID":438,"NAME":"Twana Deal","TYPE":"CDH (Child Development Home)","ADDRESS":"3137 BUENA VISTA TERRACE SE","XCOORD":402985.41,"YCOORD":131454.26,"WARD":"Ward 8","ZIPCODE":"20020","ADDRID":39646},"geometry":{"type":"Point","coordinates":[-76.9656095643397,38.85089756783775]}},{"type":"Feature","properties":{"OBJECTID":439,"NAME":"UDC Early Childhood Lab School","TYPE":"CDC (Child Development Center)","ADDRESS":"4200 CONNECTICUT AVENUE NW","XCOORD":394423.74,"YCOORD":141839.77,"WARD":"Ward 3","ZIPCODE":"20008","ADDRID":297694},"geometry":{"type":"Point","coordinates":[-77.06432657926098,38.94444137695885]}},{"type":"Feature","properties":{"OBJECTID":440,"NAME":"Ujamaa School, Inc.","TYPE":"CDC (Child Development Center)","ADDRESS":"1554 8TH STREET NW","XCOORD":397981.89,"YCOORD":138124.28,"WARD":"Ward 6","ZIPCODE":"20001","ADDRID":225799},"geometry":{"type":"Point","coordinates":[-77.02327103410401,38.91098645713707]}},{"type":"Feature","properties":{"OBJECTID":441,"NAME":"UPO @ Anacostia High School","TYPE":"CDC (Child Development Center)","ADDRESS":"1601 16TH STREET SE","XCOORD":401468.56,"YCOORD":133584.5,"WARD":"Ward 8","ZIPCODE":"20020","ADDRID":155922},"geometry":{"type":"Point","coordinates":[-76.98307953050461,38.87009150762566]}},{"type":"Feature","properties":{"OBJECTID":442,"NAME":"UPO @ Atlantic Garden Early Childhood Center","TYPE":"CDC (Child Development Center)","ADDRESS":"4228 4TH STREET SE","XCOORD":400044.52,"YCOORD":128825.31,"WARD":"Ward 8","ZIPCODE":"20032","ADDRID":147357},"geometry":{"type":"Point","coordinates":[-76.99948956695499,38.8272198578468]}},{"type":"Feature","properties":{"OBJECTID":443,"NAME":"UPO @ Azeeze Bates","TYPE":"CDC (Child Development Center)","ADDRESS":"444 16TH STREET NE","XCOORD":401524.34,"YCOORD":136512.64,"WARD":"Ward 6","ZIPCODE":"20002","ADDRID":277568},"geometry":{"type":"Point","coordinates":[-76.9824302639306,38.89646922998384]}},{"type":"Feature","properties":{"OBJECTID":444,"NAME":"UPO @ Ballou High School","TYPE":"CDC (Child Development Center)","ADDRESS":"3401 4TH STREET SE","XCOORD":399881.71,"YCOORD":130079.64,"WARD":"Ward 8","ZIPCODE":"20032","ADDRID":294567},"geometry":{"type":"Point","coordinates":[-77.0013647757232,38.83851943559782]}},{"type":"Feature","properties":{"OBJECTID":445,"NAME":"UPO @ C. W. Harris Early Learning Center","TYPE":"CDC (Child Development Center)","ADDRESS":"301 53RD STREET SE","XCOORD":406410.5,"YCOORD":135087.2,"WARD":"Ward 7","ZIPCODE":"20019","ADDRID":289801},"geometry":{"type":"Point","coordinates":[-76.92611775902036,38.883606284602386]}},{"type":"Feature","properties":{"OBJECTID":446,"NAME":"UPO @ Dunbar High School","TYPE":"CDC (Child Development Center)","ADDRESS":"101 N STREET NW","XCOORD":398899.21,"YCOORD":137751.95,"WARD":"Ward 5","ZIPCODE":"20001","ADDRID":309947},"geometry":{"type":"Point","coordinates":[-77.01269376420728,38.90763400802003]}},{"type":"Feature","properties":{"OBJECTID":447,"NAME":"UPO @ Edgewood Child Development Center","TYPE":"CDC (Child Development Center)","ADDRESS":"601 EDGEWOOD STREET NE","XCOORD":400216.99,"YCOORD":139558.38,"WARD":"Ward 5","ZIPCODE":"20017","ADDRID":289571},"geometry":{"type":"Point","coordinates":[-76.99749994327286,38.923907596754255]}},{"type":"Feature","properties":{"OBJECTID":448,"NAME":"UPO @ Frederick Douglass","TYPE":"CDC (Child Development Center)","ADDRESS":"3240 STANTON ROAD SE","XCOORD":401680.12,"YCOORD":131273.8,"WARD":"Ward 8","ZIPCODE":"20020","ADDRID":156534},"geometry":{"type":"Point","coordinates":[-76.98064729191421,38.84927536627618]}},{"type":"Feature","properties":{"OBJECTID":449,"NAME":"UPO @ H D Woodson High School","TYPE":"CDC (Child Development Center)","ADDRESS":"540 55TH STREET NE","XCOORD":406737.85,"YCOORD":136551.42,"WARD":"Ward 7","ZIPCODE":"20019","ADDRID":309633},"geometry":{"type":"Point","coordinates":[-76.92233051487088,38.89679407657987]}},{"type":"Feature","properties":{"OBJECTID":450,"NAME":"UPO @ Luke C. Moore Academy","TYPE":"CDC (Child Development Center)","ADDRESS":"1001 MONROE STREET NE","XCOORD":400666.21,"YCOORD":140488.24,"WARD":"Ward 5","ZIPCODE":"20017","ADDRID":294504},"geometry":{"type":"Point","coordinates":[-76.99231860919365,38.932283841906624]}},{"type":"Feature","properties":{"OBJECTID":451,"NAME":"UPO @ Marie Reed Early Learning Center","TYPE":"CDC (Child Development Center)","ADDRESS":"2200 CHAMPLAIN STREET NW","XCOORD":396485.22,"YCOORD":139033.81,"WARD":"Ward 1","ZIPCODE":"20009","ADDRID":235577},"geometry":{"type":"Point","coordinates":[-77.04053225052327,38.91917509629289]}},{"type":"Feature","properties":{"OBJECTID":452,"NAME":"UPO @ Paradise Early Childhood Center","TYPE":"CDC (Child Development Center)","ADDRESS":"3513 JAY STREET NE","XCOORD":404273.49,"YCOORD":137541.34,"WARD":"Ward 7","ZIPCODE":"20019","ADDRID":295235},"geometry":{"type":"Point","coordinates":[-76.95073269913716,38.90572706247537]}},{"type":"Feature","properties":{"OBJECTID":453,"NAME":"Usda Child Development Center  Cclc","TYPE":"CDC (Child Development Center)","ADDRESS":"201 14TH STREET SW","XCOORD":397163.84,"YCOORD":135494.79,"WARD":"Ward 2","ZIPCODE":"20004","ADDRID":291704},"geometry":{"type":"Point","coordinates":[-77.03269226808222,38.88729680244911]}},{"type":"Feature","properties":{"OBJECTID":454,"NAME":"Vee's Early Education Center","TYPE":"CDC (Child Development Center)","ADDRESS":"2130 MINNESOTA AVENUE SE","XCOORD":402136.16,"YCOORD":133731.5,"WARD":"Ward 8","ZIPCODE":"20020","ADDRID":51303},"geometry":{"type":"Point","coordinates":[-76.97538607642215,38.871414375329984]}},{"type":"Feature","properties":{"OBJECTID":455,"NAME":"Vision Of Victory Child Development","TYPE":"CDC (Child Development Center)","ADDRESS":"2498 ALABAMA AVENUE SE","XCOORD":402579.33,"YCOORD":132119.61,"WARD":"Ward 8","ZIPCODE":"20020","ADDRID":46843},"geometry":{"type":"Point","coordinates":[-76.9702852186312,38.856892611880944]}},{"type":"Feature","properties":{"OBJECTID":456,"NAME":"Wanda Yvette Thomas Smith","TYPE":"CDH (Child Development Home)","ADDRESS":"3919 CLAY PLACE NE","XCOORD":404351.48,"YCOORD":136102.51,"WARD":"Ward 7","ZIPCODE":"20019","ADDRID":29176},"geometry":{"type":"Point","coordinates":[-76.94984265708209,38.892765181061456]}},{"type":"Feature","properties":{"OBJECTID":457,"NAME":"Washington Hebrew Congregation","TYPE":"CDC (Child Development Center)","ADDRESS":"3935 MACOMB STREET NW","XCOORD":393203.2,"YCOORD":140663.41,"WARD":"Ward 3","ZIPCODE":"20016","ADDRID":223083},"geometry":{"type":"Point","coordinates":[-77.07839431554731,38.93383578717077]}},{"type":"Feature","properties":{"OBJECTID":458,"NAME":"Waterfront Academy Inc","TYPE":"CDC (Child Development Center)","ADDRESS":"60 I STREET SW","XCOORD":399026.13,"YCOORD":134575.9,"WARD":"Ward 6","ZIPCODE":"20024","ADDRID":276677},"geometry":{"type":"Point","coordinates":[-77.01122594525876,38.87902312167882]}},{"type":"Feature","properties":{"OBJECTID":459,"NAME":"Wee Wisdom Child Development Center","TYPE":"CDC (Child Development Center)","ADDRESS":"3414 18TH STREET NE","XCOORD":401750.1,"YCOORD":140518.81,"WARD":"Ward 5","ZIPCODE":"20018","ADDRID":34928},"geometry":{"type":"Point","coordinates":[-76.97981757849843,38.932557735931624]}},{"type":"Feature","properties":{"OBJECTID":460,"NAME":"Wendy Weekes - Little Apple Child Center","TYPE":"CDC (Child Development Center)","ADDRESS":"908 SOUTHERN AVENUE SE","XCOORD":400955.1,"YCOORD":129256.25,"WARD":"Ward 8","ZIPCODE":"20032","ADDRID":81992},"geometry":{"type":"Point","coordinates":[-76.98900232434781,38.8311014500574]}},{"type":"Feature","properties":{"OBJECTID":461,"NAME":"Wibble Wobble Child Development Center","TYPE":"CDC (Child Development Center)","ADDRESS":"1 RANDLE CIRCLE SE","XCOORD":403259.56,"YCOORD":134480.84,"WARD":"Ward 7","ZIPCODE":"20019","ADDRID":76019},"geometry":{"type":"Point","coordinates":[-76.96243693770165,38.87816128331127]}},{"type":"Feature","properties":{"OBJECTID":462,"NAME":"Wilmer, Cutler, Pickering, Hale & D","TYPE":"CDC (Child Development Center)","ADDRESS":"1899 PENNSYLVANIA AVENUE NW","XCOORD":396269.6,"YCOORD":136963.04,"WARD":"Ward 2","ZIPCODE":"20006","ADDRID":295132},"geometry":{"type":"Point","coordinates":[-77.04300737790845,38.900520000464674]}},{"type":"Feature","properties":{"OBJECTID":463,"NAME":"Winifred Thomas","TYPE":"CDH (Child Development Home)","ADDRESS":"126 YUMA STREET SE","XCOORD":399598.99,"YCOORD":129384.75,"WARD":"Ward 8","ZIPCODE":"20032","ADDRID":69417},"geometry":{"type":"Point","coordinates":[-77.00462081514871,38.83225946410818]}},{"type":"Feature","properties":{"OBJECTID":464,"NAME":"Woodbridge Day Care Center I","TYPE":"CDC (Child Development Center)","ADDRESS":"3302 18TH STREET NE","XCOORD":401757.46,"YCOORD":140393.47,"WARD":"Ward 5","ZIPCODE":"20018","ADDRID":36977},"geometry":{"type":"Point","coordinates":[-76.97973301314717,38.931428620038915]}},{"type":"Feature","properties":{"OBJECTID":465,"NAME":"Woodbridge Day Care Center Iii","TYPE":"CDC (Child Development Center)","ADDRESS":"424 IRVING STREET NW","XCOORD":398381.84,"YCOORD":140163.81,"WARD":"Ward 1","ZIPCODE":"20010","ADDRID":229365},"geometry":{"type":"Point","coordinates":[-77.01866443077309,38.92936003773954]}},{"type":"Feature","properties":{"OBJECTID":466,"NAME":"Woodbridge Day Care Center Iv","TYPE":"CDC (Child Development Center)","ADDRESS":"629 COLUMBIA ROAD NW","XCOORD":398102.24,"YCOORD":140059.67,"WARD":"Ward 1","ZIPCODE":"20001","ADDRID":237890},"geometry":{"type":"Point","coordinates":[-77.0218887532371,38.9284213525905]}},{"type":"Feature","properties":{"OBJECTID":467,"NAME":"Ymca @ Kipp Benning Road","TYPE":"CDC (Child Development Center)","ADDRESS":"4801 BENNING ROAD SE","XCOORD":405692.28,"YCOORD":134978.83,"WARD":"Ward 7","ZIPCODE":"20019","ADDRID":17421},"geometry":{"type":"Point","coordinates":[-76.93439653242692,38.8826349887968]}},{"type":"Feature","properties":{"OBJECTID":468,"NAME":"Ymca Calomiris Ii","TYPE":"CDC (Child Development Center)","ADDRESS":"1918 ALLISON STREET NE","XCOORD":401943.71,"YCOORD":141949.27,"WARD":"Ward 5","ZIPCODE":"20018","ADDRID":310297},"geometry":{"type":"Point","coordinates":[-76.97758053414742,38.945443334699945]}},{"type":"Feature","properties":{"OBJECTID":469,"NAME":"Ymca Capital View Child Development","TYPE":"CDC (Child Development Center)","ADDRESS":"2118 RIDGECREST COURT SE","XCOORD":402381.41,"YCOORD":131231.37,"WARD":"Ward 8","ZIPCODE":"20020","ADDRID":278066},"geometry":{"type":"Point","coordinates":[-76.97256857583629,38.84889151954528]}},{"type":"Feature","properties":{"OBJECTID":470,"NAME":"Young's Memorial Church Daycare","TYPE":"CDC (Child Development Center)","ADDRESS":"2490 ALABAMA AVENUE SE","XCOORD":402574.89,"YCOORD":131939.6,"WARD":"Ward 8","ZIPCODE":"20020","ADDRID":278169},"geometry":{"type":"Point","coordinates":[-76.9703370467533,38.855271017758696]}},{"type":"Feature","properties":{"OBJECTID":471,"NAME":"Yvonne R Walker","TYPE":"CDH (Child Development Home)","ADDRESS":"2492 SKYLAND PLACE SE","XCOORD":402224.75,"YCOORD":132472.84,"WARD":"Ward 8","ZIPCODE":"20020","ADDRID":46838},"geometry":{"type":"Point","coordinates":[-76.97436927472025,38.86007562587034]}},{"type":"Feature","properties":{"OBJECTID":472,"NAME":"Yvonne Stewart Delancey","TYPE":"CDH (Child Development Home)","ADDRESS":"639 MARYLAND AVENUE NE","XCOORD":400245.42,"YCOORD":136260.07,"WARD":"Ward 6","ZIPCODE":"20002","ADDRID":2273},"geometry":{"type":"Point","coordinates":[-76.99717326373032,38.894195273334766]}},{"type":"Feature","properties":{"OBJECTID":473,"NAME":"Zenas Child Development Center Inc","TYPE":"CDC (Child Development Center)","ADDRESS":"109 WAYNE PLACE SE","XCOORD":399571.53,"YCOORD":129693.53,"WARD":"Ward 8","ZIPCODE":"20032","ADDRID":74694},"geometry":{"type":"Point","coordinates":[-77.00493727148015,38.835041083829054]}},{"type":"Feature","properties":{"OBJECTID":474,"NAME":"Zena's Child Development Center Inc","TYPE":"CDC (Child Development Center)","ADDRESS":"4119 4TH STREET SE","XCOORD":399927.35,"YCOORD":129139.55,"WARD":"Ward 8","ZIPCODE":"20032","ADDRID":149573},"geometry":{"type":"Point","coordinates":[-77.00083898220778,38.83005067704765]}}]}