{"type":"FeatureCollection","features":[{"type":"Feature","properties":{"OBJECTID":1,"NAME":"BMA of Columbia Heights","ADDRESS":"106 Irving St NW","PHONE":"(202) 829-0060","GIS_ID":"dia_1","WEB_URL":null},"geometry":{"type":"Point","coordinates":[-77.01523765178548,38.930971112632896]}},{"type":"Feature","properties":{"OBJECTID":2,"NAME":"BMA of Capitol Hill","ADDRESS":"900 M St SE","PHONE":"(202) 547-2880","GIS_ID":"dia_2","WEB_URL":null},"geometry":{"type":"Point","coordinates":[-76.99342836056266,38.87670066188658]}},{"type":"Feature","properties":{"OBJECTID":3,"NAME":"BMA of Dupont Circle","ADDRESS":"11 Dupont Circle NW","PHONE":"(202) 483-0176","GIS_ID":"dia_3","WEB_URL":null},"geometry":{"type":"Point","coordinates":[-77.04242408052077,38.91021969611852]}},{"type":"Feature","properties":{"OBJECTID":4,"NAME":"Capitol Dialysis LLC","ADDRESS":"140 Q St NE","PHONE":"(202) 636-9411","GIS_ID":"dia_4","WEB_URL":null},"geometry":{"type":"Point","coordinates":[-77.00503429266034,38.91132052472658]}},{"type":"Feature","properties":{"OBJECTID":5,"NAME":"Capitol Dialysis NW","ADDRESS":"3333 Wisconsin Ave NW","PHONE":"(202) 362-1511","GIS_ID":"dia_5","WEB_URL":null},"geometry":{"type":"Point","coordinates":[-77.0721839752857,38.93387452374881]}},{"type":"Feature","properties":{"OBJECTID":6,"NAME":"Da Vita Georgetown","ADDRESS":"3223 K St NW","PHONE":"(202) 333-5211","GIS_ID":"dia_6","WEB_URL":"http://www.davita.com/"},"geometry":{"type":"Point","coordinates":[-77.0637976230204,38.90294179876922]}},{"type":"Feature","properties":{"OBJECTID":7,"NAME":"Da Vita Union Plaza","ADDRESS":"810 1st St NE","PHONE":"(202) 842-3127","GIS_ID":"dia_7","WEB_URL":"http://www.davita.com/"},"geometry":{"type":"Point","coordinates":[-77.00702672649079,38.9005505332419]}},{"type":"Feature","properties":{"OBJECTID":8,"NAME":"Da Vita of Lee Street","ADDRESS":"5155 Lee St NE","PHONE":"(202) 398-1047","GIS_ID":"dia_8","WEB_URL":"http://www.davita.com/"},"geometry":{"type":"Point","coordinates":[-76.92515578895856,38.90449032336741]}},{"type":"Feature","properties":{"OBJECTID":9,"NAME":"Gambro Healthcare of DC","ADDRESS":"4907 Georgia Ave NW","PHONE":"(202) 829-6295","GIS_ID":"dia_9","WEB_URL":"http://www.gambro.com/"},"geometry":{"type":"Point","coordinates":[-77.02688605056011,38.94993950571955]}},{"type":"Feature","properties":{"OBJECTID":10,"NAME":"Gambro Healthcare of GW","ADDRESS":"3857 Pennsylvania Ave SE","PHONE":"(202) 581-9440","GIS_ID":"dia_10","WEB_URL":"http://www.gambro.com/"},"geometry":{"type":"Point","coordinates":[-76.95062305704566,38.86511288513619]}},{"type":"Feature","properties":{"OBJECTID":11,"NAME":"Gambro Healthcare of Brentwood","ADDRESS":"1231 Brentwood Rd NE","PHONE":"(202) 635-4141","GIS_ID":"dia_11","WEB_URL":"http://www.gambro.com/"},"geometry":{"type":"Point","coordinates":[-76.98867109540174,38.92144315404025]}},{"type":"Feature","properties":{"OBJECTID":12,"NAME":"Gambro Healthcare N Street","ADDRESS":"1920 N St NW","PHONE":"(202) 861-2250","GIS_ID":"dia_12","WEB_URL":"http://www.gambro.com/"},"geometry":{"type":"Point","coordinates":[-77.04419458309208,38.907059974566195]}},{"type":"Feature","properties":{"OBJECTID":13,"NAME":"Gambro Healthcare Eighth St","ADDRESS":"300 8th St NE","PHONE":"(202) 543-9105","GIS_ID":"dia_13","WEB_URL":"http://www.gambro.com/"},"geometry":{"type":"Point","coordinates":[-76.9953013239705,38.89401485649971]}},{"type":"Feature","properties":{"OBJECTID":14,"NAME":"BMA of Southeast","ADDRESS":"1350 Southern Ave SE","PHONE":"(202) 561-0828","GIS_ID":"dia_14","WEB_URL":null},"geometry":{"type":"Point","coordinates":[-76.98324695280976,38.83619513194447]}},{"type":"Feature","properties":{"OBJECTID":15,"NAME":"BMA of Northeast","ADDRESS":"817 Varnum St NE","PHONE":"(202) 832-4481","GIS_ID":"dia_15","WEB_URL":null},"geometry":{"type":"Point","coordinates":[-76.99677297346147,38.942400963034984]}},{"type":"Feature","properties":{"OBJECTID":16,"NAME":"Greater Southeast Community Hospital","ADDRESS":"1310 Southern Ave SE","PHONE":"(202) 574-6564","GIS_ID":"dia_16","WEB_URL":"http://www.greatersoutheastorg.verizonsupersite.com/home/"},"geometry":{"type":"Point","coordinates":[-76.98485823905219,38.83564214265236]}},{"type":"Feature","properties":{"OBJECTID":17,"NAME":"Georgetown Hospital","ADDRESS":"3800 Reservoir Rd NW","PHONE":"(202) 784-3664","GIS_ID":"dia_17","WEB_URL":"http://www.medstargeorgetown.org/#q={}"},"geometry":{"type":"Point","coordinates":[-77.07559482570709,38.909329989018126]}},{"type":"Feature","properties":{"OBJECTID":18,"NAME":"Washington Hospital Center","ADDRESS":"110 Irving St NW","PHONE":"(202) 877-6101","GIS_ID":"dia_18","WEB_URL":"http://www.whcenter.org/"},"geometry":{"type":"Point","coordinates":[-77.01443782766447,38.92853945661746]}},{"type":"Feature","properties":{"OBJECTID":19,"NAME":"Howard University Hospital","ADDRESS":"2112 Georgia Ave NW","PHONE":"(202) 865-7365","GIS_ID":"dia_19","WEB_URL":"http://huhealthcare.com/healthcare/hospital"},"geometry":{"type":"Point","coordinates":[-77.02246210795076,38.9182326422411]}},{"type":"Feature","properties":{"OBJECTID":20,"NAME":"Children's National Medical Center","ADDRESS":"111 Michigan Ave NW","PHONE":"(202) 884-5148","GIS_ID":"dia_20","WEB_URL":"http://childrensnational.org/"},"geometry":{"type":"Point","coordinates":[-77.01452816073038,38.92716431721934]}},{"type":"Feature","properties":{"OBJECTID":21,"NAME":"BMA of MLK","ADDRESS":"2051 Martin Luther King Jr Ave SE","PHONE":"(202) 889-1919","GIS_ID":"dia_21","WEB_URL":null},"geometry":{"type":"Point","coordinates":[-76.98962515606851,38.86562837975586]}},{"type":"Feature","properties":{"OBJECTID":22,"NAME":"BMA of East River Park","ADDRESS":"3929 Minnesota Ave NE","PHONE":"(202) 397-2700","GIS_ID":"dia_22","WEB_URL":null},"geometry":{"type":"Point","coordinates":[-76.94978527311213,38.893956000169]}},{"type":"Feature","properties":{"OBJECTID":23,"NAME":"Grant Park Dialysis","ADDRESS":"5000 Nannie Helen Burroughs Ave SE","PHONE":"(202) 399-7700","GIS_ID":"dia_23","WEB_URL":"http://www.davita.com/"},"geometry":{"type":"Point","coordinates":[-76.92929850536873,38.89848339036196]}},{"type":"Feature","properties":{"OBJECTID":24,"NAME":"BMA of Anacostia","ADDRESS":"1444 I St NW","PHONE":"(202) 397-2700","GIS_ID":"dia_24","WEB_URL":null},"geometry":{"type":"Point","coordinates":[-77.03273969465283,38.90114094246625]}}]}