{"type":"FeatureCollection","features":[{"type":"Feature","properties":{"OBJECTID":1,"GRANTS":"PCC","NAME":"Francis A Gregory Library","AGENCY":"DCPL","ADDRESS":"3660 Alabama Avenue SE","ZIP_CODE":"20020","WARD":"Ward 7","XCOORD":403988.44,"YCOORD":133000.95,"LATITUDE":38.86481938,"LONGITUDE":-76.95404316,"ADDRID":290019,"TYPE":"Public Computer Center","LABEL":null},"geometry":{"type":"Point","coordinates":[-76.95404542470763,38.8648268325855]}},{"type":"Feature","properties":{"OBJECTID":2,"GRANTS":"SBA","NAME":"William O. Lockridge/Bellevue Neighborhood Library","AGENCY":"DCPL","ADDRESS":"115 Atlantic Street SW","ZIP_CODE":"20032","WARD":"Ward 8","XCOORD":399186.87,"YCOORD":129281.97,"LATITUDE":38.83132585,"LONGITUDE":-77.0093649,"ADDRID":302935,"TYPE":"Digital Literacy/Computer Training","LABEL":null},"geometry":{"type":"Point","coordinates":[-77.0093671861083,38.83133328966637]}},{"type":"Feature","properties":{"OBJECTID":3,"GRANTS":"SBA","NAME":"Anacostia Neighborhood Library","AGENCY":"DCPL","ADDRESS":"1800 Good Hope Road SE","ZIP_CODE":"20020","WARD":"Ward 8","XCOORD":401854.99,"YCOORD":133121.03,"LATITUDE":38.8659082,"LONGITUDE":-76.97862553,"ADDRID":53560,"TYPE":"Digital Literacy/Computer Training","LABEL":null},"geometry":{"type":"Point","coordinates":[-76.978627807395,38.865915649665844]}},{"type":"Feature","properties":{"OBJECTID":4,"GRANTS":"SBA","NAME":"Byteback","AGENCY":"Non-Profit","ADDRESS":"815 Monroe Street NE","ZIP_CODE":"20017","WARD":"Ward 5","XCOORD":400530.88,"YCOORD":140490.43,"LATITUDE":38.9322962,"LONGITUDE":-76.99387714,"ADDRID":149351,"TYPE":"Digital Literacy/Computer Training","LABEL":null},"geometry":{"type":"Point","coordinates":[-76.99387942452879,38.93230366222847]}},{"type":"Feature","properties":{"OBJECTID":5,"GRANTS":"SBA","NAME":"Capitol View Neighborhood Library","AGENCY":"DCPL","ADDRESS":"5001 Central Avenue SE","ZIP_CODE":"20019","WARD":"Ward 7","XCOORD":406109.69,"YCOORD":135681.52,"LATITUDE":38.88895483,"LONGITUDE":-76.92957721,"ADDRID":15509,"TYPE":"Digital Literacy/Computer Training","LABEL":null},"geometry":{"type":"Point","coordinates":[-76.92957947374357,38.888962286299915]}},{"type":"Feature","properties":{"OBJECTID":6,"GRANTS":"SBA","NAME":"Columbia Heights/Shaw Family Support Collaborative","AGENCY":"Non-Profit","ADDRESS":"1816 12 Street NW","ZIP_CODE":"20009","WARD":"Ward 1","XCOORD":397529.17,"YCOORD":138562.9,"LATITUDE":38.91492908,"LONGITUDE":-77.02849017,"ADDRID":279410,"TYPE":"Digital Literacy/Computer Training","LABEL":null},"geometry":{"type":"Point","coordinates":[-77.02849246085762,38.91493653835407]}},{"type":"Feature","properties":{"OBJECTID":7,"GRANTS":"SBA","NAME":"Martin Luther King Jr. Memorial Library","AGENCY":"DCPL","ADDRESS":"901 G Street NW","ZIP_CODE":"20001","WARD":"Ward 2","XCOORD":397851.64,"YCOORD":136760.32,"LATITUDE":38.89869166,"LONGITUDE":-77.02476625,"ADDRID":239815,"TYPE":"Digital Literacy/Computer Training","LABEL":null},"geometry":{"type":"Point","coordinates":[-77.0247685454895,38.898699116427295]}},{"type":"Feature","properties":{"OBJECTID":8,"GRANTS":"SBA","NAME":"Dorothy I. Height/Benning Neighborhood Library","AGENCY":"DCPL","ADDRESS":"3935 Benning Road NE","ZIP_CODE":"20019","WARD":"Ward 7","XCOORD":404530.91000000003,"YCOORD":136260.63,"LATITUDE":38.89418122,"LONGITUDE":-76.94777105,"ADDRID":295144,"TYPE":"Digital Literacy/Computer Training","LABEL":null},"geometry":{"type":"Point","coordinates":[-76.94777332041996,38.894188678043136]}},{"type":"Feature","properties":{"OBJECTID":9,"GRANTS":"SBA","NAME":"Lamond-Riggs Neighborhood Library","AGENCY":"DCPL","ADDRESS":"5401 South Dakota Avenue NE","ZIP_CODE":"20011","WARD":"Ward 5","XCOORD":400036.03,"YCOORD":143024.96,"LATITUDE":38.95512813,"LONGITUDE":-76.99958432,"ADDRID":288645,"TYPE":"Digital Literacy/Computer Training","LABEL":null},"geometry":{"type":"Point","coordinates":[-76.99958660474677,38.95513559548461]}},{"type":"Feature","properties":{"OBJECTID":10,"GRANTS":"SBA","NAME":"Mt. Pleasant Interim Library (Spanish)","AGENCY":"DCPL","ADDRESS":"3162 Mt. Pleasant Street NW","ZIP_CODE":"20010","WARD":"Ward 1","XCOORD":396679.55,"YCOORD":140266.87,"LATITUDE":38.93027619,"LONGITUDE":-77.03829504,"ADDRID":218152,"TYPE":"Digital Literacy/Computer Training","LABEL":null},"geometry":{"type":"Point","coordinates":[-77.0382973395754,38.93028364962442]}},{"type":"Feature","properties":{"OBJECTID":11,"GRANTS":"SBA","NAME":"Northeast Neighborhood Library","AGENCY":"DCPL","ADDRESS":"330 7th Street NE","ZIP_CODE":"20002","WARD":"Ward 6","XCOORD":400315.86,"YCOORD":136284.39,"LATITUDE":38.89440688,"LONGITUDE":-76.99635899,"ADDRID":37106,"TYPE":"Digital Literacy/Computer Training","LABEL":null},"geometry":{"type":"Point","coordinates":[-76.99636127256858,38.8944143344229]}},{"type":"Feature","properties":{"OBJECTID":12,"GRANTS":"SBA","NAME":"Northwest One Library","AGENCY":"DCPL","ADDRESS":"155 L Street NW","ZIP_CODE":"20001","WARD":"Ward 6","XCOORD":398818.89,"YCOORD":137349.69,"LATITUDE":38.90400275,"LONGITUDE":-77.01361683,"ADDRID":307736,"TYPE":"Digital Literacy/Computer Training","LABEL":null},"geometry":{"type":"Point","coordinates":[-77.01361911592363,38.90401020455017]}},{"type":"Feature","properties":{"OBJECTID":13,"GRANTS":"SBA","NAME":"The Family Place","AGENCY":"Non-Profit","ADDRESS":"3309 16 Street NW","ZIP_CODE":"20010","WARD":"Ward 1","XCOORD":396874.14,"YCOORD":140448.74,"LATITUDE":38.93191525,"LONGITUDE":-77.03605165,"ADDRID":234409,"TYPE":"Digital Literacy/Computer Training","LABEL":null},"geometry":{"type":"Point","coordinates":[-77.03605394396476,38.93192270449514]}},{"type":"Feature","properties":{"OBJECTID":14,"GRANTS":"SBA","NAME":"University of the District of Columbia (UDC)","AGENCY":"UDC-CC","ADDRESS":"4200 Connecticut Avenue NW","ZIP_CODE":"20008","WARD":"Ward 3","XCOORD":394423.74,"YCOORD":141839.77,"LATITUDE":38.94443392,"LONGITUDE":-77.06432427,"ADDRID":297694,"TYPE":"Digital Literacy/Computer Training","LABEL":null},"geometry":{"type":"Point","coordinates":[-77.06432657926098,38.94444137695885]}},{"type":"Feature","properties":{"OBJECTID":15,"GRANTS":"SBA","NAME":"Watha T. Daniel-Shaw Neighborhood Library","AGENCY":"DCPL","ADDRESS":"1630 7th Street NW","ZIP_CODE":"20001","WARD":"Ward 6","XCOORD":398073.03,"YCOORD":138286.68,"LATITUDE":38.91244216,"LONGITUDE":-77.02221836,"ADDRID":308201,"TYPE":"Digital Literacy/Computer Training","LABEL":null},"geometry":{"type":"Point","coordinates":[-77.02222064840612,38.91244961628974]}},{"type":"Feature","properties":{"OBJECTID":16,"GRANTS":"SBA","NAME":"Woodridge Neighborhood Library","AGENCY":"DCPL","ADDRESS":"1801 Hamlin Street NE","ZIP_CODE":"20018","WARD":"Ward 5","XCOORD":401853.38,"YCOORD":139951.63,"LATITUDE":38.92744073,"LONGITUDE":-76.97862566,"ADDRID":286483,"TYPE":"Digital Literacy/Computer Training","LABEL":null},"geometry":{"type":"Point","coordinates":[-76.97862793419941,38.92744819069844]}},{"type":"Feature","properties":{"OBJECTID":17,"GRANTS":"PCC","NAME":"Anacostia Neighborhood Library","AGENCY":"DCPL","ADDRESS":"1800 Good Hope Road SE","ZIP_CODE":"20020","WARD":"Ward 8","XCOORD":401854.99,"YCOORD":133121.03,"LATITUDE":38.8659082,"LONGITUDE":-76.97862553,"ADDRID":53560,"TYPE":"Public Computer Center","LABEL":null},"geometry":{"type":"Point","coordinates":[-76.978627807395,38.865915649665844]}},{"type":"Feature","properties":{"OBJECTID":18,"GRANTS":"PCC","NAME":"Capitol View Neighborhood Library","AGENCY":"DCPL","ADDRESS":"5001 Central Avenue SE","ZIP_CODE":"20019","WARD":"Ward 7","XCOORD":406109.69,"YCOORD":135681.52,"LATITUDE":38.88895483,"LONGITUDE":-76.92957721,"ADDRID":15509,"TYPE":"Public Computer Center","LABEL":null},"geometry":{"type":"Point","coordinates":[-76.92957947374357,38.888962286299915]}},{"type":"Feature","properties":{"OBJECTID":19,"GRANTS":"PCC","NAME":"Chevy Chase Neighborhood Library","AGENCY":"DCPL","ADDRESS":"5625 Connecticut Avenue NW","ZIP_CODE":"20015","WARD":"Ward 3","XCOORD":393460.61,"YCOORD":144186.75,"LATITUDE":38.96556949,"LONGITUDE":-77.07545672,"ADDRID":263960,"TYPE":"Public Computer Center","LABEL":null},"geometry":{"type":"Point","coordinates":[-77.07545902708438,38.965576951202834]}},{"type":"Feature","properties":{"OBJECTID":20,"GRANTS":"PCC","NAME":"Cleveland Park Neighborhood Library","AGENCY":"DCPL","ADDRESS":"3310 Connecticut Avenue NW","ZIP_CODE":"20008","WARD":"Ward 3","XCOORD":394984.89,"YCOORD":140660.69,"LATITUDE":38.9338158,"LONGITUDE":-77.05784258,"ADDRID":221190,"TYPE":"Public Computer Center","LABEL":null},"geometry":{"type":"Point","coordinates":[-77.05784488244502,38.933823261486765]}},{"type":"Feature","properties":{"OBJECTID":21,"GRANTS":"PCC","NAME":"Martin Luther King Jr. Memorial Library","AGENCY":"DCPL","ADDRESS":"901 G Street NW","ZIP_CODE":"20001","WARD":"Ward 2","XCOORD":397851.64,"YCOORD":136760.32,"LATITUDE":38.89869166,"LONGITUDE":-77.02476625,"ADDRID":239815,"TYPE":"Public Computer Center","LABEL":null},"geometry":{"type":"Point","coordinates":[-77.0247685454895,38.898699116427295]}},{"type":"Feature","properties":{"OBJECTID":22,"GRANTS":"PCC","NAME":"Deanwood Neighborhood Library","AGENCY":"DCPL","ADDRESS":"1350 49th Street NE","ZIP_CODE":"20019","WARD":"Ward 7","XCOORD":405884.39,"YCOORD":137844.91,"LATITUDE":38.90844496,"LONGITUDE":-76.93215558,"ADDRID":307551,"TYPE":"Public Computer Center","LABEL":null},"geometry":{"type":"Point","coordinates":[-76.93215784256401,38.90845241862821]}},{"type":"Feature","properties":{"OBJECTID":23,"GRANTS":"PCC","NAME":"Dorothy I. Height/Benning Neighborhood Library","AGENCY":"DCPL","ADDRESS":"3935 Benning Road NE","ZIP_CODE":"20019","WARD":"Ward 7","XCOORD":404530.91000000003,"YCOORD":136260.63,"LATITUDE":38.89418122,"LONGITUDE":-76.94777105,"ADDRID":295144,"TYPE":"Public Computer Center","LABEL":null},"geometry":{"type":"Point","coordinates":[-76.94777332041996,38.894188678043136]}},{"type":"Feature","properties":{"OBJECTID":24,"GRANTS":"PCC","NAME":"Georgetown Library","AGENCY":"DCPL","ADDRESS":"3260 R Street NW","ZIP_CODE":"20007","WARD":"Ward 2","XCOORD":394275.35000000003,"YCOORD":138398.68,"LATITUDE":38.91343456,"LONGITUDE":-77.06600731,"ADDRID":295142,"TYPE":"Public Computer Center","LABEL":null},"geometry":{"type":"Point","coordinates":[-77.0660096107547,38.913442017065805]}},{"type":"Feature","properties":{"OBJECTID":25,"GRANTS":"PCC","NAME":"Juanita E Thornton/Shepherd Park Library","AGENCY":"DCPL","ADDRESS":"7420 Georgia Avenue NW","ZIP_CODE":"20012","WARD":"Ward 4","XCOORD":397657.48,"YCOORD":145817.5,"LATITUDE":38.98028088,"LONGITUDE":-77.02703545,"ADDRID":253522,"TYPE":"Public Computer Center","LABEL":null},"geometry":{"type":"Point","coordinates":[-77.02703774568067,38.98028835406811]}},{"type":"Feature","properties":{"OBJECTID":26,"GRANTS":"PCC","NAME":"Kimball Elementary School","AGENCY":"DCPS","ADDRESS":"3375 Minnesota Avenue SE","ZIP_CODE":"20019","WARD":"Ward 7","XCOORD":403681.18,"YCOORD":135028.21,"LATITUDE":38.88308309,"LONGITUDE":-76.95757271,"ADDRID":294565,"TYPE":"Public Computer Center","LABEL":null},"geometry":{"type":"Point","coordinates":[-76.95757497661059,38.88309054194811]}},{"type":"Feature","properties":{"OBJECTID":27,"GRANTS":"PCC","NAME":"Lamond-Riggs Neighborhood Library","AGENCY":"DCPL","ADDRESS":"5401 South Dakota Avenue NE","ZIP_CODE":"20011","WARD":"Ward 5","XCOORD":400036.03,"YCOORD":143024.96,"LATITUDE":38.95512813,"LONGITUDE":-76.99958432,"ADDRID":288645,"TYPE":"Public Computer Center","LABEL":null},"geometry":{"type":"Point","coordinates":[-76.99958660474677,38.95513559548461]}},{"type":"Feature","properties":{"OBJECTID":28,"GRANTS":"PCC","NAME":"Mt. Pleasant Interim Library","AGENCY":"DCPL","ADDRESS":"3162 Mt. Pleasant Street NW","ZIP_CODE":"20010","WARD":"Ward 1","XCOORD":396679.55,"YCOORD":140266.87,"LATITUDE":38.93027619,"LONGITUDE":-77.03829504,"ADDRID":218152,"TYPE":"Public Computer Center","LABEL":null},"geometry":{"type":"Point","coordinates":[-77.0382973395754,38.93028364962442]}},{"type":"Feature","properties":{"OBJECTID":29,"GRANTS":"PCC","NAME":"Northeast Neighborhood Library","AGENCY":"DCPL","ADDRESS":"330 7th Street NE","ZIP_CODE":"20002","WARD":"Ward 6","XCOORD":400315.86,"YCOORD":136284.39,"LATITUDE":38.89440688,"LONGITUDE":-76.99635899,"ADDRID":37106,"TYPE":"Public Computer Center","LABEL":null},"geometry":{"type":"Point","coordinates":[-76.99636127256858,38.8944143344229]}},{"type":"Feature","properties":{"OBJECTID":30,"GRANTS":"PCC","NAME":"Northwest One Library","AGENCY":"DCPL","ADDRESS":"155 L Street NW","ZIP_CODE":"20001","WARD":"Ward 6","XCOORD":398818.89,"YCOORD":137349.69,"LATITUDE":38.90400275,"LONGITUDE":-77.01361683,"ADDRID":307736,"TYPE":"Public Computer Center","LABEL":null},"geometry":{"type":"Point","coordinates":[-77.01361911592363,38.90401020455017]}},{"type":"Feature","properties":{"OBJECTID":31,"GRANTS":"PCC","NAME":"Palisades Neighborhood Library","AGENCY":"DCPL","ADDRESS":"4901 V Street NW","ZIP_CODE":"20007","WARD":"Ward 3","XCOORD":391572.87,"YCOORD":138950.28,"LATITUDE":38.9183818,"LONGITUDE":-77.09717464,"ADDRID":224474,"TYPE":"Public Computer Center","LABEL":null},"geometry":{"type":"Point","coordinates":[-77.09717695291295,38.918389252467236]}},{"type":"Feature","properties":{"OBJECTID":32,"GRANTS":"PCC","NAME":"Parklands Turner Neighborhood Library","AGENCY":"DCPL","ADDRESS":"1547 Alabama Avenue SE","ZIP_CODE":"20032","WARD":"Ward 8","XCOORD":401627.56,"YCOORD":130931.77,"LATITUDE":38.84618686,"LONGITUDE":-76.98125132,"ADDRID":304504,"TYPE":"Public Computer Center","LABEL":null},"geometry":{"type":"Point","coordinates":[-76.98125359233046,38.846194308105964]}},{"type":"Feature","properties":{"OBJECTID":33,"GRANTS":"PCC","NAME":"Petworth Neighborhood Library","AGENCY":"DCPL","ADDRESS":"4200 Kansas Avenue NW","ZIP_CODE":"20011","WARD":"Ward 4","XCOORD":397734.08,"YCOORD":141590.17,"LATITUDE":38.94220022,"LONGITUDE":-77.02613743,"ADDRID":295146,"TYPE":"Public Computer Center","LABEL":null},"geometry":{"type":"Point","coordinates":[-77.02613971967232,38.942207685179035]}},{"type":"Feature","properties":{"OBJECTID":34,"GRANTS":"PCC","NAME":"King Greenleaf Recreation Center","AGENCY":"DPR","ADDRESS":"201 N Street SW","ZIP_CODE":"20024","WARD":"Ward 6","XCOORD":398889.94,"YCOORD":134131.94,"LATITUDE":38.87501614,"LONGITUDE":-77.01279251,"ADDRID":52917,"TYPE":"Public Computer Center","LABEL":null},"geometry":{"type":"Point","coordinates":[-77.01279479135377,38.875023592503524]}},{"type":"Feature","properties":{"OBJECTID":35,"GRANTS":"PCC","NAME":"Southeast Neighborhood Library","AGENCY":"DCPL","ADDRESS":"403 7th Street SE","ZIP_CODE":"20003","WARD":"Ward 6","XCOORD":400302.33,"YCOORD":135138.52,"LATITUDE":38.88408446,"LONGITUDE":-76.99651546,"ADDRID":280068,"TYPE":"Public Computer Center","LABEL":null},"geometry":{"type":"Point","coordinates":[-76.99651774039499,38.884091909699954]}},{"type":"Feature","properties":{"OBJECTID":36,"GRANTS":"PCC","NAME":"Southeast Tennis and Learning Center","AGENCY":"DPR","ADDRESS":"701 Mississippi Avenue SE","ZIP_CODE":"20032","WARD":"Ward 8","XCOORD":400473.4,"YCOORD":130079.58,"LATITUDE":38.83851133,"LONGITUDE":-76.99454725,"ADDRID":295830,"TYPE":"Public Computer Center","LABEL":null},"geometry":{"type":"Point","coordinates":[-76.99454953173286,38.83851877593187]}},{"type":"Feature","properties":{"OBJECTID":37,"GRANTS":"PCC","NAME":"Southwest Neighborhood Library","AGENCY":"DCPL","ADDRESS":"900 Wesley Place SW","ZIP_CODE":"20024","WARD":"Ward 6","XCOORD":398626.28,"YCOORD":134540.69,"LATITUDE":38.87869795,"LONGITUDE":-77.01583178,"ADDRID":295165,"TYPE":"Public Computer Center","LABEL":null},"geometry":{"type":"Point","coordinates":[-77.01583406853985,38.878705402197]}},{"type":"Feature","properties":{"OBJECTID":38,"GRANTS":"PCC","NAME":"Takoma Park Neighborhood Library","AGENCY":"DCPL","ADDRESS":"416 Cedar Street NW","ZIP_CODE":"20012","WARD":"Ward 4","XCOORD":398253.34,"YCOORD":145168.59,"LATITUDE":38.97443675,"LONGITUDE":-77.02015687,"ADDRID":251267,"TYPE":"Public Computer Center","LABEL":null},"geometry":{"type":"Point","coordinates":[-77.02015916130757,38.97444421319745]}},{"type":"Feature","properties":{"OBJECTID":39,"GRANTS":"PCC","NAME":"Tenley-Friendship Neighborhood Library","AGENCY":"DCPL","ADDRESS":"4450 Wisconsin Avenue NW","ZIP_CODE":"20016","WARD":"Ward 3","XCOORD":393074.94,"YCOORD":142193.23,"LATITUDE":38.94760839,"LONGITUDE":-77.07988675,"ADDRID":284921,"TYPE":"Public Computer Center","LABEL":null},"geometry":{"type":"Point","coordinates":[-77.07988906448986,38.947615846003856]}},{"type":"Feature","properties":{"OBJECTID":40,"GRANTS":"PCC","NAME":"Watha T. Daniel-Shaw Neighborhood Library","AGENCY":"DCPL","ADDRESS":"1630 7th Street NW","ZIP_CODE":"20001","WARD":"Ward 6","XCOORD":398073.03,"YCOORD":138286.68,"LATITUDE":38.91244216,"LONGITUDE":-77.02221836,"ADDRID":308201,"TYPE":"Public Computer Center","LABEL":null},"geometry":{"type":"Point","coordinates":[-77.02222064840612,38.91244961628974]}},{"type":"Feature","properties":{"OBJECTID":41,"GRANTS":"PCC","NAME":"West End Library","AGENCY":"DCPL","ADDRESS":"1101 24th Street NW","ZIP_CODE":"20001","WARD":"Ward 2","XCOORD":395567.82,"YCOORD":137352.7,"LATITUDE":38.90401948,"LONGITUDE":-77.05109791,"ADDRID":218248,"TYPE":"Public Computer Center","LABEL":null},"geometry":{"type":"Point","coordinates":[-77.0511002070638,38.90402693754266]}},{"type":"Feature","properties":{"OBJECTID":42,"GRANTS":"PCC","NAME":"Woodridge Neighborhood Library","AGENCY":"DCPL","ADDRESS":"1801 Hamlin Street NE","ZIP_CODE":"20018","WARD":"Ward 5","XCOORD":401853.38,"YCOORD":139951.63,"LATITUDE":38.92744073,"LONGITUDE":-76.97862566,"ADDRID":286483,"TYPE":"Public Computer Center","LABEL":null},"geometry":{"type":"Point","coordinates":[-76.97862793419941,38.92744819069844]}},{"type":"Feature","properties":{"OBJECTID":43,"GRANTS":"PCC","NAME":"University of the District of Columbia Community College Center","AGENCY":"UDC-CC","ADDRESS":"801 North Capitol Street NE","ZIP_CODE":"20002","WARD":"Ward 6","XCOORD":399253.51,"YCOORD":136961.13,"LATITUDE":38.90050294,"LONGITUDE":-77.00860574,"ADDRID":79625,"TYPE":"Public Computer Center","LABEL":null},"geometry":{"type":"Point","coordinates":[-77.00860802756662,38.900510394250986]}},{"type":"Feature","properties":{"OBJECTID":44,"GRANTS":"SBA","NAME":"University of the District of Columbia Community College Center","AGENCY":"UDC-CC","ADDRESS":"801 North Capitol Street NE","ZIP_CODE":"20002","WARD":"Ward 6","XCOORD":399253.51,"YCOORD":136961.13,"LATITUDE":38.90050294,"LONGITUDE":-77.00860574,"ADDRID":79625,"TYPE":"Digital Literacy/Computer Training","LABEL":null},"geometry":{"type":"Point","coordinates":[-77.00860802756662,38.900510394250986]}},{"type":"Feature","properties":{"OBJECTID":45,"GRANTS":"SBA","NAME":"UDC-CC Bertie Backus Campus","AGENCY":"UDC-CC","ADDRESS":"5171 South Dakota Avenue NE","ZIP_CODE":"20017","WARD":"Ward 5","XCOORD":400236.86,"YCOORD":142826.56,"LATITUDE":38.95334086,"LONGITUDE":-76.99726739,"ADDRID":294607,"TYPE":"Digital Literacy/Computer Training","LABEL":null},"geometry":{"type":"Point","coordinates":[-76.99726967486879,38.953348323857625]}},{"type":"Feature","properties":{"OBJECTID":46,"GRANTS":"SBA","NAME":"UDC-CC Fletcher-Johnson","AGENCY":"UDC-CC","ADDRESS":"4650 Benning Road SE","ZIP_CODE":"20019","WARD":"Ward 7","XCOORD":405742.68,"YCOORD":135126.89,"LATITUDE":38.88396099,"LONGITUDE":-76.93381215,"ADDRID":288259,"TYPE":"Digital Literacy/Computer Training","LABEL":null},"geometry":{"type":"Point","coordinates":[-76.93381441578319,38.883968442491124]}},{"type":"Feature","properties":{"OBJECTID":47,"GRANTS":"SBA","NAME":"UDC-CC PR Harris Education Center","AGENCY":"UDC-CC","ADDRESS":"4600 Livingston Road SE","ZIP_CODE":"20032","WARD":"Ward 8","XCOORD":399731.95,"YCOORD":128458.05,"LATITUDE":38.82390393,"LONGITUDE":-77.00308684,"ADDRID":294600,"TYPE":"Digital Literacy/Computer Training","LABEL":null},"geometry":{"type":"Point","coordinates":[-77.00308911908458,38.823911366299264]}},{"type":"Feature","properties":{"OBJECTID":48,"GRANTS":"SBA","NAME":"Office on Returning Citizens Affairs @ Shadd","AGENCY":"ORCA","ADDRESS":"5601 East Capitol Street SE","ZIP_CODE":"20019","WARD":"Ward 7","XCOORD":406789.33,"YCOORD":135740.32,"LATITUDE":38.88947954,"LONGITUDE":-76.92174283,"ADDRID":294610,"TYPE":"Digital Literacy/Computer Training","LABEL":null},"geometry":{"type":"Point","coordinates":[-76.92174508404919,38.88948700045469]}},{"type":"Feature","properties":{"OBJECTID":49,"GRANTS":"PCC","NAME":"Office on Returning Citizens Affairs @ Shadd","AGENCY":"ORCA","ADDRESS":"5601 East Capitol Street SE","ZIP_CODE":"20019","WARD":"Ward 7","XCOORD":406789.33,"YCOORD":135740.32,"LATITUDE":38.88947954,"LONGITUDE":-76.92174283,"ADDRID":294610,"TYPE":"Public Computer Center","LABEL":null},"geometry":{"type":"Point","coordinates":[-76.92174508404919,38.88948700045469]}},{"type":"Feature","properties":{"OBJECTID":50,"GRANTS":"PCC","NAME":"William O. Lockridge/Bellevue Neighborhood Library","AGENCY":"DCPL","ADDRESS":"115 Atlantic Street SW","ZIP_CODE":"20032","WARD":"Ward 8","XCOORD":399186.87,"YCOORD":129281.97,"LATITUDE":38.83132585,"LONGITUDE":-77.0093649,"ADDRID":302935,"TYPE":"Public Computer Center","LABEL":null},"geometry":{"type":"Point","coordinates":[-77.0093671861083,38.83133328966637]}},{"type":"Feature","properties":{"OBJECTID":51,"GRANTS":"SBA","NAME":"Francis A Gregory Library","AGENCY":"DCPL","ADDRESS":"3660 Alabama Avenue SE","ZIP_CODE":"20020","WARD":"Ward 7","XCOORD":403988.44,"YCOORD":133000.95,"LATITUDE":38.86481938,"LONGITUDE":-76.95404316,"ADDRID":290019,"TYPE":"Digital Literacy/Computer Training","LABEL":null},"geometry":{"type":"Point","coordinates":[-76.95404542470763,38.8648268325855]}}]}