{
"type": "FeatureCollection",
"crs": { "type": "name", "properties": { "name": "urn:ogc:def:crs:OGC:1.3:CRS84" } },
                                                                                
"features": [
{ "type": "Feature", "properties": { "OBJECTID": 1, "ADDRESS": "2800 12TH STREET NE", "ZIP_CODE": "20017", "FULL_SERVI": 0, "ADDRID": 44895, "NAME": "12TH Street Exxon", "PHONE": 2022690925, "GIS_ID": "GasStn_1", "X": 400795.53, "Y": 139777.86, "SSL": "3874    0082", "WARD": "Ward 5" }, "geometry": { "type": "Point", "coordinates": [ -76.990827930996218, 38.925884409602524 ] } },
{ "type": "Feature", "properties": { "OBJECTID": 2, "ADDRESS": "2501 PENNSYLVANIA AVENUE SE", "ZIP_CODE": "20020", "FULL_SERVI": 0, "ADDRID": 46734, "NAME": "Pennsylvania Avenue Shell", "PHONE": 2025822825, "GIS_ID": "GasStn_2", "X": 402552.27, "Y": 133906.58, "SSL": "5579    0063", "WARD": "Ward 7" }, "geometry": { "type": "Point", "coordinates": [ -76.970590350950786, 38.87299045757554 ] } },
{ "type": "Feature", "properties": { "OBJECTID": 3, "ADDRESS": "3710 MINNESOTA AVENUE NE", "ZIP_CODE": "20019", "FULL_SERVI": 0, "ADDRID": 31737, "NAME": "Minnesota Ave Valero", "PHONE": -1552427782, "GIS_ID": "GasStn_3", "X": 404103.78, "Y": 135908.2, "SSL": "5046E   0810", "WARD": "Ward 7" }, "geometry": { "type": "Point", "coordinates": [ -76.952699061566861, 38.891015955337721 ] } },
{ "type": "Feature", "properties": { "OBJECTID": 4, "ADDRESS": "4940 CONNECTICUT AVENUE NW", "ZIP_CODE": "20008", "FULL_SERVI": 0, "ADDRID": 222125, "NAME": "Connecticut Avenue Shell", "PHONE": 2029660408, "GIS_ID": "GasStn_4", "X": 393927.74, "Y": 142950.13, "SSL": "1983    0813", "WARD": "Ward 3" }, "geometry": { "type": "Point", "coordinates": [ -77.070057956832571, 38.954440516057595 ] } },
{ "type": "Feature", "properties": { "OBJECTID": 5, "ADDRESS": "2210 BLADENSBURG ROAD NE", "ZIP_CODE": "20018", "FULL_SERVI": 0, "ADDRID": 50359, "NAME": "Crown Gas Station", "PHONE": 2026352424, "GIS_ID": "GasStn_5", "X": 402542.49, "Y": 139128.18, "SSL": "4258    0141", "WARD": "Ward 5" }, "geometry": { "type": "Point", "coordinates": [ -76.97068373156182, 38.920028565582641 ] } },
{ "type": "Feature", "properties": { "OBJECTID": 6, "ADDRESS": "908 FLORIDA AVENUE NW", "ZIP_CODE": "20001", "FULL_SERVI": 0, "ADDRID": 239467, "NAME": "Florida Avenue Crown", "PHONE": 0, "GIS_ID": "GasStn_6", "X": 397880.9, "Y": 138881.95, "SSL": "0360    0805", "WARD": "Ward 1" }, "geometry": { "type": "Point", "coordinates": [ -77.024437784614719, 38.917811565679415 ] } },
{ "type": "Feature", "properties": { "OBJECTID": 7, "ADDRESS": "1576 WISCONSIN AVENUE NW", "ZIP_CODE": "20007", "FULL_SERVI": 0, "ADDRID": 272739, "NAME": "Shell Gas Station", "PHONE": 2029651999, "GIS_ID": "GasStn_7", "X": 394333.02, "Y": 138075.11, "SSL": "1272    0816", "WARD": "Ward 2" }, "geometry": { "type": "Point", "coordinates": [ -77.065341984054157, 38.910527562765381 ] } },
{ "type": "Feature", "properties": { "OBJECTID": 8, "ADDRESS": "1230 NEW YORK AVENUE NE", "ZIP_CODE": "20002", "FULL_SERVI": 0, "ADDRID": 285959, "NAME": "New York Ave Mobil", "PHONE": 2022691638, "GIS_ID": "GasStn_8", "X": 400974.44, "Y": 138533.59, "SSL": "4035    0024", "WARD": "Ward 5" }, "geometry": { "type": "Point", "coordinates": [ -76.98876643838814, 38.914675438551029 ] } },
{ "type": "Feature", "properties": { "OBJECTID": 9, "ADDRESS": "4000 GEORGIA AVENUE NW", "ZIP_CODE": "20011", "FULL_SERVI": 0, "ADDRID": 223657, "NAME": "Shell Gas Station", "PHONE": 2027234000, "GIS_ID": "GasStn_9", "X": 397781.23, "Y": 141348.38, "SSL": "2909    0813", "WARD": "Ward 4" }, "geometry": { "type": "Point", "coordinates": [ -77.025595061441237, 38.940029690797161 ] } },
{ "type": "Feature", "properties": { "OBJECTID": 10, "ADDRESS": "2830 SHERMAN AVENUE NW", "ZIP_CODE": "20001", "FULL_SERVI": 0, "ADDRID": 284520, "NAME": "Sunoco", "PHONE": 2023320357, "GIS_ID": "GasStn_10", "X": 397718.52, "Y": 139858.53, "SSL": "2857    0139", "WARD": "Ward 1" }, "geometry": { "type": "Point", "coordinates": [ -77.026313446579067, 38.926608507527455 ] } },
{ "type": "Feature", "properties": { "OBJECTID": 11, "ADDRESS": "3701 12TH STREET NE", "ZIP_CODE": "20017", "FULL_SERVI": 0, "ADDRID": 300854, "NAME": "Shell", "PHONE": -1552427775, "GIS_ID": "GasStn_11", "X": 400791.42, "Y": 140767.5, "SSL": "3926    0062", "WARD": "Ward 5" }, "geometry": { "type": "Point", "coordinates": [ -76.990874188425849, 38.934799397240852 ] } },
{ "type": "Feature", "properties": { "OBJECTID": 12, "ADDRESS": "1301 BLADENSBURG ROAD NE", "ZIP_CODE": "20002", "FULL_SERVI": 0, "ADDRID": 300661, "NAME": "Bladensburg Rd Valero", "PHONE": -1552427782, "GIS_ID": "GasStn_12", "X": 401896.57, "Y": 137744.97, "SSL": "PAR 01520033", "WARD": "Ward 5" }, "geometry": { "type": "Point", "coordinates": [ -76.978135934298635, 38.907569774169538 ] } },
{ "type": "Feature", "properties": { "OBJECTID": 13, "ADDRESS": "2713 GOOD HOPE ROAD SE", "ZIP_CODE": "20020", "FULL_SERVI": 0, "ADDRID": 287193, "NAME": "Good Hope Auto Center", "PHONE": 2025813753, "GIS_ID": "GasStn_13", "X": 402725.07, "Y": 132479.58, "SSL": "PAR 02140112", "WARD": "Ward 8" }, "geometry": { "type": "Point", "coordinates": [ -76.968604688025735, 38.860134934992892 ] } },
{ "type": "Feature", "properties": { "OBJECTID": 14, "ADDRESS": "1905 9TH STREET NE", "ZIP_CODE": "20018", "FULL_SERVI": 0, "ADDRID": 54411, "NAME": "Freedom Citgo", "PHONE": 2028328930, "GIS_ID": "GasStn_14", "X": 400583.63, "Y": 138764.04, "SSL": "3863    0008", "WARD": "Ward 5" }, "geometry": { "type": "Point", "coordinates": [ -76.993272503627821, 38.916751755505175 ] } },
{ "type": "Feature", "properties": { "OBJECTID": 15, "ADDRESS": "1535 KENILWORTH AVENUE NE", "ZIP_CODE": "20019", "FULL_SERVI": 0, "ADDRID": 60958, "NAME": "Kenilworth BP", "PHONE": 2023993418, "GIS_ID": "GasStn_15", "X": 405644.98, "Y": 138081.0, "SSL": "5165    0802", "WARD": "Ward 7" }, "geometry": { "type": "Point", "coordinates": [ -76.934916193547139, 38.910580768328487 ] } },
{ "type": "Feature", "properties": { "OBJECTID": 16, "ADDRESS": "4244 WISCONSIN AVENUE NW", "ZIP_CODE": "20016", "FULL_SERVI": 0, "ADDRID": 222978, "NAME": "Tenleytown Exxon", "PHONE": 2023646372, "GIS_ID": "GasStn_16", "X": 393229.23, "Y": 141824.16, "SSL": "1786    0810", "WARD": "Ward 3" }, "geometry": { "type": "Point", "coordinates": [ -77.078105549022638, 38.944292362933332 ] } },
{ "type": "Feature", "properties": { "OBJECTID": 17, "ADDRESS": "5501 SOUTH DAKOTA AVENUE NE", "ZIP_CODE": "20011", "FULL_SERVI": 1, "ADDRID": 155992, "NAME": "South Dakota Exxon", "PHONE": 2028326220, "GIS_ID": "GasStn_17", "X": 399949.32, "Y": 143123.88, "SSL": "3760    0021", "WARD": "Ward 4" }, "geometry": { "type": "Point", "coordinates": [ -77.000586995128799, 38.956026692433944 ] } },
{ "type": "Feature", "properties": { "OBJECTID": 18, "ADDRESS": "264 MISSOURI AVENUE NW", "ZIP_CODE": "20011", "FULL_SERVI": 1, "ADDRID": 243503, "NAME": "Missouri Service Station Exxon", "PHONE": 2022913914, "GIS_ID": "GasStn_18", "X": 398623.02, "Y": 143204.19, "SSL": "PAR 01130039", "WARD": "Ward 4" }, "geometry": { "type": "Point", "coordinates": [ -77.01588901975542, 38.956749067745591 ] } },
{ "type": "Feature", "properties": { "OBJECTID": 19, "ADDRESS": "3426 GEORGIA AVENUE NW", "ZIP_CODE": "20010", "FULL_SERVI": 0, "ADDRID": 242835, "NAME": "J & K BP", "PHONE": 2028290962, "GIS_ID": "GasStn_19", "X": 397899.19, "Y": 140540.23, "SSL": "2894    0090", "WARD": "Ward 1" }, "geometry": { "type": "Point", "coordinates": [ -77.024231957453239, 38.932749923643073 ] } },
{ "type": "Feature", "properties": { "OBJECTID": 20, "ADDRESS": "2643 VIRGINIA AVENUE NW", "ZIP_CODE": "20037", "FULL_SERVI": 0, "ADDRID": 279605, "NAME": "Watergate Sunoco", "PHONE": 2029656277, "GIS_ID": "GasStn_20", "X": 395167.32, "Y": 136961.87, "SSL": "0006    0810", "WARD": "Ward 2" }, "geometry": { "type": "Point", "coordinates": [ -77.055714758952647, 38.900504091304597 ] } },
{ "type": "Feature", "properties": { "OBJECTID": 21, "ADDRESS": "4140 GEORGIA AVENUE NW", "ZIP_CODE": "20011", "FULL_SERVI": 0, "ADDRID": 284837, "NAME": "Georgia Avenue Shell", "PHONE": 2027227391, "GIS_ID": "GasStn_21", "X": 397755.34, "Y": 141501.89, "SSL": "2910    0040", "WARD": "Ward 4" }, "geometry": { "type": "Point", "coordinates": [ -77.025894196280987, 38.941412487917631 ] } },
{ "type": "Feature", "properties": { "OBJECTID": 22, "ADDRESS": "814 BLADENSBURG ROAD NE", "ZIP_CODE": "20002", "FULL_SERVI": 0, "ADDRID": 288979, "NAME": "Bladensburg Road Mobil", "PHONE": 2023988011, "GIS_ID": "GasStn_22", "X": 401469.93, "Y": 137030.22, "SSL": "4072    0100", "WARD": "Ward 5" }, "geometry": { "type": "Point", "coordinates": [ -76.983056374701988, 38.901131870663605 ] } },
{ "type": "Feature", "properties": { "OBJECTID": 23, "ADDRESS": "4501 BENNING ROAD NE", "ZIP_CODE": "20019", "FULL_SERVI": 0, "ADDRID": 20633, "NAME": "East Capitol Exxon", "PHONE": 2023975340, "GIS_ID": "GasStn_23", "X": 405369.4, "Y": 135814.27, "SSL": "5085    0056", "WARD": "Ward 7" }, "geometry": { "type": "Point", "coordinates": [ -76.938111321781776, 38.890162980608288 ] } },
{ "type": "Feature", "properties": { "OBJECTID": 24, "ADDRESS": "3830 MINNESOTA AVENUE NE", "ZIP_CODE": "20019", "FULL_SERVI": 0, "ADDRID": 301051, "NAME": "Minnesota Avenue Shell", "PHONE": 2023963600, "GIS_ID": "GasStn_24", "X": 404233.6, "Y": 136121.88, "SSL": "5045E   0003", "WARD": "Ward 7" }, "geometry": { "type": "Point", "coordinates": [ -76.951201343374109, 38.892940248721743 ] } },
{ "type": "Feature", "properties": { "OBJECTID": 25, "ADDRESS": "5030 CONNECTICUT AVENUE NW", "ZIP_CODE": "20008", "FULL_SERVI": 0, "ADDRID": 301055, "NAME": "Connecticut Avenue tiger Mart Exxon", "PHONE": 2023645145, "GIS_ID": "GasStn_25", "X": 393879.02, "Y": 143051.86, "SSL": "1985    0021", "WARD": "Ward 3" }, "geometry": { "type": "Point", "coordinates": [ -77.070620947271223, 38.955356588669325 ] } },
{ "type": "Feature", "properties": { "OBJECTID": 26, "ADDRESS": "1 FLORIDA AVENUE NE", "ZIP_CODE": "20002", "FULL_SERVI": 0, "ADDRID": 76011, "NAME": "Florida Avenue Exxon", "PHONE": 2026351659, "GIS_ID": "GasStn_26", "X": 399271.99, "Y": 138041.65, "SSL": "0668    0091", "WARD": "Ward 5" }, "geometry": { "type": "Point", "coordinates": [ -77.008396130950885, 38.91024411375161 ] } },
{ "type": "Feature", "properties": { "OBJECTID": 27, "ADDRESS": "2300 PENNSYLVANIA AVENUE SE", "ZIP_CODE": "20020", "FULL_SERVI": 0, "ADDRID": 48967, "NAME": "Capitol Hill Citgo", "PHONE": 2025817080, "GIS_ID": "GasStn_27", "X": 402440.86, "Y": 134080.79, "SSL": "5556    0061", "WARD": "Ward 7" }, "geometry": { "type": "Point", "coordinates": [ -76.971873602506605, 38.874560127403896 ] } },
{ "type": "Feature", "properties": { "OBJECTID": 28, "ADDRESS": "400 RHODE ISLAND AVENUE NE", "ZIP_CODE": "20002", "FULL_SERVI": 1, "ADDRID": 288064, "NAME": "Rhode Island BP", "PHONE": 2026354545, "GIS_ID": "GasStn_28", "X": 399979.85, "Y": 139150.19, "SSL": "3629    0009", "WARD": "Ward 5" }, "geometry": { "type": "Point", "coordinates": [ -77.000234643802301, 38.920230515431911 ] } },
{ "type": "Feature", "properties": { "OBJECTID": 29, "ADDRESS": "4700 SOUTH CAPITOL STREET SE", "ZIP_CODE": "20032", "FULL_SERVI": 0, "ADDRID": 276660, "NAME": "South Capitol Shell", "PHONE": 2025620661, "GIS_ID": "GasStn_29", "X": 399899.15, "Y": 128235.73, "SSL": "6242    0013", "WARD": "Ward 8" }, "geometry": { "type": "Point", "coordinates": [ -77.001163625926424, 38.821908636918771 ] } },
{ "type": "Feature", "properties": { "OBJECTID": 30, "ADDRESS": "2708 VIRGINIA AVENUE NW", "ZIP_CODE": "20037", "FULL_SERVI": 0, "ADDRID": 279611, "NAME": "Rock Creek Valero", "PHONE": 2023370500, "GIS_ID": "GasStn_30", "X": 395085.45, "Y": 136949.97, "SSL": "0002    0803", "WARD": "Ward 2" }, "geometry": { "type": "Point", "coordinates": [ -77.05665849363055, 38.900396437901023 ] } },
{ "type": "Feature", "properties": { "OBJECTID": 31, "ADDRESS": "7000 BLAIR ROAD NW", "ZIP_CODE": "20012", "FULL_SERVI": 0, "ADDRID": 249127, "NAME": "Takoma Metro BP", "PHONE": 2028827850, "GIS_ID": "GasStn_31", "X": 398346.95, "Y": 145235.41, "SSL": "3277    0009", "WARD": "Ward 4" }, "geometry": { "type": "Point", "coordinates": [ -77.019079040780341, 38.975046324494478 ] } },
{ "type": "Feature", "properties": { "OBJECTID": 32, "ADDRESS": "4519 BENNING ROAD SE", "ZIP_CODE": "20019", "FULL_SERVI": 0, "ADDRID": 278509, "NAME": "Benning Road Valero", "PHONE": 2025831216, "GIS_ID": "GasStn_32", "X": 405402.53, "Y": 135708.11, "SSL": "5350    0122", "WARD": "Ward 7" }, "geometry": { "type": "Point", "coordinates": [ -76.937730280083315, 38.889206448601954 ] } },
{ "type": "Feature", "properties": { "OBJECTID": 33, "ADDRESS": "3200 BLADENSBURG ROAD NE", "ZIP_CODE": "20018", "FULL_SERVI": 0, "ADDRID": 287750, "NAME": "Shell Gas Station", "PHONE": 2025290696, "GIS_ID": "GasStn_33", "X": 403555.51, "Y": 140260.56, "SSL": "4335    0075", "WARD": "Ward 5" }, "geometry": { "type": "Point", "coordinates": [ -76.95899629570944, 38.930225890431508 ] } },
{ "type": "Feature", "properties": { "OBJECTID": 34, "ADDRESS": "1765 NEW YORK AVENUE NE", "ZIP_CODE": "20002", "FULL_SERVI": 0, "ADDRID": 286472, "NAME": "Parkway Shell", "PHONE": 2022693040, "GIS_ID": "GasStn_34", "X": 401805.94, "Y": 138780.45, "SSL": "4099    0829", "WARD": "Ward 5" }, "geometry": { "type": "Point", "coordinates": [ -76.979178122720157, 38.91689792102872 ] } },
{ "type": "Feature", "properties": { "OBJECTID": 35, "ADDRESS": "6201 NEW HAMPSHIRE AVENUE NE", "ZIP_CODE": "20011", "FULL_SERVI": 0, "ADDRID": 3716, "NAME": "Eastern Avenue Shell", "PHONE": 2025295466, "GIS_ID": "GasStn_35", "X": 399792.04, "Y": 144146.29, "SSL": "3730    0001", "WARD": "Ward 4" }, "geometry": { "type": "Point", "coordinates": [ -77.00240188548139, 38.965236801666222 ] } },
{ "type": "Feature", "properties": { "OBJECTID": 36, "ADDRESS": "2230 NEW YORK AVENUE NE", "ZIP_CODE": "20002", "FULL_SERVI": 0, "ADDRID": 286747, "NAME": "New York Avenue Exxon N", "PHONE": 2025264534, "GIS_ID": "GasStn_36", "X": 402327.58, "Y": 138872.09, "SSL": "4263    0002", "WARD": "Ward 5" }, "geometry": { "type": "Point", "coordinates": [ -76.973162819774558, 38.917722218015101 ] } },
{ "type": "Feature", "properties": { "OBJECTID": 37, "ADDRESS": "2651 BENNING ROAD NE", "ZIP_CODE": "20002", "FULL_SERVI": 0, "ADDRID": 300608, "NAME": "E & Z Inc Exxon", "PHONE": 2023966125, "GIS_ID": "GasStn_37", "X": 402588.33, "Y": 136617.67, "SSL": "4518    0800", "WARD": "Ward 7" }, "geometry": { "type": "Point", "coordinates": [ -76.97016459157507, 38.897412890125437 ] } },
{ "type": "Feature", "properties": { "OBJECTID": 38, "ADDRESS": "5420 NEW HAMPSHIRE AVENUE NW", "ZIP_CODE": "20011", "FULL_SERVI": 0, "ADDRID": 245909, "NAME": "New Hampshire Ave Valero", "PHONE": 2027228863, "GIS_ID": "GasStn_38", "X": 399138.49, "Y": 143158.25, "SSL": "3393    0873", "WARD": "Ward 4" }, "geometry": { "type": "Point", "coordinates": [ -77.009941792093628, 38.956335885132191 ] } },
{ "type": "Feature", "properties": { "OBJECTID": 39, "ADDRESS": "6401 GEORGIA AVENUE NW", "ZIP_CODE": "20012", "FULL_SERVI": 0, "ADDRID": 254025, "NAME": "Patties BP", "PHONE": 2022912355, "GIS_ID": "GasStn_39", "X": 397672.39, "Y": 144402.23, "SSL": "2975    0007", "WARD": "Ward 4" }, "geometry": { "type": "Point", "coordinates": [ -77.026860860139394, 38.967539311626552 ] } },
{ "type": "Feature", "properties": { "OBJECTID": 40, "ADDRESS": "5207 NANNIE HELEN BURROUGHS AVENUE NE", "ZIP_CODE": "20019", "FULL_SERVI": 0, "ADDRID": 288552, "NAME": "Sonnys BP Inc.", "PHONE": 2023992122, "GIS_ID": "GasStn_40", "X": 406479.18, "Y": 136684.81, "SSL": "5220    0032", "WARD": "Ward 7" }, "geometry": { "type": "Point", "coordinates": [ -76.925311120072053, 38.897997646366264 ] } },
{ "type": "Feature", "properties": { "OBJECTID": 41, "ADDRESS": "4101 ALABAMA AVENUE SE", "ZIP_CODE": "20019", "FULL_SERVI": 0, "ADDRID": 278474, "NAME": "Fort Dupont BP", "PHONE": 2025843200, "GIS_ID": "GasStn_41", "X": 404826.34, "Y": 133596.53, "SSL": "5369N   0022", "WARD": "Ward 7" }, "geometry": { "type": "Point", "coordinates": [ -76.94438653164336, 38.870187862462508 ] } },
{ "type": "Feature", "properties": { "OBJECTID": 42, "ADDRESS": "1601 NEW YORK AVENUE NE", "ZIP_CODE": "20002", "FULL_SERVI": 0, "ADDRID": 286332, "NAME": "Shell Gas Station", "PHONE": 2022691886, "GIS_ID": "GasStn_42", "X": 401643.97, "Y": 138751.45, "SSL": "PAR 01530144", "WARD": "Ward 5" }, "geometry": { "type": "Point", "coordinates": [ -76.981045856291914, 38.916636997222412 ] } },
{ "type": "Feature", "properties": { "OBJECTID": 43, "ADDRESS": "3825 ALABAMA AVENUE SE", "ZIP_CODE": "20020", "FULL_SERVI": 0, "ADDRID": 300855, "NAME": "Fort Davis Exxon", "PHONE": 2025815700, "GIS_ID": "GasStn_43", "X": 404323.09, "Y": 133087.22, "SSL": "5522    0033", "WARD": "Ward 7" }, "geometry": { "type": "Point", "coordinates": [ -76.950188873679053, 38.865602407228877 ] } },
{ "type": "Feature", "properties": { "OBJECTID": 44, "ADDRESS": "2450 WISCONSIN AVENUE NW", "ZIP_CODE": "20007", "FULL_SERVI": 0, "ADDRID": 295037, "NAME": "Washington Sunoco", "PHONE": -1275243180, "GIS_ID": "GasStn_44", "X": 393672.16, "Y": 139375.1, "SSL": "1300    0549", "WARD": "Ward 3" }, "geometry": { "type": "Point", "coordinates": [ -77.072973611142714, 38.922233792695117 ] } },
{ "type": "Feature", "properties": { "OBJECTID": 45, "ADDRESS": "420 RHODE ISLAND AVENUE NW", "ZIP_CODE": "20001", "FULL_SERVI": 0, "ADDRID": 300859, "NAME": "Rhode Island Ave Valero", "PHONE": 2022324097, "GIS_ID": "GasStn_45", "X": 398424.15, "Y": 138382.74, "SSL": "0508    0068", "WARD": "Ward 6" }, "geometry": { "type": "Point", "coordinates": [ -77.018172382546339, 38.913315657190218 ] } },
{ "type": "Feature", "properties": { "OBJECTID": 46, "ADDRESS": "1231 NEW YORK AVENUE NE", "ZIP_CODE": "20002", "FULL_SERVI": 0, "ADDRID": 70390, "NAME": "New York Avenue BP", "PHONE": 2028321777, "GIS_ID": "GasStn_46", "X": 400990.13, "Y": 138465.79, "SSL": "4041    0825", "WARD": "Ward 5" }, "geometry": { "type": "Point", "coordinates": [ -76.988585621520485, 38.914064655789495 ] } },
{ "type": "Feature", "properties": { "OBJECTID": 47, "ADDRESS": "2500 PENNSYLVANIA AVENUE SE", "ZIP_CODE": "20020", "FULL_SERVI": 0, "ADDRID": 46707, "NAME": "Pennsylvania Avenue BP", "PHONE": 2025845456, "GIS_ID": "GasStn_47", "X": 402601.89, "Y": 133973.12, "SSL": "5553    0027", "WARD": "Ward 7" }, "geometry": { "type": "Point", "coordinates": [ -76.970018286623088, 38.873589731244458 ] } },
{ "type": "Feature", "properties": { "OBJECTID": 48, "ADDRESS": "1317 9TH STREET NW", "ZIP_CODE": "20001", "FULL_SERVI": 0, "ADDRID": 239903, "NAME": "9th Street BP", "PHONE": 2022348411, "GIS_ID": "GasStn_48", "X": 397959.53, "Y": 137768.75, "SSL": "0399    0067", "WARD": "Ward 6" }, "geometry": { "type": "Point", "coordinates": [ -77.02352778765281, 38.907783668699302 ] } },
{ "type": "Feature", "properties": { "OBJECTID": 49, "ADDRESS": "5521 CONNECTICUT AVENUE NW", "ZIP_CODE": "20015", "FULL_SERVI": 1, "ADDRID": 264023, "NAME": "Circle Exxon", "PHONE": 2023646364, "GIS_ID": "GasStn_49", "X": 393561.42, "Y": 143989.76, "SSL": "1868    0068", "WARD": "Ward 3" }, "geometry": { "type": "Point", "coordinates": [ -77.074293950844222, 38.963803161476562 ] } },
{ "type": "Feature", "properties": { "OBJECTID": 50, "ADDRESS": "4321 NANNIE HELEN BURROUGHS AVENUE NE", "ZIP_CODE": "20019", "FULL_SERVI": 0, "ADDRID": 288163, "NAME": "Compass Shell", "PHONE": -1280982140, "GIS_ID": "GasStn_50", "X": 405190.06, "Y": 136980.05, "SSL": "5094    0814", "WARD": "Ward 7" }, "geometry": { "type": "Point", "coordinates": [ -76.940169696201139, 38.900665830127281 ] } },
{ "type": "Feature", "properties": { "OBJECTID": 51, "ADDRESS": "4812 MACARTHUR BOULEVARD NW", "ZIP_CODE": "20007", "FULL_SERVI": 1, "ADDRID": 284961, "NAME": "Parkers Exxon", "PHONE": 2023373144, "GIS_ID": "GasStn_51", "X": 391666.99, "Y": 138719.1, "SSL": "1388    0838", "WARD": "Ward 3" }, "geometry": { "type": "Point", "coordinates": [ -77.096088833990592, 38.916307604988617 ] } },
{ "type": "Feature", "properties": { "OBJECTID": 52, "ADDRESS": "2801 ALABAMA AVENUE SE", "ZIP_CODE": "20020", "FULL_SERVI": 0, "ADDRID": 278264, "NAME": "Hillcrest BP", "PHONE": 2025831100, "GIS_ID": "GasStn_52", "X": 402801.49, "Y": 132432.38, "SSL": "5642    0002", "WARD": "Ward 7" }, "geometry": { "type": "Point", "coordinates": [ -76.967724387724658, 38.859709497403308 ] } },
{ "type": "Feature", "properties": { "OBJECTID": 53, "ADDRESS": "4925 SOUTH DAKOTA AVENUE NE", "ZIP_CODE": "20017", "FULL_SERVI": 0, "ADDRID": 301164, "NAME": "South Dakota BP", "PHONE": 2028328050, "GIS_ID": "GasStn_53", "X": 400656.03, "Y": 142416.61, "SSL": "3899    0079", "WARD": "Ward 5" }, "geometry": { "type": "Point", "coordinates": [ -76.992434176594557, 38.949655169262485 ] } },
{ "type": "Feature", "properties": { "OBJECTID": 54, "ADDRESS": "500 FLORIDA AVENUE NE", "ZIP_CODE": "20002", "FULL_SERVI": 0, "ADDRID": 15655, "NAME": "Florida Avenue Hess", "PHONE": 0, "GIS_ID": "GasStn_54", "X": 400087.39, "Y": 137658.96, "SSL": "3590    0013", "WARD": "Ward 5" }, "geometry": { "type": "Point", "coordinates": [ -76.998994738973892, 38.906797007163746 ] } },
{ "type": "Feature", "properties": { "OBJECTID": 55, "ADDRESS": "45 FLORIDA AVENUE NE", "ZIP_CODE": "20002", "FULL_SERVI": 0, "ADDRID": 288234, "NAME": "Florida Avenue Crown", "PHONE": 2025297400, "GIS_ID": "GasStn_55", "X": 399352.32, "Y": 137997.29, "SSL": "0668    0090", "WARD": "Ward 5" }, "geometry": { "type": "Point", "coordinates": [ -77.007469896165333, 38.909844566516647 ] } },
{ "type": "Feature", "properties": { "OBJECTID": 56, "ADDRESS": "1801 WEST VIRGINIA AVENUE NE", "ZIP_CODE": "20002", "FULL_SERVI": 0, "ADDRID": 55987, "NAME": "West Virginia Ave Valero", "PHONE": -1552427782, "GIS_ID": "GasStn_56", "X": 401290.12, "Y": 138065.33, "SSL": "4092    0006", "WARD": "Ward 5" }, "geometry": { "type": "Point", "coordinates": [ -76.985127348472361, 38.910456786842389 ] } },
{ "type": "Feature", "properties": { "OBJECTID": 57, "ADDRESS": "1248 PENNSYLVANIA AVENUE SE", "ZIP_CODE": "20003", "FULL_SERVI": 0, "ADDRID": 69747, "NAME": "G & K Sunoco", "PHONE": 2025473123, "GIS_ID": "GasStn_57", "X": 400984.74, "Y": 134913.48, "SSL": "1019    0053", "WARD": "Ward 6" }, "geometry": { "type": "Point", "coordinates": [ -76.988652861109571, 38.882064163078589 ] } },
{ "type": "Feature", "properties": { "OBJECTID": 58, "ADDRESS": "925 BRENTWOOD ROAD NE", "ZIP_CODE": "20018", "FULL_SERVI": 0, "ADDRID": 82673, "NAME": "Brentwood Rd Valero", "PHONE": -1552427782, "GIS_ID": "GasStn_58", "X": 400617.53, "Y": 138854.3, "SSL": "PAR 01300035", "WARD": "Ward 5" }, "geometry": { "type": "Point", "coordinates": [ -76.992881524882833, 38.917564824415535 ] } },
{ "type": "Feature", "properties": { "OBJECTID": 59, "ADDRESS": "2600 14TH STREET NW", "ZIP_CODE": "20009", "FULL_SERVI": 0, "ADDRID": 234256, "NAME": "14th Street BP", "PHONE": 2022324976, "GIS_ID": "GasStn_59", "X": 397171.45, "Y": 139552.36, "SSL": "2665    0043", "WARD": "Ward 1" }, "geometry": { "type": "Point", "coordinates": [ -77.032621267443744, 38.92384883983145 ] } },
{ "type": "Feature", "properties": { "OBJECTID": 60, "ADDRESS": "5001 CONNECTICUT AVENUE NW", "ZIP_CODE": "20008", "FULL_SERVI": 1, "ADDRID": 262740, "NAME": "Connecticut Avenue BP", "PHONE": 2022446975, "GIS_ID": "GasStn_60", "X": 393982.19, "Y": 143026.88, "SSL": "1986    0012", "WARD": "Ward 3" }, "geometry": { "type": "Point", "coordinates": [ -77.069430440838701, 38.955132275159741 ] } },
{ "type": "Feature", "properties": { "OBJECTID": 61, "ADDRESS": "2715 PENNSYLVANIA AVENUE NW", "ZIP_CODE": "20007", "FULL_SERVI": 1, "ADDRID": 273871, "NAME": "Georgetown Getty", "PHONE": 2023380400, "GIS_ID": "GasStn_61", "X": 395101.04, "Y": 137462.21, "SSL": "1194    0811", "WARD": "Ward 2" }, "geometry": { "type": "Point", "coordinates": [ -77.056482421949767, 38.905010964282624 ] } },
{ "type": "Feature", "properties": { "OBJECTID": 62, "ADDRESS": "5001 GEORGIA AVENUE NW", "ZIP_CODE": "20011", "FULL_SERVI": 0, "ADDRID": 251856, "NAME": "Valero", "PHONE": 2025459570, "GIS_ID": "GasStn_62", "X": 397667.49, "Y": 142573.02, "SSL": "3007    0067", "WARD": "Ward 4" }, "geometry": { "type": "Point", "coordinates": [ -77.026911179019507, 38.951061300510815 ] } },
{ "type": "Feature", "properties": { "OBJECTID": 63, "ADDRESS": "1739 NEW JERSEY AVENUE NW", "ZIP_CODE": "20001", "FULL_SERVI": 0, "ADDRID": 237208, "NAME": "New Jersy Avenue Hess", "PHONE": 2026676165, "GIS_ID": "GasStn_63", "X": 398499.6, "Y": 138421.89, "SSL": "0507    0094", "WARD": "Ward 5" }, "geometry": { "type": "Point", "coordinates": [ -77.017302503414072, 38.913668465704752 ] } },
{ "type": "Feature", "properties": { "OBJECTID": 64, "ADDRESS": "1400 MARYLAND AVENUE NE", "ZIP_CODE": "20002", "FULL_SERVI": 0, "ADDRID": 286124, "NAME": "Maryland Shell", "PHONE": 0, "GIS_ID": "GasStn_64", "X": 401285.51, "Y": 136884.07, "SSL": "1049    0036", "WARD": "Ward 6" }, "geometry": { "type": "Point", "coordinates": [ -76.985182711599776, 38.89981558790253 ] } },
{ "type": "Feature", "properties": { "OBJECTID": 65, "ADDRESS": "2300 SOUTH DAKOTA AVENUE NE", "ZIP_CODE": "20018", "FULL_SERVI": 0, "ADDRID": 286779, "NAME": "South Dakota Shell", "PHONE": 2028320369, "GIS_ID": "GasStn_65", "X": 403508.36, "Y": 139221.18, "SSL": "4371    0003", "WARD": "Ward 5" }, "geometry": { "type": "Point", "coordinates": [ -76.959545392364134, 38.920863015112872 ] } },
{ "type": "Feature", "properties": { "OBJECTID": 66, "ADDRESS": "2150 M STREET NW", "ZIP_CODE": "20037", "FULL_SERVI": 0, "ADDRID": 279561, "NAME": "M Street Exxon", "PHONE": 2022961907, "GIS_ID": "GasStn_66", "X": 395796.25, "Y": 137458.42, "SSL": "0071    0819", "WARD": "Ward 2" }, "geometry": { "type": "Point", "coordinates": [ -77.048467320279883, 38.904980422726318 ] } },
{ "type": "Feature", "properties": { "OBJECTID": 67, "ADDRESS": "3101 RHODE ISLAND AVENUE NE", "ZIP_CODE": "20018", "FULL_SERVI": 0, "ADDRID": 287515, "NAME": "Shell Rhode Island Ave", "PHONE": 2025263992, "GIS_ID": "GasStn_67", "X": 403100.17, "Y": 140725.25, "SSL": "4308    0045", "WARD": "Ward 5" }, "geometry": { "type": "Point", "coordinates": [ -76.96424566993592, 38.934413684490082 ] } },
{ "type": "Feature", "properties": { "OBJECTID": 68, "ADDRESS": "339 PENNSYLVANIA AVENUE SE", "ZIP_CODE": "20003", "FULL_SERVI": 1, "ADDRID": 278384, "NAME": "Capitol Hill Exxon", "PHONE": 2025474054, "GIS_ID": "GasStn_68", "X": 399924.17, "Y": 135379.94, "SSL": "0790    0013", "WARD": "Ward 6" }, "geometry": { "type": "Point", "coordinates": [ -77.000876297475529, 38.886266762288351 ] } },
{ "type": "Feature", "properties": { "OBJECTID": 69, "ADDRESS": "3820 MINNESOTA AVENUE NE", "ZIP_CODE": "20019", "FULL_SERVI": 0, "ADDRID": 30064, "NAME": "Minnesota Avenue Citgo", "PHONE": 2023885722, "GIS_ID": "GasStn_69", "X": 404209.53, "Y": 136090.5, "SSL": "5045E   0002", "WARD": "Ward 7" }, "geometry": { "type": "Point", "coordinates": [ -76.951478991783787, 38.892657681627071 ] } },
{ "type": "Feature", "properties": { "OBJECTID": 70, "ADDRESS": "1201 PENNSYLVANIA AVENUE SE", "ZIP_CODE": "20003", "FULL_SERVI": 0, "ADDRID": 72104, "NAME": "Penn Ave Exxon", "PHONE": 2025466146, "GIS_ID": "GasStn_70", "X": 400879.47, "Y": 134866.83, "SSL": "1019S   0815", "WARD": "Ward 6" }, "geometry": { "type": "Point", "coordinates": [ -76.989866188825559, 38.881644033280651 ] } },
{ "type": "Feature", "properties": { "OBJECTID": 71, "ADDRESS": "1400 W STREET NW", "ZIP_CODE": "20009", "FULL_SERVI": 0, "ADDRID": 242884, "NAME": "W Street Valero", "PHONE": 2023283990, "GIS_ID": "GasStn_71", "X": 397183.25, "Y": 139013.59, "SSL": "0203    0805", "WARD": "Ward 1" }, "geometry": { "type": "Point", "coordinates": [ -77.032482978313283, 38.918995462734387 ] } },
{ "type": "Feature", "properties": { "OBJECTID": 72, "ADDRESS": "3540 14TH STREET NW", "ZIP_CODE": "20010", "FULL_SERVI": 0, "ADDRID": 234782, "NAME": "Columbia Heights Exxon", "PHONE": 2022340026, "GIS_ID": "GasStn_72", "X": 397124.39, "Y": 140810.9, "SSL": "2688    0108", "WARD": "Ward 1" }, "geometry": { "type": "Point", "coordinates": [ -77.033169239466048, 38.935186006626573 ] } },
{ "type": "Feature", "properties": { "OBJECTID": 73, "ADDRESS": "4400 BENNING ROAD NE", "ZIP_CODE": "20019", "FULL_SERVI": 0, "ADDRID": 288186, "NAME": "Benning Road BP", "PHONE": 2023961567, "GIS_ID": "GasStn_73", "X": 405321.74, "Y": 135978.61, "SSL": "5139    0024", "WARD": "Ward 7" }, "geometry": { "type": "Point", "coordinates": [ -76.938659406878401, 38.891643706365166 ] } },
{ "type": "Feature", "properties": { "OBJECTID": 74, "ADDRESS": "3607 M STREET NW", "ZIP_CODE": "20007", "FULL_SERVI": 0, "ADDRID": 274933, "NAME": "Key Bridge Exxon", "PHONE": 2029653760, "GIS_ID": "GasStn_74", "X": 393850.94, "Y": 137492.93, "SSL": "1202    0064", "WARD": "Ward 2" }, "geometry": { "type": "Point", "coordinates": [ -77.070895101914871, 38.905279843895165 ] } },
{ "type": "Feature", "properties": { "OBJECTID": 75, "ADDRESS": "1601 WISCONSIN AVENUE NW", "ZIP_CODE": "20007", "FULL_SERVI": 1, "ADDRID": 272965, "NAME": "Georgetown Exxon", "PHONE": 2023330538, "GIS_ID": "GasStn_75", "X": 394386.76, "Y": 138099.29, "SSL": "1280    1002", "WARD": "Ward 2" }, "geometry": { "type": "Point", "coordinates": [ -77.064722565225964, 38.910745729324184 ] } },
{ "type": "Feature", "properties": { "OBJECTID": 76, "ADDRESS": "823 PENNSYLVANIA AVENUE SE", "ZIP_CODE": "20003", "FULL_SERVI": 0, "ADDRID": 280153, "NAME": "Distads BP", "PHONE": 2025430200, "GIS_ID": "GasStn_76", "X": 400500.02, "Y": 135070.72, "SSL": "0925    0020", "WARD": "Ward 6" }, "geometry": { "type": "Point", "coordinates": [ -76.99423928891035, 38.883481051007493 ] } },
{ "type": "Feature", "properties": { "OBJECTID": 77, "ADDRESS": "3355 BENNING ROAD NE", "ZIP_CODE": "20019", "FULL_SERVI": 0, "ADDRID": 287842, "NAME": "Benning Road Shell", "PHONE": 2023985920, "GIS_ID": "GasStn_77", "X": 403564.16, "Y": 136494.29, "SSL": "5003    0001", "WARD": "Ward 7" }, "geometry": { "type": "Point", "coordinates": [ -76.958916082033582, 38.896298023698826 ] } },
{ "type": "Feature", "properties": { "OBJECTID": 78, "ADDRESS": "1830 RHODE ISLAND AVENUE NE", "ZIP_CODE": "20018", "FULL_SERVI": 0, "ADDRID": 286501, "NAME": "Rhode Island Shell", "PHONE": 2025292716, "GIS_ID": "GasStn_78", "X": 401940.83, "Y": 140097.14, "SSL": "4208    0028", "WARD": "Ward 5" }, "geometry": { "type": "Point", "coordinates": [ -76.977618994117634, 38.928758801645117 ] } },
{ "type": "Feature", "properties": { "OBJECTID": 79, "ADDRESS": "1925 BLADENSBURG ROAD NE", "ZIP_CODE": "20002", "FULL_SERVI": 0, "ADDRID": 286540, "NAME": "Bladensburg Exxon", "PHONE": 2025266986, "GIS_ID": "GasStn_79", "X": 402409.45, "Y": 138788.91, "SSL": "4393    0013", "WARD": "Ward 5" }, "geometry": { "type": "Point", "coordinates": [ -76.972219063810186, 38.916972684391091 ] } },
{ "type": "Feature", "properties": { "OBJECTID": 80, "ADDRESS": "2420 NEW YORK AVENUE NE", "ZIP_CODE": "20002", "FULL_SERVI": 0, "ADDRID": 287042, "NAME": "New York Avenue BP", "PHONE": 2025263677, "GIS_ID": "GasStn_80", "X": 402499.1, "Y": 138877.37, "SSL": "4373    0009", "WARD": "Ward 5" }, "geometry": { "type": "Point", "coordinates": [ -76.971184993258149, 38.917769311064738 ] } },
{ "type": "Feature", "properties": { "OBJECTID": 81, "ADDRESS": "1020 MICHIGAN AVENUE NE", "ZIP_CODE": "20017", "FULL_SERVI": 0, "ADDRID": 75356, "NAME": "Brookland Exxon", "PHONE": 2025269430, "GIS_ID": "GasStn_81", "X": 400615.35, "Y": 140897.96, "SSL": "3885    0001", "WARD": "Ward 5" }, "geometry": { "type": "Point", "coordinates": [ -76.992904831503196, 38.935974761126907 ] } },
{ "type": "Feature", "properties": { "OBJECTID": 82, "ADDRESS": "1950 BENNING ROAD NE", "ZIP_CODE": "20002", "FULL_SERVI": 0, "ADDRID": 290018, "NAME": "Benning Road Mobil", "PHONE": 2023998880, "GIS_ID": "GasStn_82", "X": 402218.06, "Y": 136775.31, "SSL": "PAR 01600022", "WARD": "Ward 5" }, "geometry": { "type": "Point", "coordinates": [ -76.974432472512177, 38.898833980542321 ] } },
{ "type": "Feature", "properties": { "OBJECTID": 83, "ADDRESS": "6419 GEORGIA AVENUE NW", "ZIP_CODE": "20012", "FULL_SERVI": 1, "ADDRID": 254024, "NAME": "J & K Shell", "PHONE": 2023998880, "GIS_ID": "GasStn_83", "X": 397655.63, "Y": 144467.06, "SSL": "2975    0006", "WARD": "Ward 4" }, "geometry": { "type": "Point", "coordinates": [ -77.027054477509239, 38.968123271506641 ] } },
{ "type": "Feature", "properties": { "OBJECTID": 84, "ADDRESS": "7605 GEORGIA AVENUE NW", "ZIP_CODE": "20012", "FULL_SERVI": 0, "ADDRID": 253716, "NAME": "Georgia Avenue BP", "PHONE": 2027237588, "GIS_ID": "GasStn_84", "X": 397738.2, "Y": 146033.75, "SSL": "2961    0070", "WARD": "Ward 4" }, "geometry": { "type": "Point", "coordinates": [ -77.026106855065208, 38.982236593258904 ] } },
{ "type": "Feature", "properties": { "OBJECTID": 85, "ADDRESS": "6300 GEORGIA AVENUE NW", "ZIP_CODE": "20011", "FULL_SERVI": 1, "ADDRID": 253249, "NAME": "Paks BP", "PHONE": 2027265300, "GIS_ID": "GasStn_85", "X": 397576.26, "Y": 144292.03, "SSL": "2943    0001", "WARD": "Ward 4" }, "geometry": { "type": "Point", "coordinates": [ -77.027969726097893, 38.96654634288624 ] } },
{ "type": "Feature", "properties": { "OBJECTID": 86, "ADDRESS": "6350 GEORGIA AVENUE NW", "ZIP_CODE": "20011", "FULL_SERVI": 0, "ADDRID": 259632, "NAME": "Putnams Exxon", "PHONE": 2027239379, "GIS_ID": "GasStn_86", "X": 397583.18, "Y": 144325.44, "SSL": "PAR 00880229", "WARD": "Ward 4" }, "geometry": { "type": "Point", "coordinates": [ -77.027889994290675, 38.966847327463746 ] } },
{ "type": "Feature", "properties": { "OBJECTID": 87, "ADDRESS": "4861 MASSACHUSETTS AVENUE NW", "ZIP_CODE": "20016", "FULL_SERVI": 1, "ADDRID": 269571, "NAME": "Spring Valley Exxon", "PHONE": 2023622639, "GIS_ID": "GasStn_87", "X": 391636.09, "Y": 142029.74, "SSL": "1499    0008", "WARD": "Ward 3" }, "geometry": { "type": "Point", "coordinates": [ -77.096485485000315, 38.946130561188028 ] } },
{ "type": "Feature", "properties": { "OBJECTID": 88, "ADDRESS": "4100 HUNT PLACE NE", "ZIP_CODE": "20019", "FULL_SERVI": 0, "ADDRID": 288109, "NAME": "Minnesota Avenue Exxon", "PHONE": 2023983125, "GIS_ID": "GasStn_88", "X": 404910.56, "Y": 137005.15, "SSL": "5076    0058", "WARD": "Ward 7" }, "geometry": { "type": "Point", "coordinates": [ -76.943391676780905, 38.900893545587749 ] } },
{ "type": "Feature", "properties": { "OBJECTID": 89, "ADDRESS": "3011 MARTIN LUTHER KING JR AVENUE SE", "ZIP_CODE": "20032", "FULL_SERVI": 0, "ADDRID": 301041, "NAME": "Martin Luther King Automotive", "PHONE": 2025263600, "GIS_ID": "GasStn_89", "X": 400144.92, "Y": 130737.57, "SSL": "5988    0082", "WARD": "Ward 8" }, "geometry": { "type": "Point", "coordinates": [ -76.99833291416293, 38.844446361236152 ] } },
{ "type": "Feature", "properties": { "OBJECTID": 90, "ADDRESS": "200 MASSACHUSETTS AVENUE NE", "ZIP_CODE": "20002", "FULL_SERVI": 1, "ADDRID": 286572, "NAME": "Congressional Exxon", "PHONE": 2025439456, "GIS_ID": "GasStn_90", "X": 399732.41, "Y": 136402.39, "SSL": "0755    0033", "WARD": "Ward 6" }, "geometry": { "type": "Point", "coordinates": [ -77.003086917439674, 38.895477337662371 ] } },
{ "type": "Feature", "properties": { "OBJECTID": 91, "ADDRESS": "1442 U STREET NW", "ZIP_CODE": "20009", "FULL_SERVI": 0, "ADDRID": 279190, "NAME": "Sunoco", "PHONE": 2022652444, "GIS_ID": "GasStn_91", "X": 397062.21, "Y": 138763.27, "SSL": "0205    0066", "WARD": "Ward 2" }, "geometry": { "type": "Point", "coordinates": [ -77.033877651365827, 38.916740101123921 ] } },
{ "type": "Feature", "properties": { "OBJECTID": 92, "ADDRESS": "5831 GEORGIA AVENUE NW", "ZIP_CODE": "20011", "FULL_SERVI": 1, "ADDRID": 285276, "NAME": "Valero", "PHONE": -1279074318, "GIS_ID": "GasStn_92", "X": 397597.19, "Y": 143640.41, "SSL": "2988    0803", "WARD": "Ward 4" }, "geometry": { "type": "Point", "coordinates": [ -77.027725931854548, 38.9606764434455 ] } },
{ "type": "Feature", "properties": { "OBJECTID": 93, "ADDRESS": "4665 SOUTH CAPITOL STREET SW", "ZIP_CODE": "20032", "FULL_SERVI": 0, "ADDRID": 276658, "NAME": "South Capitol Exxon", "PHONE": 2025620698, "GIS_ID": "GasStn_93", "X": 399807.04, "Y": 128183.31, "SSL": "6274    0001", "WARD": "Ward 8" }, "geometry": { "type": "Point", "coordinates": [ -77.002224306342427, 38.821436397072986 ] } },
{ "type": "Feature", "properties": { "OBJECTID": 94, "ADDRESS": "1201 BLADENSBURG ROAD NE", "ZIP_CODE": "20002", "FULL_SERVI": 0, "ADDRID": 285912, "NAME": "Bladensburg BP", "PHONE": 2023960545, "GIS_ID": "GasStn_94", "X": 401789.79, "Y": 137553.17, "SSL": "4444    0012", "WARD": "Ward 5" }, "geometry": { "type": "Point", "coordinates": [ -76.979367545332138, 38.905842196671351 ] } },
{ "type": "Feature", "properties": { "OBJECTID": 95, "ADDRESS": "1800 18TH STREET NW", "ZIP_CODE": "20009", "FULL_SERVI": 0, "ADDRID": 241151, "NAME": "W Express", "PHONE": 2023329707, "GIS_ID": "GasStn_95", "X": 396366.08, "Y": 138499.35, "SSL": "0132    0233", "WARD": "Ward 2" }, "geometry": { "type": "Point", "coordinates": [ -77.041903259758342, 38.914360018598607 ] } },
{ "type": "Feature", "properties": { "OBJECTID": 96, "ADDRESS": "7401 GEORGIA AVENUE NW", "ZIP_CODE": "20012", "FULL_SERVI": 0, "ADDRID": 253740, "NAME": "Walter Reed Exxon", "PHONE": 2027267327, "GIS_ID": "GasStn_96", "X": 397754.02, "Y": 145748.77, "SSL": "2962    0025", "WARD": "Ward 4" }, "geometry": { "type": "Point", "coordinates": [ -77.025923334447867, 38.979669471248698 ] } },
{ "type": "Feature", "properties": { "OBJECTID": 97, "ADDRESS": "2305 PENNSYLVANIA AVENUE SE", "ZIP_CODE": "20020", "FULL_SERVI": 0, "ADDRID": 300688, "NAME": "Signature Pennsylvania Avenue Sunoco", "PHONE": 2025831679, "GIS_ID": "GasStn_97", "X": 402315.89, "Y": 134031.68, "SSL": "5559    0035", "WARD": "Ward 7" }, "geometry": { "type": "Point", "coordinates": [ -76.973313932823615, 38.874118062812101 ] } },
{ "type": "Feature", "properties": { "OBJECTID": 98, "ADDRESS": "2200 P STREET NW", "ZIP_CODE": "20037", "FULL_SERVI": 1, "ADDRID": 225947, "NAME": "Embassy Sunoco", "PHONE": 2026598560, "GIS_ID": "GasStn_98", "X": 395736.26, "Y": 137939.57, "SSL": "0048    0805", "WARD": "Ward 2" }, "geometry": { "type": "Point", "coordinates": [ -77.049161932362992, 38.909314500092293 ] } },
{ "type": "Feature", "properties": { "OBJECTID": 99, "ADDRESS": "3201 PENNSYLVANIA AVENUE SE", "ZIP_CODE": "20020", "FULL_SERVI": 0, "ADDRID": 38863, "NAME": "Hillcrest Exxon", "PHONE": 2025814550, "GIS_ID": "GasStn_99", "X": 403486.25, "Y": 133424.32, "SSL": "5665N   0001", "WARD": "Ward 7" }, "geometry": { "type": "Point", "coordinates": [ -76.95995381094734, 38.868753343370379 ] } },
{ "type": "Feature", "properties": { "OBJECTID": 100, "ADDRESS": "3535 CONNECTICUT AVENUE NW", "ZIP_CODE": "20008", "FULL_SERVI": 0, "ADDRID": 219266, "NAME": "Cleveland Park Exxon", "PHONE": 2023649948, "GIS_ID": "GasStn_100", "X": 394924.23, "Y": 140965.37, "SSL": "2222    0805", "WARD": "Ward 3" }, "geometry": { "type": "Point", "coordinates": [ -77.058546768140616, 38.936567561956615 ] } },
{ "type": "Feature", "properties": { "OBJECTID": 101, "ADDRESS": "2350 SOUTH DAKOTA AVENUE NE", "ZIP_CODE": "20018", "FULL_SERVI": 0, "ADDRID": 48031, "NAME": "South Dakota Shell", "PHONE": 2025263388, "GIS_ID": "GasStn_101", "X": 403421.32, "Y": 139305.56, "SSL": "4371    0006", "WARD": "Ward 5" }, "geometry": { "type": "Point", "coordinates": [ -76.960548679444742, 38.921623480678804 ] } },
{ "type": "Feature", "properties": { "OBJECTID": 102, "ADDRESS": "3426 18TH STREET NE", "ZIP_CODE": "20018", "FULL_SERVI": 0, "ADDRID": 34566, "NAME": "K & J Auto Care Inc.", "PHONE": 2022692495, "GIS_ID": "GasStn_102", "X": 401736.33, "Y": 140539.34, "SSL": "4146    0038", "WARD": "Ward 5" }, "geometry": { "type": "Point", "coordinates": [ -76.979976342295672, 38.932742703765975 ] } },
{ "type": "Feature", "properties": { "OBJECTID": 103, "ADDRESS": "306 RHODE ISLAND AVENUE NW", "ZIP_CODE": "20001", "FULL_SERVI": 0, "ADDRID": 230006, "NAME": "Rhode Island Avenue BP", "PHONE": 2022342973, "GIS_ID": "GasStn_103", "X": 398606.63, "Y": 138466.5, "SSL": "3097    0060", "WARD": "Ward 5" }, "geometry": { "type": "Point", "coordinates": [ -77.0160684947883, 38.914070503889846 ] } },
{ "type": "Feature", "properties": { "OBJECTID": 104, "ADDRESS": "1301 13TH STREET NW", "ZIP_CODE": "20005", "FULL_SERVI": 0, "ADDRID": 240902, "NAME": "Logan Circle BP", "PHONE": 2022653005, "GIS_ID": "GasStn_104", "X": 397453.66, "Y": 137737.92, "SSL": "0280    0027", "WARD": "Ward 2" }, "geometry": { "type": "Point", "coordinates": [ -77.0293600775192, 38.907504621181523 ] } },
{ "type": "Feature", "properties": { "OBJECTID": 105, "ADDRESS": "4501 14TH STREET NW", "ZIP_CODE": "20011", "FULL_SERVI": 0, "ADDRID": 255205, "NAME": "Davis Exxon", "PHONE": 2022919485, "GIS_ID": "GasStn_105", "X": 397206.1, "Y": 141935.56, "SSL": "2816    0816", "WARD": "Ward 4" }, "geometry": { "type": "Point", "coordinates": [ -77.032231386071643, 38.945317536591659 ] } },
{ "type": "Feature", "properties": { "OBJECTID": 106, "ADDRESS": "1396 FLORIDA AVENUE NE", "ZIP_CODE": "20002", "FULL_SERVI": 0, "ADDRID": 286118, "NAME": "Caseys BP", "PHONE": 2023963690, "GIS_ID": "GasStn_106", "X": 401269.14, "Y": 137028.84, "SSL": "4068    0178", "WARD": "Ward 5" }, "geometry": { "type": "Point", "coordinates": [ -76.985371160258438, 38.901119751876074 ] } },
{ "type": "Feature", "properties": { "OBJECTID": 107, "ADDRESS": "22 FLORIDA AVENUE NW", "ZIP_CODE": "20001", "FULL_SERVI": 0, "ADDRID": 301035, "NAME": "Florida Ave Valero", "PHONE": 2023322511, "GIS_ID": "GasStn_107", "X": 399064.22, "Y": 138163.47, "SSL": "0614    0114", "WARD": "Ward 5" }, "geometry": { "type": "Point", "coordinates": [ -77.010791854137921, 38.911341313310281 ] } },
{ "type": "Feature", "properties": { "OBJECTID": 108, "ADDRESS": "4900 WISCONSIN AVENUE NW", "ZIP_CODE": "20016", "FULL_SERVI": 0, "ADDRID": 266055, "NAME": "Shell", "PHONE": 2022449548, "GIS_ID": "GasStn_108", "X": 392844.45, "Y": 142848.5, "SSL": "1671    0029", "WARD": "Ward 3" }, "geometry": { "type": "Point", "coordinates": [ -77.082554808039333, 38.953516848748919 ] } }
]
}
