{"type":"FeatureCollection","features":[{"type":"Feature","properties":{"OBJECTID":1,"OWNERSHIP":"MA/PR","UNICOM":"N","GIS_ID":"HPT_1","ADDRESS":"Macdill St and Luke St SW","NAME":"Bolling Air Force Base","TELEPHONE":"N/A"},"geometry":{"type":"Point","coordinates":[-77.01445416669081,38.84512951624895]}},{"type":"Feature","properties":{"OBJECTID":2,"OWNERSHIP":"PR/PR","UNICOM":"Dusk-Dawnn123.050","GIS_ID":"HPT_2","ADDRESS":"111 Michigan Ave NW","NAME":"Children's National Medical Center","TELEPHONE":"202-745-5605"},"geometry":{"type":"Point","coordinates":[-77.01704521818917,38.928568103139256]}},{"type":"Feature","properties":{"OBJECTID":3,"OWNERSHIP":"PU/PR","UNICOM":"24 Hrs. N123.050","GIS_ID":"HPT_3","ADDRESS":"1910 Massachusetts Ave SE","NAME":"DC General Hospital ACCC","TELEPHONE":"202-675-5000"},"geometry":{"type":"Point","coordinates":[-76.97525426062649,38.88687844427451]}},{"type":"Feature","properties":{"OBJECTID":4,"OWNERSHIP":"PR/PR","UNICOM":"N","GIS_ID":"HPT_4","ADDRESS":"3800 Reservoir Rd NW","NAME":"Georgetown University Hospital","TELEPHONE":"202-784-3804"},"geometry":{"type":"Point","coordinates":[-77.07769590468558,38.91058707682077]}},{"type":"Feature","properties":{"OBJECTID":5,"OWNERSHIP":"PR/PR","UNICOM":"N","GIS_ID":"HPT_5","ADDRESS":"44 Porter Pl NE","NAME":"Metropolitan Complex","TELEPHONE":"202-635-1682"},"geometry":{"type":"Point","coordinates":[-77.00719669019749,38.91039677713023]}},{"type":"Feature","properties":{"OBJECTID":6,"OWNERSHIP":"PU/PR","UNICOM":"Phone Reqn","GIS_ID":"HPT_6","ADDRESS":"3320 Idaho Ave NW","NAME":"Metropolitan Police Department - 2nd District","TELEPHONE":"202-282-0074"},"geometry":{"type":"Point","coordinates":[-77.07481535105894,38.93486587258418]}},{"type":"Feature","properties":{"OBJECTID":7,"OWNERSHIP":"PU/PR","UNICOM":"Phone Reqn","GIS_ID":"HPT_7","ADDRESS":"1620 V St NW","NAME":"Metropolitan Police Department - 3rd District","TELEPHONE":"202-727-4368"},"geometry":{"type":"Point","coordinates":[-77.03808732458921,38.91788501600065]}},{"type":"Feature","properties":{"OBJECTID":8,"OWNERSHIP":"PU/PR","UNICOM":"N","GIS_ID":"HPT_8","ADDRESS":"1805 Bladensburg Rd NE","NAME":"Metropolitan Police Department - 5th District","TELEPHONE":"202-727-4490"},"geometry":{"type":"Point","coordinates":[-76.97363007719684,38.91512941062737]}},{"type":"Feature","properties":{"OBJECTID":9,"OWNERSHIP":"PR/PR","UNICOM":"N","GIS_ID":"HPT_9","ADDRESS":"4120 Van Ness St NW","NAME":"National Presbyterian Church","TELEPHONE":"202-885-4896"},"geometry":{"type":"Point","coordinates":[-77.07983879079966,38.94212063514301]}},{"type":"Feature","properties":{"OBJECTID":10,"OWNERSHIP":"N/A","UNICOM":"N/A","GIS_ID":"HPT_10","ADDRESS":"Army Navy Dr and Fern St, Arlington VA 22202","NAME":"Pentagon AHP","TELEPHONE":"703-664-1201"},"geometry":{"type":"Point","coordinates":[-77.05668334530536,38.87490997549419]}},{"type":"Feature","properties":{"OBJECTID":11,"OWNERSHIP":"PR/PU","UNICOM":"Dusk-Dawnn123.050","GIS_ID":"HPT_11","ADDRESS":"1724 South Capitol St SE","NAME":"South Capitol Street","TELEPHONE":"202-484-8616"},"geometry":{"type":"Point","coordinates":[-77.00841719510906,38.8686754520909]}},{"type":"Feature","properties":{"OBJECTID":12,"OWNERSHIP":"PR/PR","UNICOM":"N","GIS_ID":"HPT_12","ADDRESS":"Pier 4 6th St Sw Water St SW","NAME":"Spirit of Washington","TELEPHONE":"202-484-2320"},"geometry":{"type":"Point","coordinates":[-77.02164124277662,38.87443073342405]}},{"type":"Feature","properties":{"OBJECTID":13,"OWNERSHIP":"PR/PR","UNICOM":"N","GIS_ID":"HPT_13","ADDRESS":"5454 Wisconsin Ave, Chevy Chase MD 20815","NAME":"Steuart Office Pad","TELEPHONE":"301-951-2724"},"geometry":{"type":"Point","coordinates":[-77.08668175931129,38.96100576749905]}},{"type":"Feature","properties":{"OBJECTID":14,"OWNERSHIP":"PU/PR","UNICOM":"Dusk-Dawnn","GIS_ID":"HPT_14","ADDRESS":"1100 Ohio Dr SW","NAME":"United States Park Police Eagle's Nest","TELEPHONE":"202-426-6680"},"geometry":{"type":"Point","coordinates":[-76.99205852192232,38.867159280100964]}},{"type":"Feature","properties":{"OBJECTID":15,"OWNERSHIP":"MR/PR","UNICOM":"N","GIS_ID":"HPT_15","ADDRESS":"6825 16th St NW","NAME":"Walter Reed Army Medical Center","TELEPHONE":"202-576-1393"},"geometry":{"type":"Point","coordinates":[-77.02790340716273,38.977659343563374]}},{"type":"Feature","properties":{"OBJECTID":16,"OWNERSHIP":"MR/PR","UNICOM":"N","GIS_ID":"HPT_16","ADDRESS":"Brookville Road and Research Dr, Silver Spring MD 20910","NAME":"Walter Reed Forest Glen","TELEPHONE":"N/A"},"geometry":{"type":"Point","coordinates":[-77.0533673938645,39.00552171187992]}},{"type":"Feature","properties":{"OBJECTID":17,"OWNERSHIP":"PR/PR","UNICOM":"Phone Reqn123.050","GIS_ID":"HPT_17","ADDRESS":"1150 15th Street NW","NAME":"Washington Post","TELEPHONE":"202-334-7100"},"geometry":{"type":"Point","coordinates":[-77.03521031544054,38.90412350339584]}},{"type":"Feature","properties":{"OBJECTID":18,"OWNERSHIP":"PR/PR","UNICOM":"Dusk-Dawnn123.050","GIS_ID":"HPT_18","ADDRESS":"110 Irving St NW","NAME":"Washington Hospital Center","TELEPHONE":"202-877-7234"},"geometry":{"type":"Point","coordinates":[-77.01664036167439,38.92887710158517]}},{"type":"Feature","properties":{"OBJECTID":19,"OWNERSHIP":" ","UNICOM":" ","GIS_ID":"HPT_19","ADDRESS":"1910 Massachusetts Ave SE","NAME":"DC General Hospital ACCC","TELEPHONE":"202-675-5000"},"geometry":{"type":"Point","coordinates":[-76.97549909432698,38.88437019256641]}}]}