{
"type": "FeatureCollection",
"crs": { "type": "name", "properties": { "name": "urn:ogc:def:crs:OGC:1.3:CRS84" } },
                                                                                
"features": [
{ "type": "Feature", "properties": { "OBJECTID": 1, "ID": 1, "NAME": "Assoc. Comm. Svc.", "ADDRESS": "3937 MARTIN LUTHER KING JR AVENUE SW", "DIRECTOR": "Gloria Rimson", "PHONE": "561-2719", "BEDS": 6, "LICENSE": "HFD03-0096", "ADDRESS_ID": 28831 }, "geometry": { "type": "Point", "coordinates": [ -77.009182975269482, 38.83276240698045 ] } },
{ "type": "Feature", "properties": { "OBJECTID": 2, "ID": 2, "NAME": "Assoc. Comm. Svc.", "ADDRESS": "5000 EAST CAPITOL STREET NE", "DIRECTOR": "Gloria Rimson", "PHONE": "388-1421", "BEDS": 5, "LICENSE": "HFD03-0026", "ADDRESS_ID": 288396 }, "geometry": { "type": "Point", "coordinates": [ -76.929860262941588, 38.890123094878717 ] } },
{ "type": "Feature", "properties": { "OBJECTID": 3, "ID": 3, "NAME": "Assoc. Comm. Svc.", "ADDRESS": "5706 14TH STREET NW", "DIRECTOR": "Gloria Rimson", "PHONE": "882-3142", "BEDS": 6, "LICENSE": "HFD03-0133", "ADDRESS_ID": 255998 }, "geometry": { "type": "Point", "coordinates": [ -77.033741173640095, 38.958772047551548 ] } },
{ "type": "Feature", "properties": { "OBJECTID": 4, "ID": 4, "NAME": "Behav. Res. Assoc.", "ADDRESS": "5051 LEE STREET NE", "DIRECTOR": "Ann Gordon", "PHONE": "388-1748", "BEDS": 5, "LICENSE": "HFD03-0079", "ADDRESS_ID": 14050 }, "geometry": { "type": "Point", "coordinates": [ -76.927504334942881, 38.904421989482159 ] } },
{ "type": "Feature", "properties": { "OBJECTID": 5, "ID": 5, "NAME": "Behav. Res.  Assoc.", "ADDRESS": "4288 1\/2 SOUTHERN AVENUE SE", "DIRECTOR": "Ann Gordon", "PHONE": "575-3840", "BEDS": 6, "LICENSE": "HFD03-0084", "ADDRESS_ID": 289811 }, "geometry": { "type": "Point", "coordinates": [ -76.939522959531217, 38.869653228168971 ] } },
{ "type": "Feature", "properties": { "OBJECTID": 6, "ID": 7, "NAME": "Behav. Res. Assoc.", "ADDRESS": "1034 BURNS STREET SE", "DIRECTOR": "Ann Gordon", "PHONE": "581-2314", "BEDS": 6, "LICENSE": "HFD03-0023", "ADDRESS_ID": 74977 }, "geometry": { "type": "Point", "coordinates": [ -76.938093628212968, 38.873484655587198 ] } },
{ "type": "Feature", "properties": { "OBJECTID": 7, "ID": 8, "NAME": "Careco I", "ADDRESS": "6417 KANSAS AVENUE NE", "DIRECTOR": "Dennis Lewis", "PHONE": "234-7001", "BEDS": 5, "LICENSE": "HFD03-0067", "ADDRESS_ID": 2058 }, "geometry": { "type": "Point", "coordinates": [ -77.006250979869762, 38.967920846484404 ] } },
{ "type": "Feature", "properties": { "OBJECTID": 8, "ID": 9, "NAME": "Careco  II", "ADDRESS": "6613 6TH STREET NW", "DIRECTOR": "Dennis Lewis", "PHONE": "882-6226", "BEDS": 6, "LICENSE": "HFD03-0143", "ADDRESS_ID": 251313 }, "geometry": { "type": "Point", "coordinates": [ -77.021120352739274, 38.970548161486413 ] } },
{ "type": "Feature", "properties": { "OBJECTID": 9, "ID": 10, "NAME": "Careco V", "ADDRESS": "6934 9TH STREET NW", "DIRECTOR": "Dennis Lewis", "PHONE": "726-4005", "BEDS": 6, "LICENSE": "HFD03-0145", "ADDRESS_ID": 243490 }, "geometry": { "type": "Point", "coordinates": [ -77.025834203323555, 38.974817389215517 ] } },
{ "type": "Feature", "properties": { "OBJECTID": 10, "ID": 11, "NAME": "Careco Inc. IV", "ADDRESS": "1004 URELL PLACE NE", "DIRECTOR": "Dennis Lewis", "PHONE": "234-7000", "BEDS": 6, "LICENSE": "HFD03-0148", "ADDRESS_ID": 76312 }, "geometry": { "type": "Point", "coordinates": [ -76.992032127126265, 38.942484549229441 ] } },
{ "type": "Feature", "properties": { "OBJECTID": 11, "ID": 12, "NAME": "Careco 10", "ADDRESS": "1613 TAYLOR STREET NW", "DIRECTOR": "Dennis Lewis", "PHONE": "882-9544", "BEDS": 6, "LICENSE": "HFD03-0160", "ADDRESS_ID": 258336 }, "geometry": { "type": "Point", "coordinates": [ -77.037675156736171, 38.941041475736768 ] } },
{ "type": "Feature", "properties": { "OBJECTID": 12, "ID": 13, "NAME": "Careco 11", "ADDRESS": "4501 GRANT STREET NE", "DIRECTOR": "Dennis Lewis", "PHONE": "397-4303", "BEDS": 8, "LICENSE": "HFD03-0159", "ADDRESS_ID": 20650 }, "geometry": { "type": "Point", "coordinates": [ -76.93749135412466, 38.898126321414694 ] } },
{ "type": "Feature", "properties": { "OBJECTID": 13, "ID": 14, "NAME": "Chrysallis, Inc.", "ADDRESS": "3765 1ST STREET SE", "DIRECTOR": "Ilene T. Wilson", "PHONE": "882-2808", "BEDS": 6, "LICENSE": "HFD03-0146", "ADDRESS_ID": 30804 }, "geometry": { "type": "Point", "coordinates": [ -77.006202014339962, 38.834916976967698 ] } },
{ "type": "Feature", "properties": { "OBJECTID": 14, "ID": 15, "NAME": "Comm. Multi Svcs.", "ADDRESS": "6300 9TH STREET NW", "DIRECTOR": "Hollis Reese", "PHONE": "244-7641", "BEDS": 6, "LICENSE": "HFD03-0083", "ADDRESS_ID": 254166 }, "geometry": { "type": "Point", "coordinates": [ -77.026250691330802, 38.966356036862436 ] } },
{ "type": "Feature", "properties": { "OBJECTID": 15, "ID": 16, "NAME": "Comm. Multi Svcs.", "ADDRESS": "4314 9TH STREET NW", "DIRECTOR": "Hollis Reese", "PHONE": "882-3489", "BEDS": 8, "LICENSE": "HFD03-0052", "ADDRESS_ID": 252426 }, "geometry": { "type": "Point", "coordinates": [ -77.025379969122255, 38.943367940087477 ] } },
{ "type": "Feature", "properties": { "OBJECTID": 16, "ID": 17, "NAME": "Comm. Multi Svcs.", "ADDRESS": "5610 1ST STREET NW", "DIRECTOR": "Hollis Reese", "PHONE": "291-3899", "BEDS": 4, "LICENSE": "HFD03-0044", "ADDRESS_ID": 245762 }, "geometry": { "type": "Point", "coordinates": [ -77.011861656644683, 38.958097542271155 ] } },
{ "type": "Feature", "properties": { "OBJECTID": 17, "ID": 18, "NAME": "Comm. Multi Svcs.", "ADDRESS": "2836 MYRTLE AVENUE NE", "DIRECTOR": "Hollis Reese", "PHONE": "635-6207", "BEDS": 4, "LICENSE": "HFD03-0226", "ADDRESS_ID": 44069 }, "geometry": { "type": "Point", "coordinates": [ -76.965413978512046, 38.931912609631546 ] } },
{ "type": "Feature", "properties": { "OBJECTID": 18, "ID": 19, "NAME": "Comm. Multi Svcs.", "ADDRESS": "1608 EVARTS STREET NE", "DIRECTOR": "Hollis Reese", "PHONE": "529-5310", "BEDS": 4, "LICENSE": "HFD03-0200", "ADDRESS_ID": 60199 }, "geometry": { "type": "Point", "coordinates": [ -76.981566230517259, 38.924702145125444 ] } },
{ "type": "Feature", "properties": { "OBJECTID": 19, "ID": 20, "NAME": "Comm. Multi Svcs.", "ADDRESS": "703 RANDOLPH STREET NW", "DIRECTOR": "Hollis Reese", "PHONE": "723-3619", "BEDS": 8, "LICENSE": "HFD03-0085", "ADDRESS_ID": 249624 }, "geometry": { "type": "Point", "coordinates": [ -77.021741343489907, 38.938962267590981 ] } },
{ "type": "Feature", "properties": { "OBJECTID": 20, "ID": 21, "NAME": "Comm. Multi Svcs.", "ADDRESS": "3815 ALBEMARLE STREET NW", "DIRECTOR": "Hollis Reese", "PHONE": "244-7716", "BEDS": 8, "LICENSE": "HFD03-0095", "ADDRESS_ID": 222432 }, "geometry": { "type": "Point", "coordinates": [ -77.075384830591048, 38.948116184714749 ] } },
{ "type": "Feature", "properties": { "OBJECTID": 21, "ID": 22, "NAME": "Comm. Multi Svcs.", "ADDRESS": "3112 13TH STREET NW", "DIRECTOR": "Hollis Reese", "PHONE": "667-1748", "BEDS": 8, "LICENSE": "HFD03-0006", "ADDRESS_ID": 231318 }, "geometry": { "type": "Point", "coordinates": [ -77.030051830388373, 38.929079847864429 ] } },
{ "type": "Feature", "properties": { "OBJECTID": 22, "ID": 23, "NAME": "Comp. Care II, Inc.", "ADDRESS": "1329 LONGFELLOW STREET NW", "DIRECTOR": "Rodwell Buckley", "PHONE": "829-6765", "BEDS": 6, "LICENSE": "HFD03-0127", "ADDRESS_ID": 259575 }, "geometry": { "type": "Point", "coordinates": [ -77.031304324769224, 38.957498686876789 ] } },
{ "type": "Feature", "properties": { "OBJECTID": 23, "ID": 24, "NAME": "Comp. Care II, Inc.", "ADDRESS": "1000 NEWTON STREET NE", "DIRECTOR": "Rodwell Buckley", "PHONE": "269-5687", "BEDS": 4, "LICENSE": "HFD03-0128", "ADDRESS_ID": 76149 }, "geometry": { "type": "Point", "coordinates": [ -76.992552475991701, 38.933628616907441 ] } },
{ "type": "Feature", "properties": { "OBJECTID": 24, "ID": 25, "NAME": "Comp. Care II, Inc.", "ADDRESS": "3605 10TH STREET NE", "DIRECTOR": "Rodwell Buckley", "PHONE": "269-3312", "BEDS": 4, "LICENSE": "HFD03-0129", "ADDRESS_ID": 32960 }, "geometry": { "type": "Point", "coordinates": [ -76.992563769746752, 38.933716899009838 ] } },
{ "type": "Feature", "properties": { "OBJECTID": 25, "ID": 26, "NAME": "Comp. Care II, Inc.", "ADDRESS": "1321 EMERSON STREET NW", "DIRECTOR": "Rodwell Buckley", "PHONE": "291-2173", "BEDS": 6, "LICENSE": "HFD03-0134", "ADDRESS_ID": 255087 }, "geometry": { "type": "Point", "coordinates": [ -77.031747669693431, 38.949921170753427 ] } },
{ "type": "Feature", "properties": { "OBJECTID": 26, "ID": 27, "NAME": "DC Health Care, Inc.", "ADDRESS": "901 14TH STREET SE", "DIRECTOR": "Gracy Stephen", "PHONE": "546-8932", "BEDS": 8, "LICENSE": "HFD03-0080", "ADDRESS_ID": 151195 }, "geometry": { "type": "Point", "coordinates": [ -76.985747983099543, 38.879937414189911 ] } },
{ "type": "Feature", "properties": { "OBJECTID": 27, "ID": 28, "NAME": "DC Health Care, Inc.", "ADDRESS": "47 QUINCY PLACE NW", "DIRECTOR": "Gracy Stephen", "PHONE": "234-3054", "BEDS": 8, "LICENSE": "HFD03-0028", "ADDRESS_ID": 226732 }, "geometry": { "type": "Point", "coordinates": [ -77.010818126493703, 38.912033151493091 ] } },
{ "type": "Feature", "properties": { "OBJECTID": 28, "ID": 29, "NAME": "DC Health Care, Inc.", "ADDRESS": "1938 1ST STREET NW", "DIRECTOR": "Gracy Stephen", "PHONE": "234-4351", "BEDS": 8, "LICENSE": "HFD03-0094", "ADDRESS_ID": 227486 }, "geometry": { "type": "Point", "coordinates": [ -77.012413925785751, 38.916763450669656 ] } },
{ "type": "Feature", "properties": { "OBJECTID": 29, "ID": 30, "NAME": "DC Health Care, Inc.", "ADDRESS": "414 N STREET NW", "DIRECTOR": "Gracy Stephen", "PHONE": "639-8726", "BEDS": 8, "LICENSE": "HFD03-0012", "ADDRESS_ID": 237460 }, "geometry": { "type": "Point", "coordinates": [ -77.016778515459393, 38.907076056148497 ] } },
{ "type": "Feature", "properties": { "OBJECTID": 30, "ID": 31, "NAME": "DC Health Care, Inc.", "ADDRESS": "4601 GEORGIA AVENUE NW", "DIRECTOR": "Gracy Stephen", "PHONE": "291-1892", "BEDS": 8, "LICENSE": "HFD03-0019", "ADDRESS_ID": 252194 }, "geometry": { "type": "Point", "coordinates": [ -77.026299479980182, 38.946288673413363 ] } },
{ "type": "Feature", "properties": { "OBJECTID": 31, "ID": 32, "NAME": "DC Health Care, Inc.", "ADDRESS": "1026 8TH STREET NE", "DIRECTOR": "Gracy Stephen", "PHONE": "543-5575", "BEDS": 8, "LICENSE": "HFD03-0060", "ADDRESS_ID": 75277 }, "geometry": { "type": "Point", "coordinates": [ -76.995185448744181, 38.903465623791163 ] } },
{ "type": "Feature", "properties": { "OBJECTID": 32, "ID": 33, "NAME": "DC Health Care, Inc.", "ADDRESS": "426 Q STREET NW", "DIRECTOR": "Gracy Stephen", "PHONE": "667-9720", "BEDS": 8, "LICENSE": "HFD03-0081", "ADDRESS_ID": 237401 }, "geometry": { "type": "Point", "coordinates": [ -77.017626985332228, 38.910958978662102 ] } },
{ "type": "Feature", "properties": { "OBJECTID": 33, "ID": 34, "NAME": "DC Health Care, Inc.", "ADDRESS": "248 WALNUT STREET NW", "DIRECTOR": "Gracy Stephen", "PHONE": "882-4157", "BEDS": 8, "LICENSE": "HFD03-0150", "ADDRESS_ID": 245224 }, "geometry": { "type": "Point", "coordinates": [ -77.014459178975926, 38.971493328459772 ] } },
{ "type": "Feature", "properties": { "OBJECTID": 34, "ID": 35, "NAME": "DC Health Care, Inc.", "ADDRESS": "6917 MAPLE STREET NW", "DIRECTOR": "Gracy Stephen", "PHONE": "722-9878", "BEDS": 7, "LICENSE": "HFD03-0153", "ADDRESS_ID": 300113 }, "geometry": { "type": "Point", "coordinates": [ -77.015710144168878, 38.973313461404516 ] } },
{ "type": "Feature", "properties": { "OBJECTID": 35, "ID": 36, "NAME": "DC Health Care, Inc.", "ADDRESS": "4919 NORTH CAPITOL STREET NE", "DIRECTOR": "Gracy Stephen", "PHONE": "635-2581", "BEDS": 6, "LICENSE": "HFD03-0187", "ADDRESS_ID": 16203 }, "geometry": { "type": "Point", "coordinates": [ -77.00850141519048, 38.950082817650994 ] } },
{ "type": "Feature", "properties": { "OBJECTID": 36, "ID": 37, "NAME": "DC Health Care, Inc.", "ADDRESS": "903 14TH STREET SE", "DIRECTOR": "Gracy Stephen", "PHONE": "659-5588", "BEDS": 5, "LICENSE": "HFD03-0080", "ADDRESS_ID": 148457 }, "geometry": { "type": "Point", "coordinates": [ -76.985745457056311, 38.879890119822321 ] } },
{ "type": "Feature", "properties": { "OBJECTID": 37, "ID": 38, "NAME": "HRDI of DC LLC", "ADDRESS": "7419 16TH STREET NW", "DIRECTOR": "Victor Sutton", "PHONE": "882-8551", "BEDS": 8, "LICENSE": "HFD03-0221", "ADDRESS_ID": 256241 }, "geometry": { "type": "Point", "coordinates": [ -77.035981489155333, 38.980104879086475 ] } },
{ "type": "Feature", "properties": { "OBJECTID": 38, "ID": 39, "NAME": "HRDI of DC LLC", "ADDRESS": "505 57TH STREET NE", "DIRECTOR": "Victor Sutton", "PHONE": "396-6503", "BEDS": 8, "LICENSE": "HFD03-0217", "ADDRESS_ID": 14215 }, "geometry": { "type": "Point", "coordinates": [ -76.918733183404171, 38.896184645549411 ] } },
{ "type": "Feature", "properties": { "OBJECTID": 39, "ID": 40, "NAME": "HRDI of DC LLC", "ADDRESS": "3513 ALTON PLACE NW", "DIRECTOR": "Victor Sutton", "PHONE": "244-8934", "BEDS": 6, "LICENSE": "HFD03-0223", "ADDRESS_ID": 221881 }, "geometry": { "type": "Point", "coordinates": [ -77.067861867870107, 38.947275726935722 ] } },
{ "type": "Feature", "properties": { "OBJECTID": 40, "ID": 41, "NAME": "HRDI of DC LLC", "ADDRESS": "639 ATLANTIC STREET SE", "DIRECTOR": "Victor Sutton", "PHONE": "563-7206", "BEDS": 6, "LICENSE": "HFD03-0216", "ADDRESS_ID": 2247 }, "geometry": { "type": "Point", "coordinates": [ -76.996840162631287, 38.830735280770561 ] } },
{ "type": "Feature", "properties": { "OBJECTID": 41, "ID": 42, "NAME": "HRDI of DC LLC", "ADDRESS": "5310 C STREET SE", "DIRECTOR": "Victor Sutton", "PHONE": "584-3321", "BEDS": 6, "LICENSE": "HFD03-0220", "ADDRESS_ID": 10580 }, "geometry": { "type": "Point", "coordinates": [ -76.925294624769251, 38.884792075701696 ] } },
{ "type": "Feature", "properties": { "OBJECTID": 42, "ID": 43, "NAME": "HRDI of DC LLC", "ADDRESS": "199 CHESAPEAKE STREET SW", "DIRECTOR": "Victor Sutton", "PHONE": "563-2706", "BEDS": 6, "LICENSE": "HFD03-0222", "ADDRESS_ID": 290103 }, "geometry": { "type": "Point", "coordinates": [ -77.013549126630679, 38.828741683706376 ] } },
{ "type": "Feature", "properties": { "OBJECTID": 43, "ID": 44, "NAME": "HRDI of DC LLC", "ADDRESS": "1419 VAN BUREN STREET NW", "DIRECTOR": "Victor Sutton", "PHONE": "839-9011", "BEDS": 6, "LICENSE": "HFD03-0219", "ADDRESS_ID": 259444 }, "geometry": { "type": "Point", "coordinates": [ -77.034286371563255, 38.970130482986498 ] } },
{ "type": "Feature", "properties": { "OBJECTID": 44, "ID": 45, "NAME": "HRDI of DC LLC", "ADDRESS": "3073 VISTA STREET NE", "DIRECTOR": "Victor Sutton", "PHONE": "529-8290", "BEDS": 7, "LICENSE": "HFD03-0224", "ADDRESS_ID": 40899 }, "geometry": { "type": "Point", "coordinates": [ -76.962435523300343, 38.930534680187691 ] } },
{ "type": "Feature", "properties": { "OBJECTID": 45, "ID": 46, "NAME": "IDI", "ADDRESS": "4515 EDSON PLACE NE", "DIRECTOR": "Ron Raghunandan", "PHONE": "396-8117", "BEDS": 8, "LICENSE": "HFD03-0036", "ADDRESS_ID": 20317 }, "geometry": { "type": "Point", "coordinates": [ -76.936621263836145, 38.896529570029678 ] } },
{ "type": "Feature", "properties": { "OBJECTID": 46, "ID": 48, "NAME": "IDI", "ADDRESS": "4954 ASTOR PLACE SE", "DIRECTOR": "Ron Raghunandan", "PHONE": "722-7425", "BEDS": 8, "LICENSE": "HFD03-0048", "ADDRESS_ID": 15698 }, "geometry": { "type": "Point", "coordinates": [ -76.930543376928952, 38.887587824058222 ] } },
{ "type": "Feature", "properties": { "OBJECTID": 47, "ID": 49, "NAME": "IDI", "ADDRESS": "431 53RD STREET SE", "DIRECTOR": "Ron Raghunandan", "PHONE": "722-8430", "BEDS": 8, "LICENSE": "HFD03-0035", "ADDRESS_ID": 23730 }, "geometry": { "type": "Point", "coordinates": [ -76.926954499929749, 38.882488509337357 ] } },
{ "type": "Feature", "properties": { "OBJECTID": 48, "ID": 50, "NAME": "IDI", "ADDRESS": "3020 STANTON ROAD SE", "DIRECTOR": "Ron Raghunandan", "PHONE": "722-8422", "BEDS": 8, "LICENSE": "HFD03-0001", "ADDRESS_ID": 296126 }, "geometry": { "type": "Point", "coordinates": [ -76.984121696359225, 38.854040361787334 ] } },
{ "type": "Feature", "properties": { "OBJECTID": 49, "ID": 51, "NAME": "IDI", "ADDRESS": "1230 CONGRESS STREET SE", "DIRECTOR": "Ron Raghunandan", "PHONE": "561-5224", "BEDS": 8, "LICENSE": "HFD03-0098", "ADDRESS_ID": 70542 }, "geometry": { "type": "Point", "coordinates": [ -76.988857109215857, 38.842039865311996 ] } },
{ "type": "Feature", "properties": { "OBJECTID": 50, "ID": 52, "NAME": "IDI", "ADDRESS": "6520 1ST STREET NW", "DIRECTOR": "Ron Raghunandan", "PHONE": "722-8414", "BEDS": 8, "LICENSE": "HFD03-0033", "ADDRESS_ID": 245456 }, "geometry": { "type": "Point", "coordinates": [ -77.01200154023725, 38.969343790086327 ] } },
{ "type": "Feature", "properties": { "OBJECTID": 51, "ID": 53, "NAME": "IDI", "ADDRESS": "3312 4TH STREET SE", "DIRECTOR": "Ron Raghunandan", "PHONE": "722-8417", "BEDS": 8, "LICENSE": "HFD03-0008", "ADDRESS_ID": 36825 }, "geometry": { "type": "Point", "coordinates": [ -77.000291854293252, 38.841191620456115 ] } },
{ "type": "Feature", "properties": { "OBJECTID": 52, "ID": 54, "NAME": "IDI", "ADDRESS": "2553 36TH STREET SE", "DIRECTOR": "Ron Raghunandan", "PHONE": "583-0030", "BEDS": 5, "LICENSE": "HFD03-0198", "ADDRESS_ID": 46260 }, "geometry": { "type": "Point", "coordinates": [ -76.955304952982033, 38.858190096726808 ] } },
{ "type": "Feature", "properties": { "OBJECTID": 53, "ID": 55, "NAME": "IDI", "ADDRESS": "3112 WALNUT STREET NE", "DIRECTOR": "Ron Raghunandan", "PHONE": "635-4910", "BEDS": 5, "LICENSE": "HFD03-0201", "ADDRESS_ID": 40192 }, "geometry": { "type": "Point", "coordinates": [ -76.961943961749043, 38.930138876157365 ] } },
{ "type": "Feature", "properties": { "OBJECTID": 54, "ID": 56, "NAME": "IDI", "ADDRESS": "6010 DIX STREET NE", "DIRECTOR": "Ron Raghunandan", "PHONE": "398-2671", "BEDS": 8, "LICENSE": "HFD03-0207", "ADDRESS_ID": 5560 }, "geometry": { "type": "Point", "coordinates": [ -76.914373625693287, 38.894694789804987 ] } },
{ "type": "Feature", "properties": { "OBJECTID": 55, "ID": 57, "NAME": "Innovative Life Solns.", "ADDRESS": "3259 O STREET SE", "DIRECTOR": "David Carrington", "PHONE": "583-8317", "BEDS": 6, "LICENSE": "HFD03-0195", "ADDRESS_ID": 37430 }, "geometry": { "type": "Point", "coordinates": [ -76.958880943581434, 38.870051352559187 ] } },
{ "type": "Feature", "properties": { "OBJECTID": 56, "ID": 58, "NAME": "Innovative Life Solns.", "ADDRESS": "114 DIVISION AVENUE NE", "DIRECTOR": "David Carrington", "PHONE": "397-1355", "BEDS": 6, "LICENSE": "HFD03-0203", "ADDRESS_ID": 72897 }, "geometry": { "type": "Point", "coordinates": [ -76.928215241871101, 38.891327957002773 ] } },
{ "type": "Feature", "properties": { "OBJECTID": 57, "ID": 59, "NAME": "Innovative Life Solns.", "ADDRESS": "7416 BLAIR ROAD NW", "DIRECTOR": "David Carrington", "PHONE": "291-4381", "BEDS": 6, "LICENSE": "HFD03-0206", "ADDRESS_ID": 251104 }, "geometry": { "type": "Point", "coordinates": [ -77.022703767429661, 38.979843008410455 ] } },
{ "type": "Feature", "properties": { "OBJECTID": 58, "ID": 60, "NAME": "Marjul Homes", "ADDRESS": "4910 ARKANSAS AVENUE NW", "DIRECTOR": "Marshall Gahagan", "PHONE": "829-8107", "BEDS": 6, "LICENSE": "HFD03-0130", "ADDRESS_ID": 252862 }, "geometry": { "type": "Point", "coordinates": [ -77.02875523131874, 38.950351639930552 ] } },
{ "type": "Feature", "properties": { "OBJECTID": 59, "ID": 61, "NAME": "Marjul Homes", "ADDRESS": "6634 EASTERN AVENUE NW", "DIRECTOR": "Marshall Gahagan", "PHONE": "726-0172", "BEDS": 6, "LICENSE": "HFD03-0185", "ADDRESS_ID": 243513 }, "geometry": { "type": "Point", "coordinates": [ -77.009518021562428, 38.970938026785653 ] } },
{ "type": "Feature", "properties": { "OBJECTID": 60, "ID": 62, "NAME": "Metro Homes", "ADDRESS": "5701 14TH STREET NW", "DIRECTOR": "Maxwell Asenso", "PHONE": "829-1707", "BEDS": 6, "LICENSE": "HFD03-0227", "ADDRESS_ID": 257833 }, "geometry": { "type": "Point", "coordinates": [ -77.033052027545423, 38.958525057709863 ] } },
{ "type": "Feature", "properties": { "OBJECTID": 61, "ID": 63, "NAME": "Metro Homes", "ADDRESS": "5701 13TH STREET NW", "DIRECTOR": "Maxwell Asenso", "PHONE": "882-2593", "BEDS": 6, "LICENSE": "HFD03-0185", "ADDRESS_ID": 253109 }, "geometry": { "type": "Point", "coordinates": [ -77.029449175936932, 38.958558990979235 ] } },
{ "type": "Feature", "properties": { "OBJECTID": 62, "ID": 64, "NAME": "Metro Homes", "ADDRESS": "5721 13TH STREET NW", "DIRECTOR": "Maxwell Asenso", "PHONE": "882-3974", "BEDS": 6, "LICENSE": "HFD03-0184", "ADDRESS_ID": 253114 }, "geometry": { "type": "Point", "coordinates": [ -77.029394606759709, 38.959128146646073 ] } },
{ "type": "Feature", "properties": { "OBJECTID": 63, "ID": 65, "NAME": "Metro Homes", "ADDRESS": "7425 8TH STREET NW", "DIRECTOR": "Maxwell Asenso", "PHONE": "882-4071", "BEDS": 6, "LICENSE": "HFD03-0182", "ADDRESS_ID": 251065 }, "geometry": { "type": "Point", "coordinates": [ -77.024192118253495, 38.980548864546222 ] } },
{ "type": "Feature", "properties": { "OBJECTID": 64, "ID": 66, "NAME": "Metro Homes", "ADDRESS": "8020 EASTERN AVENUE NW", "DIRECTOR": "Maxwell Asenso", "PHONE": "829-1707", "BEDS": 6, "LICENSE": "HFD03-0164", "ADDRESS_ID": 256942 }, "geometry": { "type": "Point", "coordinates": [ -77.030464055766032, 38.987233026449381 ] } },
{ "type": "Feature", "properties": { "OBJECTID": 65, "ID": 67, "NAME": "Metro Homes", "ADDRESS": "1433 NORTHGATE ROAD NW", "DIRECTOR": "Maxwell Asenso", "PHONE": "726-3570", "BEDS": 6, "LICENSE": "HFD03-0104", "ADDRESS_ID": 256908 }, "geometry": { "type": "Point", "coordinates": [ -77.034471002533394, 38.989687911836967 ] } },
{ "type": "Feature", "properties": { "OBJECTID": 66, "ID": 68, "NAME": "Metro Homes", "ADDRESS": "2268 SUDBURY ROAD NW", "DIRECTOR": "Maxwell Asenso", "PHONE": "882-4223", "BEDS": 6, "LICENSE": "HFD03-0131", "ADDRESS_ID": 256589 }, "geometry": { "type": "Point", "coordinates": [ -77.046541911047683, 38.990915063082717 ] } },
{ "type": "Feature", "properties": { "OBJECTID": 67, "ID": 69, "NAME": "Metro Homes", "ADDRESS": "4424 20TH STREET NE", "DIRECTOR": "Maxwell Asenso", "PHONE": "636-6651", "BEDS": 7, "LICENSE": "HFD03-0149", "ADDRESS_ID": 21751 }, "geometry": { "type": "Point", "coordinates": [ -76.976492113963729, 38.943802712054861 ] } },
{ "type": "Feature", "properties": { "OBJECTID": 68, "ID": 71, "NAME": "MTS", "ADDRESS": "39 PEABODY STREET NE", "DIRECTOR": "Bentley Hamilton", "PHONE": "726-9707", "BEDS": 6, "LICENSE": "HFD03-0180", "ADDRESS_ID": 288028 }, "geometry": { "type": "Point", "coordinates": [ -77.006715387262503, 38.962549922379694 ] } },
{ "type": "Feature", "properties": { "OBJECTID": 69, "ID": 72, "NAME": "MTS", "ADDRESS": "6023 CLAY STREET NE", "DIRECTOR": "Bentley Hamilton", "PHONE": "388-0143", "BEDS": 6, "LICENSE": "HFD03-0032", "ADDRESS_ID": 5465 }, "geometry": { "type": "Point", "coordinates": [ -76.913969028939547, 38.892686165545882 ] } },
{ "type": "Feature", "properties": { "OBJECTID": 70, "ID": 73, "NAME": "MTS", "ADDRESS": "1044 45TH STREET NE", "DIRECTOR": "Bentley Hamilton", "PHONE": "397-2206", "BEDS": 5, "LICENSE": "HFD03-0057", "ADDRESS_ID": 74857 }, "geometry": { "type": "Point", "coordinates": [ -76.937614675796127, 38.904629522538592 ] } },
{ "type": "Feature", "properties": { "OBJECTID": 71, "ID": 74, "NAME": "MTS", "ADDRESS": "6014 32ND STREET NW", "DIRECTOR": "Bentley Hamilton", "PHONE": "686-5744", "BEDS": 4, "LICENSE": "HFD03-0109", "ADDRESS_ID": 262247 }, "geometry": { "type": "Point", "coordinates": [ -77.064143716555662, 38.969288798098852 ] } },
{ "type": "Feature", "properties": { "OBJECTID": 72, "ID": 75, "NAME": "MTS", "ADDRESS": "2852 NORTHAMPTON STREET NW", "DIRECTOR": "Bentley Hamilton", "PHONE": "966-0735", "BEDS": 5, "LICENSE": "HFD03-0140", "ADDRESS_ID": 259872 }, "geometry": { "type": "Point", "coordinates": [ -77.05871717578502, 38.965903917487609 ] } },
{ "type": "Feature", "properties": { "OBJECTID": 73, "ID": 76, "NAME": "MTS", "ADDRESS": "1528 GOOD HOPE ROAD SE", "DIRECTOR": "Bentley Hamilton", "PHONE": "678-8633", "BEDS": 6, "LICENSE": "HFD03-0038", "ADDRESS_ID": 286302 }, "geometry": { "type": "Point", "coordinates": [ -76.982766133067443, 38.866569353590641 ] } },
{ "type": "Feature", "properties": { "OBJECTID": 74, "ID": 77, "NAME": "MTS", "ADDRESS": "4012 LEE STREET NE", "DIRECTOR": "Bentley Hamilton", "PHONE": "726-0800", "BEDS": 4, "LICENSE": "HFD03-0138", "ADDRESS_ID": 28018 }, "geometry": { "type": "Point", "coordinates": [ -76.94589228477372, 38.904995785037578 ] } },
{ "type": "Feature", "properties": { "OBJECTID": 75, "ID": 78, "NAME": "My Own Place", "ADDRESS": "121 TUCKERMAN STREET NE", "DIRECTOR": "Kim Scott Hopkins", "PHONE": "636-2650", "BEDS": 8, "LICENSE": "HFD03-0102", "ADDRESS_ID": 71818 }, "geometry": { "type": "Point", "coordinates": [ -77.006028900611497, 38.967148130885285 ] } },
{ "type": "Feature", "properties": { "OBJECTID": 76, "ID": 79, "NAME": "My Own Place", "ADDRESS": "4141 ANACOSTIA AVENUE NE", "DIRECTOR": "Kim Scott Hopkins", "PHONE": "583-2044", "BEDS": 4, "LICENSE": "HFD03-0010", "ADDRESS_ID": 26217 }, "geometry": { "type": "Point", "coordinates": [ -76.94373277120286, 38.906477269601055 ] } },
{ "type": "Feature", "properties": { "OBJECTID": 77, "ID": 80, "NAME": "My Own Place", "ADDRESS": "3215 20TH STREET NE", "DIRECTOR": "Kim Scott Hopkins", "PHONE": "636-2950", "BEDS": 6, "LICENSE": "HFD03-0151", "ADDRESS_ID": 38382 }, "geometry": { "type": "Point", "coordinates": [ -76.975860601542038, 38.930725957009145 ] } },
{ "type": "Feature", "properties": { "OBJECTID": 78, "ID": 81, "NAME": "NCC", "ADDRESS": "6200 2ND STREET NW", "DIRECTOR": "Andre Crownwell", "PHONE": "722-2300", "BEDS": 45, "LICENSE": "HFD03-0021", "ADDRESS_ID": 245006 }, "geometry": { "type": "Point", "coordinates": [ -77.014457502443619, 38.965505639334935 ] } },
{ "type": "Feature", "properties": { "OBJECTID": 79, "ID": 82, "NAME": "NCC", "ADDRESS": "617 DAHLIA STREET NW", "DIRECTOR": "Andre Crownwell", "PHONE": "882-1303", "BEDS": 7, "LICENSE": "HFD03-0156", "ADDRESS_ID": 250955 }, "geometry": { "type": "Point", "coordinates": [ -77.021339487920116, 38.975974682442136 ] } },
{ "type": "Feature", "properties": { "OBJECTID": 80, "ID": 83, "NAME": "RCM of Wash. Inc.", "ADDRESS": "1307 45TH PLACE SE", "DIRECTOR": "Amy Brooks, Pres.", "PHONE": "584-0163", "BEDS": 4, "LICENSE": "HFD03-0179", "ADDRESS_ID": 68559 }, "geometry": { "type": "Point", "coordinates": [ -76.93507733354808, 38.874525830513768 ] } },
{ "type": "Feature", "properties": { "OBJECTID": 81, "ID": 84, "NAME": "RCM of Wash. Inc.", "ADDRESS": "1131 45TH PLACE SE", "DIRECTOR": "Amy Brooks, Pres.", "PHONE": "584-7001", "BEDS": 6, "LICENSE": "HFD03-0046", "ADDRESS_ID": 73172 }, "geometry": { "type": "Point", "coordinates": [ -76.935807865667627, 38.877449640462572 ] } },
{ "type": "Feature", "properties": { "OBJECTID": 82, "ID": 85, "NAME": "RCM of Wash. Inc.", "ADDRESS": "1318 45TH PLACE NE", "DIRECTOR": "Amy Brooks, Pres.", "PHONE": "483-9560", "BEDS": 6, "LICENSE": "HFD03-0173", "ADDRESS_ID": 68038 }, "geometry": { "type": "Point", "coordinates": [ -76.939327482322639, 38.907791095007404 ] } },
{ "type": "Feature", "properties": { "OBJECTID": 83, "ID": 86, "NAME": "RCM of Wash. Inc.", "ADDRESS": "1326 45TH PLACE NE", "DIRECTOR": "Amy Brooks, Pres.", "PHONE": "398-2554", "BEDS": 6, "LICENSE": "HFD03-0142", "ADDRESS_ID": 67384 }, "geometry": { "type": "Point", "coordinates": [ -76.939327969273137, 38.90803188844059 ] } },
{ "type": "Feature", "properties": { "OBJECTID": 84, "ID": 87, "NAME": "RCM of Wash. Inc.", "ADDRESS": "4316 ALABAMA AVENUE SE", "DIRECTOR": "Amy Brooks, Pres.", "PHONE": "582-5153", "BEDS": 5, "LICENSE": "HFD03-0178", "ADDRESS_ID": 23703 }, "geometry": { "type": "Point", "coordinates": [ -76.937487170177292, 38.873432624292434 ] } },
{ "type": "Feature", "properties": { "OBJECTID": 85, "ID": 88, "NAME": "RCM of Wash. Inc.", "ADDRESS": "249 11TH STREET SE", "DIRECTOR": "Amy Brooks, Pres.", "PHONE": "544-0460", "BEDS": 4, "LICENSE": "HFD03-0175", "ADDRESS_ID": 46819 }, "geometry": { "type": "Point", "coordinates": [ -76.991797504415928, 38.886321969355613 ] } },
{ "type": "Feature", "properties": { "OBJECTID": 86, "ID": 89, "NAME": "RHD", "ADDRESS": "615 55TH STREET NE", "DIRECTOR": "Gregory Richardson", "PHONE": "396-6423", "BEDS": 8, "LICENSE": "HFD03-0213", "ADDRESS_ID": 4364 }, "geometry": { "type": "Point", "coordinates": [ -76.921508136275378, 38.897621395952612 ] } },
{ "type": "Feature", "properties": { "OBJECTID": 87, "ID": 90, "NAME": "RHD", "ADDRESS": "401 56TH STREET NE", "DIRECTOR": "Gregory Richardson", "PHONE": "398-7661", "BEDS": 6, "LICENSE": "HFD03-0215", "ADDRESS_ID": 28136 }, "geometry": { "type": "Point", "coordinates": [ -76.920235238359126, 38.894834605330246 ] } },
{ "type": "Feature", "properties": { "OBJECTID": 88, "ID": 91, "NAME": "RHD", "ADDRESS": "4513 BUTTERWORTH PLACE NW", "DIRECTOR": "Gregory Richardson", "PHONE": "362-2234", "BEDS": 6, "LICENSE": "HFD03-0214", "ADDRESS_ID": 267543 }, "geometry": { "type": "Point", "coordinates": [ -77.089313239818807, 38.949030983222492 ] } },
{ "type": "Feature", "properties": { "OBJECTID": 89, "ID": 92, "NAME": "RHD", "ADDRESS": "4308 E STREET SE", "DIRECTOR": "Gregory Richardson", "PHONE": "584-2457", "BEDS": 8, "LICENSE": "HFD03-0208", "ADDRESS_ID": 23908 }, "geometry": { "type": "Point", "coordinates": [ -76.941177997636274, 38.883418727430538 ] } },
{ "type": "Feature", "properties": { "OBJECTID": 90, "ID": 93, "NAME": "RHD", "ADDRESS": "2820 HARTFORD STREET SE", "DIRECTOR": "Gregory Richardson", "PHONE": "678-0871", "BEDS": 8, "LICENSE": "HFD03-0210", "ADDRESS_ID": 44306 }, "geometry": { "type": "Point", "coordinates": [ -76.968594625385407, 38.854710507950742 ] } },
{ "type": "Feature", "properties": { "OBJECTID": 91, "ID": 94, "NAME": "RHD", "ADDRESS": "2510 R STREET SE", "DIRECTOR": "Gregory Richardson", "PHONE": "582-7557", "BEDS": 6, "LICENSE": "HFD03-0211", "ADDRESS_ID": 46410 }, "geometry": { "type": "Point", "coordinates": [ -76.970223402348964, 38.86973364571007 ] } },
{ "type": "Feature", "properties": { "OBJECTID": 92, "ID": 95, "NAME": "RHD", "ADDRESS": "1639 ROXANNA ROAD NW", "DIRECTOR": "Gregory Richardson", "PHONE": "882-6707", "BEDS": 6, "LICENSE": "HFD03-0209", "ADDRESS_ID": 256838 }, "geometry": { "type": "Point", "coordinates": [ -77.038287004291504, 38.989654926014367 ] } },
{ "type": "Feature", "properties": { "OBJECTID": 93, "ID": 96, "NAME": "RHD", "ADDRESS": "210 VAN BUREN STREET NW", "DIRECTOR": "Gregory Richardson", "PHONE": "575-4893", "BEDS": 7, "LICENSE": "HFD03-0212", "ADDRESS_ID": 245447 }, "geometry": { "type": "Point", "coordinates": [ -77.013661219230428, 38.969764472989539 ] } },
{ "type": "Feature", "properties": { "OBJECTID": 94, "ID": 97, "NAME": "St. Johns", "ADDRESS": "5518 SHERIER PLACE NW", "DIRECTOR": "Tom Wilds", "PHONE": "363-2017", "BEDS": 4, "LICENSE": "HFD03-0103", "ADDRESS_ID": 268934 }, "geometry": { "type": "Point", "coordinates": [ -77.108643403635639, 38.930026920655223 ] } },
{ "type": "Feature", "properties": { "OBJECTID": 95, "ID": 98, "NAME": "St. Johns", "ADDRESS": "1508 PORTAL DRIVE NW", "DIRECTOR": "Tom Wilds", "PHONE": "882-3371", "BEDS": 4, "LICENSE": "HFD03-0112", "ADDRESS_ID": 256933 }, "geometry": { "type": "Point", "coordinates": [ -77.035202692084255, 38.990616710026842 ] } },
{ "type": "Feature", "properties": { "OBJECTID": 96, "ID": 99, "NAME": "St. Johns", "ADDRESS": "2715 13TH STREET NE", "DIRECTOR": "Tom Wilds", "PHONE": "269-4729", "BEDS": 4, "LICENSE": "HFD03-0124", "ADDRESS_ID": 45172 }, "geometry": { "type": "Point", "coordinates": [ -76.987746826828342, 38.925169317170592 ] } },
{ "type": "Feature", "properties": { "OBJECTID": 97, "ID": 100, "NAME": "St. Johns", "ADDRESS": "3012 MILITARY ROAD NW", "DIRECTOR": "Tom Wilds", "PHONE": "244-4533", "BEDS": 4, "LICENSE": "HFD03-0193", "ADDRESS_ID": 261355 }, "geometry": { "type": "Point", "coordinates": [ -77.060432826089425, 38.960795543209564 ] } },
{ "type": "Feature", "properties": { "OBJECTID": 98, "ID": 101, "NAME": "St. Johns", "ADDRESS": "4815 CHESAPEAKE STREET NW", "DIRECTOR": "Tom Wilds", "PHONE": "237-6036", "BEDS": 5, "LICENSE": "HFD03-0163", "ADDRESS_ID": 269434 }, "geometry": { "type": "Point", "coordinates": [ -77.095257953368588, 38.951211789356577 ] } },
{ "type": "Feature", "properties": { "OBJECTID": 99, "ID": 102, "NAME": "St. Johns", "ADDRESS": "3010 CHESTNUT STREET NW", "DIRECTOR": "Tom Wilds", "PHONE": "364-8595", "BEDS": 6, "LICENSE": "HFD03-0162", "ADDRESS_ID": 261333 }, "geometry": { "type": "Point", "coordinates": [ -77.052804825258789, 38.979512688359193 ] } },
{ "type": "Feature", "properties": { "OBJECTID": 100, "ID": 103, "NAME": "Symbral", "ADDRESS": "4422 20TH STREET NE", "DIRECTOR": "Yvonne Muhammed", "PHONE": "529-7516", "BEDS": 5, "LICENSE": "HFD03-0167", "ADDRESS_ID": 21697 }, "geometry": { "type": "Point", "coordinates": [ -76.976466779674695, 38.943671456210453 ] } },
{ "type": "Feature", "properties": { "OBJECTID": 101, "ID": 104, "NAME": "Symbral", "ADDRESS": "722 L STREET NE", "DIRECTOR": "Yvonne Muhammed", "PHONE": "543-7376", "BEDS": 4, "LICENSE": "HFD03-0005", "ADDRESS_ID": 77815 }, "geometry": { "type": "Point", "coordinates": [ -76.995418876337325, 38.903928302251295 ] } },
{ "type": "Feature", "properties": { "OBJECTID": 102, "ID": 105, "NAME": "Symbral", "ADDRESS": "521 KENNEDY STREET NE", "DIRECTOR": "Yvonne Muhammed", "PHONE": "526-7347", "BEDS": 5, "LICENSE": "HFD03-0039", "ADDRESS_ID": 11696 }, "geometry": { "type": "Point", "coordinates": [ -76.998579495773242, 38.956575919237217 ] } },
{ "type": "Feature", "properties": { "OBJECTID": 103, "ID": 106, "NAME": "Westview Medical I", "ADDRESS": "3200 12TH STREET NE", "DIRECTOR": "Dr. Fred West", "PHONE": "832-9425", "BEDS": 8, "LICENSE": "HFD03-0093", "ADDRESS_ID": 39021 }, "geometry": { "type": "Point", "coordinates": [ -76.990992579986312, 38.929755925679792 ] } },
{ "type": "Feature", "properties": { "OBJECTID": 104, "ID": 107, "NAME": "Westview Medical II", "ADDRESS": "74 W STREET NW", "DIRECTOR": "Dr. Fred West", "PHONE": "332-1707", "BEDS": 6, "LICENSE": "HFD03-0202", "ADDRESS_ID": 227733 }, "geometry": { "type": "Point", "coordinates": [ -77.01156698592267, 38.918998504531281 ] } },
{ "type": "Feature", "properties": { "OBJECTID": 105, "ID": 108, "NAME": "Wholistic Hab. Svcs.", "ADDRESS": "6627 1ST STREET NW", "DIRECTOR": "Ilara Thomas", "PHONE": "723-3049", "BEDS": 6, "LICENSE": "HFD03-0136", "ADDRESS_ID": 245305 }, "geometry": { "type": "Point", "coordinates": [ -77.011351923964824, 38.971122892335529 ] } },
{ "type": "Feature", "properties": { "OBJECTID": 106, "ID": 109, "NAME": "Wholistic Hab. Svcs.", "ADDRESS": "7129 7TH STREET NW", "DIRECTOR": "Ilara Thomas", "PHONE": "882-4793", "BEDS": 6, "LICENSE": "HFD03-0137", "ADDRESS_ID": 250938 }, "geometry": { "type": "Point", "coordinates": [ -77.022677690464235, 38.976562127479504 ] } },
{ "type": "Feature", "properties": { "OBJECTID": 107, "ID": 110, "NAME": "Wholistic Hab. Svcs.", "ADDRESS": "1601 8TH STREET NW", "DIRECTOR": "Ilara Thomas", "PHONE": "387-2441", "BEDS": 4, "LICENSE": "HFD03-0176", "ADDRESS_ID": 225802 }, "geometry": { "type": "Point", "coordinates": [ -77.02269369894087, 38.911274207080979 ] } },
{ "type": "Feature", "properties": { "OBJECTID": 108, "ID": 111, "NAME": "Wholistic Hab. Svcs.", "ADDRESS": "1814 BUNKER HILL ROAD NE", "DIRECTOR": "Ilara Thomas", "PHONE": "635-9321", "BEDS": 6, "LICENSE": "HFD03-0070", "ADDRESS_ID": 55708 }, "geometry": { "type": "Point", "coordinates": [ -76.979262027832249, 38.941207497608225 ] } },
{ "type": "Feature", "properties": { "OBJECTID": 109, "ID": 112, "NAME": "Wholistic Hab. Svcs.", "ADDRESS": "1600 FRANKLIN STREET NE", "DIRECTOR": "IlaraThomas", "PHONE": "526-4009", "BEDS": 5, "LICENSE": "HFD03-0172", "ADDRESS_ID": 286328 }, "geometry": { "type": "Point", "coordinates": [ -76.981343496082374, 38.925766802993934 ] } },
{ "type": "Feature", "properties": { "OBJECTID": 110, "ID": 113, "NAME": "Wholistic Hab. Svcs.", "ADDRESS": "1226 LAWRENCE STREET NE", "DIRECTOR": "Ilara Thomas", "PHONE": "832-8339", "BEDS": 6, "LICENSE": "HFD03-0009", "ADDRESS_ID": 70763 }, "geometry": { "type": "Point", "coordinates": [ -76.989536688981786, 38.931871045546664 ] } },
{ "type": "Feature", "properties": { "OBJECTID": 111, "ID": 114, "NAME": "Wholistic Hab. Svcs.", "ADDRESS": "78 53RD PLACE SE", "DIRECTOR": "Ilara Thomas", "PHONE": "462-1745", "BEDS": 6, "LICENSE": "HFD03-0147", "ADDRESS_ID": 288948 }, "geometry": { "type": "Point", "coordinates": [ -76.924123158766676, 38.887166741808606 ] } },
{ "type": "Feature", "properties": { "OBJECTID": 112, "ID": 115, "NAME": "Wholistic Hab. Svcs.", "ADDRESS": "7533 12TH STREET NW", "DIRECTOR": "Ilara Thomas", "PHONE": "291-6224", "BEDS": 6, "LICENSE": "HFD03-0174", "ADDRESS_ID": 253555 }, "geometry": { "type": "Point", "coordinates": [ -77.027557648046098, 38.981722701825667 ] } },
{ "type": "Feature", "properties": { "OBJECTID": 113, "ID": 116, "NAME": "Wholistic Hab. Svcs", "ADDRESS": "1314 PERRY STREET NE", "DIRECTOR": "Ilara Thomas", "PHONE": "526-4009", "BEDS": 5, "LICENSE": "HFD03-0177", "ADDRESS_ID": 68067 }, "geometry": { "type": "Point", "coordinates": [ -76.987912139936412, 38.936407650752123 ] } },
{ "type": "Feature", "properties": { "OBJECTID": 114, "ID": 70, "NAME": "MTS", "ADDRESS": " ", "DIRECTOR": "Bentley Hamilton", "PHONE": "396-4013", "BEDS": 8, "LICENSE": "HFD03-0181", "ADDRESS_ID": 0 }, "geometry": { "type": "Point", "coordinates": [ -76.938273353760863, 38.901691265182322 ] } }
]
}
