{"type":"FeatureCollection","features":[{"type":"Feature","properties":{"OBJECTID":1,"ADDRESS":"MASSACHUSETTS AVE & 23RD ST NW","NAME":"PHILIP JAISOHN (STATUE)","ADDRID":"223114"},"geometry":{"type":"Point","coordinates":[-77.05451682809516,38.91478738824927]}},{"type":"Feature","properties":{"OBJECTID":2,"ADDRESS":"3001 R ST NW","NAME":"VAN NESS MAUSOLEUM","ADDRID":"261707"},"geometry":{"type":"Point","coordinates":[-77.05904247604586,38.91290797088439]}},{"type":"Feature","properties":{"OBJECTID":3,"ADDRESS":"2700 F ST NW","NAME":"JOHN F. KENNEDY CENTER FOR THE PERFORMING ARTS","ADDRID":"293227"},"geometry":{"type":"Point","coordinates":[-77.0557184462483,38.8959192822561]}},{"type":"Feature","properties":{"OBJECTID":4,"ADDRESS":"201 ALLISON ST NW","NAME":"EDWIN B. HAY","ADDRID":"284159"},"geometry":{"type":"Point","coordinates":[-77.01348798554768,38.94585242071215]}},{"type":"Feature","properties":{"OBJECTID":5,"ADDRESS":"WEST EXECUTIVE AVE & 17TH ST NW","NAME":"FIRST DIVISION MONUMENT","ADDRID":"293211"},"geometry":{"type":"Point","coordinates":[-77.0360860662714,38.896986428641036]}},{"type":"Feature","properties":{"OBJECTID":6,"ADDRESS":"3100 MASSACHUSETTS AVE NW","NAME":"KAHLIL GIBRAN (KRAY)","ADDRID":"284577"},"geometry":{"type":"Point","coordinates":[-77.06135051486487,38.92049713818621]}},{"type":"Feature","properties":{"OBJECTID":7,"ADDRESS":"1 FIRST ST NE","NAME":"CHIEF JUSTICE JOHN MARSHALL","ADDRID":"293185"},"geometry":{"type":"Point","coordinates":[-77.01756421357716,38.89333200004859]}},{"type":"Feature","properties":{"OBJECTID":8,"ADDRESS":"NEW HAMPSHIRE AVE & VIRGINA AVE NW","NAME":"BENITO JUAREZ (STATUE)","ADDRID":"300836"},"geometry":{"type":"Point","coordinates":[-77.05360761242878,38.89880334625022]}},{"type":"Feature","properties":{"OBJECTID":9,"ADDRESS":"3501 NEW YORK AVE NE","NAME":"NATIONAL CAPITOL COLUMNS","ADDRID":"293238"},"geometry":{"type":"Point","coordinates":[-76.96751408670956,38.910283871558555]}},{"type":"Feature","properties":{"OBJECTID":10,"ADDRESS":"2101 CONSTITUTION AVE NW","NAME":"ALBERT EINSTEIN MEMORIAL","ADDRID":"242716"},"geometry":{"type":"Point","coordinates":[-77.04846188843628,38.892421263473764]}},{"type":"Feature","properties":{"OBJECTID":11,"ADDRESS":"1717 COLUMBIA RD NW","NAME":"THE SERVANT CHRIST","ADDRID":"235976"},"geometry":{"type":"Point","coordinates":[-77.0400560711969,38.92478529129855]}},{"type":"Feature","properties":{"OBJECTID":12,"ADDRESS":"1350 PENNSYLVANIA AVE NW","NAME":"ALEXANDER ROBEY SHEPHERD (DUNBAR)","ADDRID":"293203"},"geometry":{"type":"Point","coordinates":[-77.03166761548498,38.895293783914155]}},{"type":"Feature","properties":{"OBJECTID":13,"ADDRESS":"FREEDOM PLAZA (13TH ST AND PENNSYLVANIA AVE NW)","NAME":"GENERAL CASIMIR PULASKI (STATUE)","ADDRID":"307053"},"geometry":{"type":"Point","coordinates":[-77.02997183522957,38.89587817987364]}},{"type":"Feature","properties":{"OBJECTID":14,"ADDRESS":"2343 MASSACHUSETTS AVE NW","NAME":"ST. JEROME THE PRIEST (MEŠTROVIC)","ADDRID":"218995"},"geometry":{"type":"Point","coordinates":[-77.05225768992933,38.913497366094546]}},{"type":"Feature","properties":{"OBJECTID":15,"ADDRESS":"1226 VERMONT AVE NW","NAME":"MARTIN LUTHER (RIETSCHEL)","ADDRID":"240613"},"geometry":{"type":"Point","coordinates":[-77.0316968869893,38.90656567835271]}},{"type":"Feature","properties":{"OBJECTID":16,"ADDRESS":"701 PENNSYLVANIA AVE NW","NAME":"UNITED STATES NAVY MEMORIAL PLAZA","ADDRID":"279889"},"geometry":{"type":"Point","coordinates":[-77.02294440984153,38.8941288844123]}},{"type":"Feature","properties":{"OBJECTID":17,"ADDRESS":"600 PENNSYLVANIA AVE NW","NAME":"MAN CONTROLLING TRADE","ADDRID":"238718"},"geometry":{"type":"Point","coordinates":[-77.0205357991668,38.89266953248524]}},{"type":"Feature","properties":{"OBJECTID":18,"ADDRESS":"1300 PENNSYLVANIA AVE NW","NAME":"OSCAR STRAUS MEMORIAL","ADDRID":"293198"},"geometry":{"type":"Point","coordinates":[-77.03161529209676,38.89383642586184]}},{"type":"Feature","properties":{"OBJECTID":19,"ADDRESS":"400 MICHIGAN AVE NE","NAME":"MARY, PROTECTOR OF FAITH (RUSSO)","ADDRID":"291632"},"geometry":{"type":"Point","coordinates":[-77.0013765080655,38.934313584216845]}},{"type":"Feature","properties":{"OBJECTID":20,"ADDRESS":"UNION STATION (COLUMBUS CIRCLE)","NAME":"AMERICAN LEGION FREEDOM BELL","ADDRID":"293243"},"geometry":{"type":"Point","coordinates":[-77.00653024652934,38.89656615515582]}},{"type":"Feature","properties":{"OBJECTID":21,"ADDRESS":"101 INDEPENDENCE AVE SE","NAME":"THE COURT OF NEPTUNE FOUNTAIN","ADDRID":"277868"},"geometry":{"type":"Point","coordinates":[-77.00576734589883,38.888695045507255]}},{"type":"Feature","properties":{"OBJECTID":22,"ADDRESS":"1000 JEFFERSON DR SW","NAME":"PROFESSOR JOSEPH HENRY","ADDRID":"293187"},"geometry":{"type":"Point","coordinates":[-77.02597671102974,38.8891593509945]}},{"type":"Feature","properties":{"OBJECTID":23,"ADDRESS":"140 ROCK CREED CHURCH RD NW","NAME":"PRESIDENT LINCOLN'S COTTAGE AT THE SOLDIERS' HOME","ADDRID":"292866"},"geometry":{"type":"Point","coordinates":[-77.01173428140702,38.94170710430903]}},{"type":"Feature","properties":{"OBJECTID":24,"ADDRESS":"LOGAN CIRCLE","NAME":"MAJOR GENERAL JOHN A. LOGAN","ADDRID":"294285"},"geometry":{"type":"Point","coordinates":[-77.02961953344902,38.90965165011359]}},{"type":"Feature","properties":{"OBJECTID":25,"ADDRESS":"MASSACHUSETTS AVE & 16TH ST NW","NAME":"SAMUEL HAHNEMANN MONUMENT","ADDRID":"294297"},"geometry":{"type":"Point","coordinates":[-77.03572602001454,38.90724484881328]}},{"type":"Feature","properties":{"OBJECTID":26,"ADDRESS":"CONSTITUTION GARDENS","NAME":"MEMORIAL TO THE 56 SIGNERS OF THE DECLARATION OF INDEPENDENCE","ADDRID":"294227"},"geometry":{"type":"Point","coordinates":[-77.0428712038706,38.89109488963679]}},{"type":"Feature","properties":{"OBJECTID":27,"ADDRESS":"22ND & P ST NW","NAME":"TARAS SHEVCHENKO MEMORIAL","ADDRID":"294342"},"geometry":{"type":"Point","coordinates":[-77.04897133852795,38.91006709230391]}},{"type":"Feature","properties":{"OBJECTID":28,"ADDRESS":"MASSACHUSETTS AVE & 24RD ST NW","NAME":"ROBERT EMMET (CONNOR)","ADDRID":"294201"},"geometry":{"type":"Point","coordinates":[-77.05272051848304,38.91389396111584]}},{"type":"Feature","properties":{"OBJECTID":29,"ADDRESS":"SHERIDAN CIRCLE NW","NAME":"GENERAL PHILIP SHERIDAN","ADDRID":"294344"},"geometry":{"type":"Point","coordinates":[-77.05064602469828,38.91215998046821]}},{"type":"Feature","properties":{"OBJECTID":30,"ADDRESS":"WASHINGTON CIRCLE","NAME":"LIEUTENANT GENERAL GEORGE WASHINGTON","ADDRID":"294277"},"geometry":{"type":"Point","coordinates":[-77.05011447516131,38.90253639149048]}},{"type":"Feature","properties":{"OBJECTID":31,"ADDRESS":"SCOTT CIRCLE","NAME":"BREVET LT. GENERAL WINFIELD SCOTT","ADDRID":"294182"},"geometry":{"type":"Point","coordinates":[-77.03653342182761,38.907245319790235]}},{"type":"Feature","properties":{"OBJECTID":32,"ADDRESS":"DUPONT CIRCLE NW","NAME":"DUPONT CIRCLE FOUNTAIN","ADDRID":"294226"},"geometry":{"type":"Point","coordinates":[-77.0434358251007,38.90965239046696]}},{"type":"Feature","properties":{"OBJECTID":33,"ADDRESS":"FRANKLIN SQUARE (14TH & K ST NW)","NAME":"COMMODORE JOHN BARRY (BOYLE)","ADDRID":"302945"},"geometry":{"type":"Point","coordinates":[-77.03077452327801,38.90199896790968]}},{"type":"Feature","properties":{"OBJECTID":34,"ADDRESS":"MCPHERSON SQUARE","NAME":"MAJOR GENERAL JAMES B. MCPHERSON","ADDRID":"294178"},"geometry":{"type":"Point","coordinates":[-77.03412150934165,38.901955432317564]}},{"type":"Feature","properties":{"OBJECTID":35,"ADDRESS":"FARRAGUT SQUARE","NAME":"ADMIRAL DAVID G. FARRAGUT","ADDRID":"294186"},"geometry":{"type":"Point","coordinates":[-77.0389573208164,38.90193979465511]}},{"type":"Feature","properties":{"OBJECTID":36,"ADDRESS":"LAFAYETTE SQUARE","NAME":"JACKSON STATUE","ADDRID":"302944"},"geometry":{"type":"Point","coordinates":[-77.03655103273756,38.899516985710704]}},{"type":"Feature","properties":{"OBJECTID":37,"ADDRESS":"PENNSYLVANIA AVE & 15TH ST NW","NAME":"THE EXTRA MILE","ADDRID":"294195"},"geometry":{"type":"Point","coordinates":[-77.03357766696324,38.896433387302494]}},{"type":"Feature","properties":{"OBJECTID":38,"ADDRESS":"E EXECUTIVE AVE & STATE PLACE NW","NAME":"BOY SCOUTS OF AMERICA MEMORIAL","ADDRID":"294230"},"geometry":{"type":"Point","coordinates":[-77.0342480772618,38.89385159597623]}},{"type":"Feature","properties":{"OBJECTID":39,"ADDRESS":"2400 15TH ST NW","NAME":"DANTE ALIGHIERI (XIMENES)","ADDRID":"294183"},"geometry":{"type":"Point","coordinates":[-77.03496667345438,38.92021332774801]}},{"type":"Feature","properties":{"OBJECTID":40,"ADDRESS":"GEORGE WASHINGTON MEMORIAL PARKWAY","NAME":"NAVY – MERCHANT MARINE MEMORIAL","ADDRID":"294415"},"geometry":{"type":"Point","coordinates":[-77.04725090111135,38.87628230575873]}},{"type":"Feature","properties":{"OBJECTID":41,"ADDRESS":"(US CAPITOL) 1ST ST SE & EAST CAPITOL ST NE","NAME":"JAMES A. GARFIELD MONUMENT","ADDRID":"294394"},"geometry":{"type":"Point","coordinates":[-77.01231966318745,38.88900078781168]}},{"type":"Feature","properties":{"OBJECTID":42,"ADDRESS":"2 15TH ST NW","NAME":"WASHINGTON MONUMENT","ADDRID":"294406"},"geometry":{"type":"Point","coordinates":[-77.03522783044863,38.88946969709221]}},{"type":"Feature","properties":{"OBJECTID":43,"ADDRESS":"5 HENRY BACON DR NW","NAME":"THE THREE SOLDIERS","ADDRID":"294271"},"geometry":{"type":"Point","coordinates":[-77.04827995708906,38.890542594422364]}},{"type":"Feature","properties":{"OBJECTID":44,"ADDRESS":"600 INDEPENDENCE AVE SW","NAME":"CONTINUUM (SCULPTURE)","ADDRID":"277762"},"geometry":{"type":"Point","coordinates":[-77.01986444319961,38.887769169439174]}},{"type":"Feature","properties":{"OBJECTID":45,"ADDRESS":"1900 INDEPENDENCE AVE SW","NAME":"DISTRICT OF COLUMBIA WAR MEMORIAL","ADDRID":"310141"},"geometry":{"type":"Point","coordinates":[-77.04348398963317,38.88759304609358]}},{"type":"Feature","properties":{"OBJECTID":46,"ADDRESS":"THOMAS CIRCLE","NAME":"MAJOR GENERAL GEORGE HENRY THOMAS","ADDRID":"310386"},"geometry":{"type":"Point","coordinates":[-77.03195928464311,38.905657047111525]}},{"type":"Feature","properties":{"OBJECTID":47,"ADDRESS":"WARD CIRCLE (NEBRASKA AVE & MASSACHUSETTS AVE NW)","NAME":"GENERAL ARTEMAS WARD","ADDRID":"310387"},"geometry":{"type":"Point","coordinates":[-77.08589919922706,38.93792291400912]}},{"type":"Feature","properties":{"OBJECTID":48,"ADDRESS":"14TH STREET BRIDGE","NAME":"CUBAN FRIENDSHIP URN","ADDRID":"300874"},"geometry":{"type":"Point","coordinates":[-77.03825880064451,38.87855324021861]}},{"type":"Feature","properties":{"OBJECTID":49,"ADDRESS":"RAWLINS PARK","NAME":"GENERAL JOHN A. RAWLINS","ADDRID":"311026"},"geometry":{"type":"Point","coordinates":[-77.04200252121858,38.895698162556435]}},{"type":"Feature","properties":{"OBJECTID":50,"ADDRESS":"487 MICHIGAN AVE NE","NAME":"SAINT MARTIN DE PORRES (SCULPTURE)","ADDRID":"288291"},"geometry":{"type":"Point","coordinates":[-76.99852656251417,38.9314211611331]}},{"type":"Feature","properties":{"OBJECTID":51,"ADDRESS":"2219 LINCOLN RD NE","NAME":"BENJAMIN C. GRENUP MONUMENT","ADDRID":"305047"},"geometry":{"type":"Point","coordinates":[-77.00657882442472,38.920050968266516]}},{"type":"Feature","properties":{"OBJECTID":52,"ADDRESS":"1362 NEW HAMPSHIRE AVE NW","NAME":"SONNY BONO MEMORIAL PARK","ADDRID":"311608"},"geometry":{"type":"Point","coordinates":[-77.04474219520534,38.90848940008638]}},{"type":"Feature","properties":{"OBJECTID":53,"ADDRESS":"ALEXANDER HAMILTON PL NW","NAME":"ALEXANDER HAMILTON (FRASER)","ADDRID":"294176"},"geometry":{"type":"Point","coordinates":[-77.03429164186244,38.89666171944123]}},{"type":"Feature","properties":{"OBJECTID":54,"ADDRESS":"1750 INDEPENDENCE AVE SW","NAME":"WORLD WAR II MEMORIAL","ADDRID":"294407"},"geometry":{"type":"Point","coordinates":[-77.0405228605643,38.88939555268632]}},{"type":"Feature","properties":{"OBJECTID":55,"ADDRESS":"ALEXANDER HAMILTON PL NW","NAME":"GENERAL WILLIAM TECUMSEH SHERMAN MONUMENT","ADDRID":"294176"},"geometry":{"type":"Point","coordinates":[-77.03429794821407,38.89599910266334]}},{"type":"Feature","properties":{"OBJECTID":56,"ADDRESS":"400 MICHIGAN AVE NE","NAME":"SAINT MOTHER THÉODORE GUÉRIN (CLARK)","ADDRID":"291632"},"geometry":{"type":"Point","coordinates":[-77.00118511152762,38.934461932352036]}},{"type":"Feature","properties":{"OBJECTID":57,"ADDRESS":"1300 PENNSYLVANIA AVE NW","NAME":"WOODROW WILSON INTERNATIONAL CENTER FOR SCHOLARS","ADDRID":"293198"},"geometry":{"type":"Point","coordinates":[-77.03005519142074,38.89350482969325]}},{"type":"Feature","properties":{"OBJECTID":58,"ADDRESS":"5 HENRY BACON DR NW","NAME":"THEODORE ROOSEVELT ISLAND","ADDRID":"294271"},"geometry":{"type":"Point","coordinates":[-77.06283233171777,38.89618449653722]}},{"type":"Feature","properties":{"OBJECTID":59,"ADDRESS":"5 HENRY BACON DR NW","NAME":"VIETNAM WOMEN'S WAR MEMORIAL","ADDRID":"294271"},"geometry":{"type":"Point","coordinates":[-77.04703839974341,38.89028343635447]}},{"type":"Feature","properties":{"OBJECTID":60,"ADDRESS":"5 HENRY BACON DR NW","NAME":"VIETNAM VETERANS WAR MEMORIAL","ADDRID":"294271"},"geometry":{"type":"Point","coordinates":[-77.04771438874293,38.89124452077155]}},{"type":"Feature","properties":{"OBJECTID":61,"ADDRESS":"UNION STATION (COLUMBUS CIRCLE)","NAME":"THE PROGRESS OF RAILROADING","ADDRID":"293243"},"geometry":{"type":"Point","coordinates":[-77.00637097166317,38.89708492599075]}},{"type":"Feature","properties":{"OBJECTID":62,"ADDRESS":"2400 15TH ST NW","NAME":"JAMES BUCHANAN MEMORIAL","ADDRID":"294183"},"geometry":{"type":"Point","coordinates":[-77.0351296257091,38.920267145068685]}},{"type":"Feature","properties":{"OBJECTID":63,"ADDRESS":"2400 15TH ST NW","NAME":"SERENITY (CLARA)","ADDRID":"294183"},"geometry":{"type":"Point","coordinates":[-77.03605650608812,38.921008817385975]}},{"type":"Feature","properties":{"OBJECTID":64,"ADDRESS":"2400 15TH ST NW","NAME":"JOAN OF ARC MEMORIAL","ADDRID":"294183"},"geometry":{"type":"Point","coordinates":[-77.03570804944275,38.920710236199604]}},{"type":"Feature","properties":{"OBJECTID":65,"ADDRESS":"E EXECUTIVE AVE & STATE PLACE NW","NAME":"SECOND INFANTRY DIVISION MEMORIAL","ADDRID":"294230"},"geometry":{"type":"Point","coordinates":[-77.0379448533821,38.89260542450606]}},{"type":"Feature","properties":{"OBJECTID":66,"ADDRESS":"E EXECUTIVE AVE & STATE PLACE NW","NAME":"ZERO MILESTONE","ADDRID":"294230"},"geometry":{"type":"Point","coordinates":[-77.03657871015959,38.89511666803995]}},{"type":"Feature","properties":{"OBJECTID":67,"ADDRESS":"E EXECUTIVE AVE & STATE PLACE NW","NAME":"BUTT-MILLET MEMORIAL FOUNTAIN","ADDRID":"294230"},"geometry":{"type":"Point","coordinates":[-77.03743336640805,38.89527571298275]}},{"type":"Feature","properties":{"OBJECTID":68,"ADDRESS":"(US CAPITOL) 1ST ST SE & EAST CAPITOL ST NE","NAME":"ULYSSES S. GRANT MEMORIAL","ADDRID":"294394"},"geometry":{"type":"Point","coordinates":[-77.01289064597125,38.88978405774301]}},{"type":"Feature","properties":{"OBJECTID":69,"ADDRESS":"(US CAPITOL) 1ST ST SE & EAST CAPITOL ST NE","NAME":"PEACE MONUMENT","ADDRID":"294394"},"geometry":{"type":"Point","coordinates":[-77.01230667192102,38.89064526563673]}},{"type":"Feature","properties":{"OBJECTID":70,"ADDRESS":"14TH STREET BRIDGE","NAME":"GEORGE MASON MEMORIAL","ADDRID":"300874"},"geometry":{"type":"Point","coordinates":[-77.0391753735795,38.879583028215336]}},{"type":"Feature","properties":{"OBJECTID":71,"ADDRESS":"14TH STREET BRIDGE","NAME":"KOREAN WAR VETERANS MEMORIAL","ADDRID":"300874"},"geometry":{"type":"Point","coordinates":[-77.04766700203854,38.8877871713776]}},{"type":"Feature","properties":{"OBJECTID":72,"ADDRESS":"LAFAYETTE SQUARE","NAME":"MAJOR GENERAL MARQUIS GILBERT DE LAFAYETTE","ADDRID":"302944"},"geometry":{"type":"Point","coordinates":[-77.03537779187609,38.89901010496247]}},{"type":"Feature","properties":{"OBJECTID":73,"ADDRESS":"LAFAYETTE SQUARE","NAME":"MAJOR GENERAL COMTE JEAN DE ROCHAMBEAU","ADDRID":"302944"},"geometry":{"type":"Point","coordinates":[-77.03771714360207,38.899009413600005]}},{"type":"Feature","properties":{"OBJECTID":74,"ADDRESS":"LAFAYETTE SQUARE","NAME":"MAJOR GENERAL FRIEDRICH WILHELM VON STREUBEN","ADDRID":"302944"},"geometry":{"type":"Point","coordinates":[-77.0377079160333,38.90001809997073]}},{"type":"Feature","properties":{"OBJECTID":75,"ADDRESS":"LAFAYETTE SQUARE","NAME":"BRIGADIER GENERAL THADDEUS KOSCIUSZKO","ADDRID":"302944"},"geometry":{"type":"Point","coordinates":[-77.03537758203612,38.90001882894492]}},{"type":"Feature","properties":{"OBJECTID":76,"ADDRESS":"2219 LINCOLN RD NE","NAME":"TERESINA VASCO MONUMENT","ADDRID":"305047"},"geometry":{"type":"Point","coordinates":[-77.00657882442472,38.920050968266516]}},{"type":"Feature","properties":{"OBJECTID":77,"ADDRESS":"2219 LINCOLN RD NE","NAME":"VICTOR S. BLUNDON MONUMENT","ADDRID":"305047"},"geometry":{"type":"Point","coordinates":[-77.00657882442472,38.920050968266516]}},{"type":"Feature","properties":{"OBJECTID":78,"ADDRESS":"1964 INDEPENDENCE AVE SW","NAME":"MARTIN LUTHER KING, JR. MEMORIAL","ADDRID":"310141"},"geometry":{"type":"Point","coordinates":[-77.04423318307471,38.886223231223475]}},{"type":"Feature","properties":{"OBJECTID":79,"ADDRESS":"1850 WEST BASIN DR SW","NAME":"FRANKLIN DELANO ROOSEVELT MEMORIAL","ADDRID":"310141"},"geometry":{"type":"Point","coordinates":[-77.04408071443602,38.88397961904199]}},{"type":"Feature","properties":{"OBJECTID":80,"ADDRESS":"701 E BASIN DR SW","NAME":"LINCOLN MEMORIAL","ADDRID":"308233"},"geometry":{"type":"Point","coordinates":[-77.05018389318994,38.88929091200698]}},{"type":"Feature","properties":{"OBJECTID":81,"ADDRESS":"2 15TH ST NW","NAME":"JEFFERSON PIER STONE","ADDRID":"294406"},"geometry":{"type":"Point","coordinates":[-77.03476301756315,38.889117078183574]}},{"type":"Feature","properties":{"OBJECTID":82,"ADDRESS":"MASSACHUSETTS AVE & 16TH ST NW","NAME":"TRAVIS RAUH MEMORIAL","ADDRID":"294297"},"geometry":{"type":"Point","coordinates":[-77.03729291804488,38.90725473406924]}},{"type":"Feature","properties":{"OBJECTID":83,"ADDRESS":"50 MASSACHUSETTS AVE NE","NAME":"COLUMBUS FOUNTAIN","ADDRID":"293243"},"geometry":{"type":"Point","coordinates":[-77.00658757322677,38.896413609671896]}},{"type":"Feature","properties":{"OBJECTID":84,"ADDRESS":"ALUMNI SQUARE","NAME":"VACLÁV HAVEL'S PLACE","ADDRID":"291453"},"geometry":{"type":"Point","coordinates":[-77.07094415175533,38.907324035477814]}},{"type":"Feature","properties":{"OBJECTID":85,"ADDRESS":"201 ALLISON ST NW","NAME":"FREDERICK KEEP MONUMENT","ADDRID":"284159"},"geometry":{"type":"Point","coordinates":[-77.01178908141276,38.946825141315585]}},{"type":"Feature","properties":{"OBJECTID":86,"ADDRESS":"201 ALLISON ST NW","NAME":"GOFF MEMORIAL","ADDRID":"284159"},"geometry":{"type":"Point","coordinates":[-77.01348798554768,38.94585242071215]}},{"type":"Feature","properties":{"OBJECTID":87,"ADDRESS":"201 ALLISON ST NW","NAME":"HEURICH MAUSOLEUM","ADDRID":"284159"},"geometry":{"type":"Point","coordinates":[-77.01113961662433,38.94634588333054]}},{"type":"Feature","properties":{"OBJECTID":88,"ADDRESS":"201 ALLISON ST NW","NAME":"HOUSER MEMORIAL","ADDRID":"284159"},"geometry":{"type":"Point","coordinates":[-77.01348798554768,38.94585242071215]}},{"type":"Feature","properties":{"OBJECTID":89,"ADDRESS":"201 ALLISON ST NW","NAME":"HUBBARD BELL GORSSMAN PILOT MEMORIAL","ADDRID":"284159"},"geometry":{"type":"Point","coordinates":[-77.01348798554768,38.94585242071215]}},{"type":"Feature","properties":{"OBJECTID":90,"ADDRESS":"201 ALLISON ST NW","NAME":"JOHNSON MEMORIAL","ADDRID":"284159"},"geometry":{"type":"Point","coordinates":[-77.01348798554768,38.94585242071215]}},{"type":"Feature","properties":{"OBJECTID":91,"ADDRESS":"201 ALLISON ST NW","NAME":"KAUFFMAN MEMORIAL","ADDRID":"284159"},"geometry":{"type":"Point","coordinates":[-77.01348798554768,38.94585242071215]}},{"type":"Feature","properties":{"OBJECTID":92,"ADDRESS":"201 ALLISON ST NW","NAME":"PETER FORCE","ADDRID":"284159"},"geometry":{"type":"Point","coordinates":[-77.01348798554768,38.94585242071215]}},{"type":"Feature","properties":{"OBJECTID":93,"ADDRESS":"201 ALLISON ST NW","NAME":"RABBONI-FFOULKE MEMORIAL (SCULPTURE)","ADDRID":"284159"},"geometry":{"type":"Point","coordinates":[-77.01113992388927,38.94831179648004]}},{"type":"Feature","properties":{"OBJECTID":94,"ADDRESS":"201 ALLISON ST NW","NAME":"SPENCER MEMORIAL","ADDRID":"284159"},"geometry":{"type":"Point","coordinates":[-77.01348798554768,38.94585242071215]}},{"type":"Feature","properties":{"OBJECTID":95,"ADDRESS":"201 ALLISON ST NW","NAME":"WAITE MEMORIAL","ADDRID":"284159"},"geometry":{"type":"Point","coordinates":[-77.01348798554768,38.94585242071215]}},{"type":"Feature","properties":{"OBJECTID":96,"ADDRESS":"201 ALLISON ST NW","NAME":"SIMON MEMORIAL","ADDRID":"284159"},"geometry":{"type":"Point","coordinates":[-77.01348798554768,38.94585242071215]}},{"type":"Feature","properties":{"OBJECTID":97,"ADDRESS":"201 ALLISON ST NW","NAME":"ADAMS MEMORIAL (SAINT-GAUDENS)","ADDRID":"284159"},"geometry":{"type":"Point","coordinates":[-77.01034805059173,38.94738101306896]}},{"type":"Feature","properties":{"OBJECTID":98,"ADDRESS":"201 ALLISON ST NW","NAME":"HITT MEMORIAL","ADDRID":"284159"},"geometry":{"type":"Point","coordinates":[-77.01348798554768,38.94585242071215]}},{"type":"Feature","properties":{"OBJECTID":99,"ADDRESS":"16TH & MT PLEASANT ST NW","NAME":"FRANCIS ASBURY (LUKEMAN)","ADDRID":"900578"},"geometry":{"type":"Point","coordinates":[-77.03671078378434,38.927696132572414]}},{"type":"Feature","properties":{"OBJECTID":100,"ADDRESS":"E & 17TH STS NW","NAME":"ARMENIAN EARTHQUAKE (SOGOYAN)","ADDRID":"904501"},"geometry":{"type":"Point","coordinates":[-77.0397634141301,38.89529372729706]}},{"type":"Feature","properties":{"OBJECTID":101,"ADDRESS":"CONNECTICUT AVE & N ST NW","NAME":"DOCTOR JOHN WITHERSPOON","ADDRID":"903713"},"geometry":{"type":"Point","coordinates":[-77.04208333492478,38.90731120697286]}},{"type":"Feature","properties":{"OBJECTID":102,"ADDRESS":"13TH & EAST CAPITOL ST NE","NAME":"EMANCIPATION MEMORIAL","ADDRID":"903605"},"geometry":{"type":"Point","coordinates":[-76.98918792312585,38.889830781106866]}},{"type":"Feature","properties":{"OBJECTID":103,"ADDRESS":"INDEPENDENCE AVE & 17TH ST SW","NAME":"JOHN PAUL JONES MEMORIAL","ADDRID":"906965"},"geometry":{"type":"Point","coordinates":[-77.03947469823684,38.888240648283954]}},{"type":"Feature","properties":{"OBJECTID":104,"ADDRESS":"2ND ST AND WASHINGTON AVE SW","NAME":"AMERICAN VETERANS DISABLED FOR LIFE MEMORIAL","ADDRID":"904664"},"geometry":{"type":"Point","coordinates":[-77.0131181359777,38.88615395181017]}},{"type":"Feature","properties":{"OBJECTID":105,"ADDRESS":"NORTH CAROLINA AVE & 6TH ST SE","NAME":"OLIVE RISLEY SEWARD (CAVANAUGH)","ADDRID":"903205"},"geometry":{"type":"Point","coordinates":[-76.99821776466933,38.886387027438865]}},{"type":"Feature","properties":{"OBJECTID":106,"ADDRESS":"RHODE ISLAND AVE & M ST NW","NAME":"NUNS OF THE BATTLEFIELD","ADDRID":"908214"},"geometry":{"type":"Point","coordinates":[-77.04023738742238,38.905797663494845]}},{"type":"Feature","properties":{"OBJECTID":107,"ADDRESS":"PENNSYLVANIA AVE & 14TH ST NW","NAME":"JOHN J. PERSHING GENERAL OF THE ARMIES","ADDRID":"902090"},"geometry":{"type":"Point","coordinates":[-77.03243185495921,38.895883075516345]}},{"type":"Feature","properties":{"OBJECTID":108,"ADDRESS":"18TH & C STREET NW","NAME":"EQUESTRIAN OF SIMÓN BOLÍVAR","ADDRID":"904540"},"geometry":{"type":"Point","coordinates":[-77.0420232688425,38.893137408753205]}},{"type":"Feature","properties":{"OBJECTID":109,"ADDRESS":"INDEPENDENCE AVE & 1ST ST SW","NAME":"BARTHOLDI FOUNTAIN","ADDRID":"900828"},"geometry":{"type":"Point","coordinates":[-77.0126738288973,38.887147471329165]}},{"type":"Feature","properties":{"OBJECTID":110,"ADDRESS":"23RD ST & OHIO DR SW","NAME":"JOHN ERICSSON NATIONAL MEMORIAL","ADDRID":"900036"},"geometry":{"type":"Point","coordinates":[-77.0501676241773,38.88667237996791]}},{"type":"Feature","properties":{"OBJECTID":111,"ADDRESS":"1ST AVE & P ST SW","NAME":"TITANIC MEMORIAL (WASHINGTON, D.C.)","ADDRID":"902754"},"geometry":{"type":"Point","coordinates":[-77.01931734355888,38.871965724031696]}},{"type":"Feature","properties":{"OBJECTID":112,"ADDRESS":"VIRGINIA AVE & 22ND STREET NW","NAME":"BERNARDO DE GÁLVEZ (STATUE)","ADDRID":"900000"},"geometry":{"type":"Point","coordinates":[-77.04853320113398,38.89568788362816]}},{"type":"Feature","properties":{"OBJECTID":113,"ADDRESS":"CONSTITUTION AVE & 6TH ST NW(PENN QUARTER)","NAME":"ANDREW W. MELLON MEMORIAL FOUNTAIN","ADDRID":"906731"},"geometry":{"type":"Point","coordinates":[-77.01953620027771,38.89233443305204]}},{"type":"Feature","properties":{"OBJECTID":114,"ADDRESS":"4TH & C ST NE","NAME":"MAJOR GENERAL NATHANAEL GREENE (BROWN)","ADDRID":"901225"},"geometry":{"type":"Point","coordinates":[-76.99950788447676,38.89358376874983]}},{"type":"Feature","properties":{"OBJECTID":115,"ADDRESS":"4TH & E ST NW","NAME":"NATIONAL LAW ENFORCEMENT OFFICERS MEMORIAL","ADDRID":"900823"},"geometry":{"type":"Point","coordinates":[-77.01748712466114,38.89666513137949]}},{"type":"Feature","properties":{"OBJECTID":116,"ADDRESS":"NEW JERSEY AVE & G ST NW","NAME":"VICTIMS OF COMMUNISM MEMORIAL","ADDRID":"903933"},"geometry":{"type":"Point","coordinates":[-77.0120840769324,38.89852600471515]}},{"type":"Feature","properties":{"OBJECTID":117,"ADDRESS":"PENNSYLVANIA AVE & 7TH ST NW","NAME":"GENERAL WINFIELD SCOTT HANCOCK (ELLICOTT)","ADDRID":"901849"},"geometry":{"type":"Point","coordinates":[-77.02221737132767,38.89374743580571]}},{"type":"Feature","properties":{"OBJECTID":118,"ADDRESS":"12TH ST AND PENNSYLVANIA AVE NW","NAME":"BENJAMIN FRANKLIN (JOUVENAL)","ADDRID":"902459"},"geometry":{"type":"Point","coordinates":[-77.02784052256938,38.89466032098242]}},{"type":"Feature","properties":{"OBJECTID":119,"ADDRESS":"CONNECTICUT AVE & CALIFORNIA ST NW","NAME":"MAJOR GENERAL GEORGE B. MCCLELLAN","ADDRID":"900380"},"geometry":{"type":"Point","coordinates":[-77.04650877445494,38.916700887641525]}},{"type":"Feature","properties":{"OBJECTID":120,"ADDRESS":"WISCONSIN AVE & M STREET NW","NAME":"CHESAPEAKE AND OHIO CANAL COMMEMORATIVE OBELISK","ADDRID":"905660"},"geometry":{"type":"Point","coordinates":[-77.06290089834644,38.904356065506654]}},{"type":"Feature","properties":{"OBJECTID":121,"ADDRESS":"12TH & EAST CAPITOL ST NE","NAME":"MARY MCLEOD BETHUNE MEMORIAL","ADDRID":"900293"},"geometry":{"type":"Point","coordinates":[-76.99024450002344,38.8898130861696]}},{"type":"Feature","properties":{"OBJECTID":122,"ADDRESS":"16TH ST & PARK RD NW","NAME":"JAMES CARDINAL GIBBONS MEMORIAL STATUE","ADDRID":"904050"},"geometry":{"type":"Point","coordinates":[-77.03619548654491,38.93139682775786]}},{"type":"Feature","properties":{"OBJECTID":123,"ADDRESS":"MASSACHUSETTS AVE & 11TH ST NW","NAME":"EDMUND BURKE (THOMAS)","ADDRID":"900386"},"geometry":{"type":"Point","coordinates":[-77.0274413547776,38.90388853628851]}},{"type":"Feature","properties":{"OBJECTID":124,"ADDRESS":"NEW JERSEY AVE & D ST NW","NAME":"MEMORIAL TO JAPANESE-AMERICAN PATRIOTISM IN WORLD WAR II","ADDRID":"900806"},"geometry":{"type":"Point","coordinates":[-77.01047749351726,38.894523515884]}},{"type":"Feature","properties":{"OBJECTID":125,"ADDRESS":"10TH ST & U ST NW","NAME":"AFRICAN AMERICAN CIVIL WAR MEMORIAL","ADDRID":"903437"},"geometry":{"type":"Point","coordinates":[-77.02596555522771,38.91654182607902]}},{"type":"Feature","properties":{"OBJECTID":126,"ADDRESS":"37TH & O STREET NW","NAME":"BISHOP JOHN CARROLL (STATUE)","ADDRID":"900692"},"geometry":{"type":"Point","coordinates":[-77.07225235611817,38.907615325050834]}},{"type":"Feature","properties":{"OBJECTID":127,"ADDRESS":"NEW JERSEY AVE & CONSTITUTION AVE NW","NAME":"ROBERT A. TAFT MEMORIAL","ADDRID":"904286"},"geometry":{"type":"Point","coordinates":[-77.01097799645251,38.89273971614744]}},{"type":"Feature","properties":{"OBJECTID":128,"ADDRESS":"CONSTITUTION AVE & 18TH ST NW","NAME":"GENERAL JOSÉ GERVASIO ARTIGAS","ADDRID":"905005"},"geometry":{"type":"Point","coordinates":[-77.04148422973493,38.89232033932949]}},{"type":"Feature","properties":{"OBJECTID":129,"ADDRESS":"PENNSYLVANIA AVE & 3RD ST NW","NAME":"GEORGE GORDON MEADE MEMORIAL","ADDRID":"903472"},"geometry":{"type":"Point","coordinates":[-77.01571015058744,38.89120769887484]}},{"type":"Feature","properties":{"OBJECTID":130,"ADDRESS":"10TH ST & CONSTITUTION AVE NW","NAME":"CAPTAIN NATHAN HALE (STATUE)","ADDRID":"905743"},"geometry":{"type":"Point","coordinates":[-77.02554079610901,38.89230541057193]}},{"type":"Feature","properties":{"OBJECTID":131,"ADDRESS":"VIRGINIA AVE & 20TH STREET NW","NAME":"GENERAL JOSE DE SAN MARTIN MEMORIAL","ADDRID":"901630"},"geometry":{"type":"Point","coordinates":[-77.04523985444916,38.89502637335386]}},{"type":"Feature","properties":{"OBJECTID":132,"ADDRESS":"OHIO DR & E BASIN DR SW","NAME":"LYNDON BAINES JOHNSON MEMORIAL GROVE ON THE POTOMAC","ADDRID":"906930"},"geometry":{"type":"Point","coordinates":[-77.05100012904488,38.87821943755542]}},{"type":"Feature","properties":{"OBJECTID":133,"ADDRESS":"MASSACHUSETTS AVE & L ST NW","NAME":"SAMUEL GOMPERS MEMORIAL","ADDRID":"900385"},"geometry":{"type":"Point","coordinates":[-77.02650896283431,38.90401720891688]}},{"type":"Feature","properties":{"OBJECTID":134,"ADDRESS":"PENNSYLVANIA AVE & 14TH ST NW","NAME":"WORLD WAR I MEMORIAL","ADDRID":"902090"},"geometry":{"type":"Point","coordinates":[-77.03264956738096,38.89605690248037]}},{"type":"Feature","properties":{"OBJECTID":135,"ADDRESS":"PENNSYLVANIA AVE & 7TH ST NW","NAME":"GRAND ARMY OF THE REPUBLIC MEMORIAL (STEPHENSON)","ADDRID":"901849"},"geometry":{"type":"Point","coordinates":[-77.02157353881364,38.89357962244986]}},{"type":"Feature","properties":{"OBJECTID":136,"ADDRESS":"VIRGINIA AVE & 21ST STREET NW","NAME":"DISCUS THROWER (WASHINGTON, D.C.)","ADDRID":"900000"},"geometry":{"type":"Point","coordinates":[-77.04641023908209,38.89487632212439]}},{"type":"Feature","properties":{"OBJECTID":137,"ADDRESS":"CONNECTICUT AVENUE NW & M STREET NW","NAME":"HENRY WADSWORTH LONGFELLOW MEMORIAL","ADDRID":"906262"},"geometry":{"type":"Point","coordinates":[-77.04150119354065,38.90586867653009]}},{"type":"Feature","properties":{"OBJECTID":138,"ADDRESS":"MASSACHUSETTS AVENUE NW & 21ST STREET NW","NAME":"MOHANDAS GANDHI MEMORIAL","ADDRID":"905742"},"geometry":{"type":"Point","coordinates":[-77.04696965964659,38.911028272123154]}},{"type":"Feature","properties":{"OBJECTID":139,"ADDRESS":"3RD STREET NW & D STREET NW","NAME":"BRIGADIER GENERAL ALBERT PIKE","ADDRID":"900054"},"geometry":{"type":"Point","coordinates":[-77.01573082476796,38.89454143597421]}},{"type":"Feature","properties":{"OBJECTID":140,"ADDRESS":"17TH STREET NW & C STREET NW","NAME":"JOSÉ CECILIO DE VALLE STATUE","ADDRID":"904539"},"geometry":{"type":"Point","coordinates":[-77.04033058515157,38.893398273542914]}},{"type":"Feature","properties":{"OBJECTID":141,"ADDRESS":"EAST BASIN DRIVE SW","NAME":"JEFFERSON MEMORIAL","ADDRID":"294411"},"geometry":{"type":"Point","coordinates":[-77.03654320042097,38.881325713574476]}},{"type":"Feature","properties":{"OBJECTID":142,"ADDRESS":"500 F STREET NW","NAME":"ASHES TO ANSWERS","ADDRID":"299998"},"geometry":{"type":"Point","coordinates":[-77.01913677438547,38.89715713488885]}},{"type":"Feature","properties":{"OBJECTID":143,"ADDRESS":"1732 MASSACHUSETTS AVENUE NW","NAME":"BERNARDO O'HIGGINS (MOREL)","ADDRID":"241756"},"geometry":{"type":"Point","coordinates":[-77.03974660474317,38.90814971705753]}},{"type":"Feature","properties":{"OBJECTID":144,"ADDRESS":null,"NAME":"DAGUERRE MEMORIAL","ADDRID":"294248"},"geometry":{"type":"Point","coordinates":[-77.02220131454321,38.89757159627515]}},{"type":"Feature","properties":{"OBJECTID":145,"ADDRESS":"2217 MASSACHUSETTS AVENUE NW","NAME":"ELEFTHERIOS VENIZELOS (SCULPTURE)","ADDRID":"300774"},"geometry":{"type":"Point","coordinates":[-77.04968921781125,38.911977112974895]}},{"type":"Feature","properties":{"OBJECTID":146,"ADDRESS":"2300 4TH STREET NW","NAME":"FORTITUDE (KING)","ADDRID":"291433"},"geometry":{"type":"Point","coordinates":[-77.01876396529312,38.92189957587203]}},{"type":"Feature","properties":{"OBJECTID":147,"ADDRESS":"924 G STREET NW","NAME":"HOMELESS JESUS","ADDRID":"285571"},"geometry":{"type":"Point","coordinates":[-77.0252358052148,38.89820526262791]}},{"type":"Feature","properties":{"OBJECTID":148,"ADDRESS":"1606 23RD STREET NW","NAME":"MUSTAFA KEMAL ATATÜRK (ANAHTAR)","ADDRID":"234878"},"geometry":{"type":"Point","coordinates":[-77.05079996020952,38.91175335364481]}},{"type":"Feature","properties":{"OBJECTID":149,"ADDRESS":"2525 MASSACHUSETTS AVENUE NW","NAME":"MUSTAFA KEMAL ATATÜRK (EMBASSY OF TURKEY, WASHINGTON, D.C.)","ADDRID":"218950"},"geometry":{"type":"Point","coordinates":[-77.05595306766074,38.91646864408974]}},{"type":"Feature","properties":{"OBJECTID":150,"ADDRESS":"3051 MASSACHUSETTS AVENUE NW","NAME":"NELSON MANDELA (DOYLE)","ADDRID":"220389"},"geometry":{"type":"Point","coordinates":[-77.06103176554473,38.91992192420129]}},{"type":"Feature","properties":{"OBJECTID":151,"ADDRESS":"17TH STREET NW","NAME":"QUEEN ISABELLA (SCULPTURE)","ADDRID":"294187"},"geometry":{"type":"Point","coordinates":[-77.03966188411844,38.892866200506724]}},{"type":"Feature","properties":{"OBJECTID":152,"ADDRESS":"2020 MASSACHUSETTS AVENUE NW","NAME":"SARASWATI (SCULPTURE)","ADDRID":"294535"},"geometry":{"type":"Point","coordinates":[-77.04582792407541,38.91029595800071]}},{"type":"Feature","properties":{"OBJECTID":153,"ADDRESS":"1621 22ND STREET NW","NAME":"VASSIL LEVSKY (SCULPTURE)","ADDRID":"234908"},"geometry":{"type":"Point","coordinates":[-77.04866852057367,38.912312902443645]}},{"type":"Feature","properties":{"OBJECTID":154,"ADDRESS":"MASSACHUSETTS AVENUE NW","NAME":"WINSTON CHURCHILL (MCVEY)","ADDRID":"310227"},"geometry":{"type":"Point","coordinates":[-77.06153829872662,38.91981443419633]}},{"type":"Feature","properties":{"OBJECTID":155,"ADDRESS":"OHIO DRIVE SW","NAME":"AIR MAIL MARKER","ADDRID":"294436"},"geometry":{"type":"Point","coordinates":[-77.04344385821896,38.88144021000175]}},{"type":"Feature","properties":{"OBJECTID":156,"ADDRESS":"PENNSYLVANIA AVENUE NW","NAME":"ALBERT GALLATIN STATUE","ADDRID":"294318"},"geometry":{"type":"Point","coordinates":[-77.03430229781961,38.898432850931066]}},{"type":"Feature","properties":{"OBJECTID":157,"ADDRESS":"H STREET NW","NAME":"ALEXANDER PUSHKIN STATUE","ADDRID":"310379"},"geometry":{"type":"Point","coordinates":[-77.0486245972738,38.89976920259346]}},{"type":"Feature","properties":{"OBJECTID":158,"ADDRESS":"FLORIDA AVENUE NE","NAME":"ALICE COGSWELL STATUE","ADDRID":"309149"},"geometry":{"type":"Point","coordinates":[-76.99514427484205,38.905483403089406]}},{"type":"Feature","properties":{"OBJECTID":159,"ADDRESS":"FLORIDA AVENUE NE","NAME":"GALLAUDET UNIVERSITY BISON SCULPTURE","ADDRID":"310885"},"geometry":{"type":"Point","coordinates":[-76.99314740898384,38.90578490266539]}},{"type":"Feature","properties":{"OBJECTID":160,"ADDRESS":"LINCOLN CIRCLE NE","NAME":"GALLAUDET UNIVERSITY EDWARD MINER GALLAUDET STATUE","ADDRID":"309153"},"geometry":{"type":"Point","coordinates":[-76.99439931901223,38.906271780626554]}},{"type":"Feature","properties":{"OBJECTID":161,"ADDRESS":"LINCOLN CIRCLE NE","NAME":"GALLAUDET UNIVERSITY ROCKWALLS","ADDRID":"309154"},"geometry":{"type":"Point","coordinates":[-76.99407603723019,38.90630509558327]}},{"type":"Feature","properties":{"OBJECTID":162,"ADDRESS":"JEFFERSON DRIVE SW","NAME":"ALL HALLOWS GUILD TRAVELING CAROUSEL","ADDRID":"304242"},"geometry":{"type":"Point","coordinates":[-77.02458899325316,38.88914037256336]}},{"type":"Feature","properties":{"OBJECTID":163,"ADDRESS":"NEBRASKA AVENUE NW","NAME":"AMERICAN UNIVERSITY LEO TOLSTOY STATUE","ADDRID":"310948"},"geometry":{"type":"Point","coordinates":[-77.08825190287726,38.93764783051914]}},{"type":"Feature","properties":{"OBJECTID":164,"ADDRESS":"INDEPENDENCE AVENUE SW","NAME":"JAMES MADISON STATUE","ADDRID":"294424"},"geometry":{"type":"Point","coordinates":[-77.0117686467188,38.88743176695283]}},{"type":"Feature","properties":{"OBJECTID":165,"ADDRESS":"INDEPENDENCE AVENUE SW","NAME":"JAPANESE LANTERN","ADDRID":"294418"},"geometry":{"type":"Point","coordinates":[-77.04119006086181,38.88675667464185]}},{"type":"Feature","properties":{"OBJECTID":166,"ADDRESS":"R STREET NW","NAME":"ARMILLARY SPHERE","ADDRID":"294336"},"geometry":{"type":"Point","coordinates":[-77.0610985120777,38.913082462980725]}},{"type":"Feature","properties":{"OBJECTID":167,"ADDRESS":"LINCOLN MEMORIAL CIRCLE SW","NAME":"ARLINGTON BRIDGE EQUESTRIAN STATUES","ADDRID":"294433"},"geometry":{"type":"Point","coordinates":[-77.05214343125776,38.88870837809293]}},{"type":"Feature","properties":{"OBJECTID":168,"ADDRESS":"I STREET NW","NAME":"ARIA SCULPTURE","ADDRID":"310949"},"geometry":{"type":"Point","coordinates":[-77.01558037162388,38.9012288997047]}},{"type":"Feature","properties":{"OBJECTID":169,"ADDRESS":"ROCK CREEK & POTOMAC PARKWAY NW","NAME":"ARTS OF PEACE STATUES","ADDRID":"294341"},"geometry":{"type":"Point","coordinates":[-77.05201922405567,38.89003761976082]}},{"type":"Feature","properties":{"OBJECTID":170,"ADDRESS":"JEFFERSON DRIVE SW","NAME":"ARTHUR VINING DOWNING STATUE","ADDRID":"294427"},"geometry":{"type":"Point","coordinates":[-77.02536594657228,38.88840052844227]}},{"type":"Feature","properties":{"OBJECTID":171,"ADDRESS":"TENNESSEE AVENUE NE","NAME":"BALANCE STATUE","ADDRID":"310951"},"geometry":{"type":"Point","coordinates":[-76.98807819183557,38.892520313417904]}},{"type":"Feature","properties":{"OBJECTID":172,"ADDRESS":"PENNSYLVANIA AVENUE NW","NAME":"BALD EAGLE","ADDRID":"294320"},"geometry":{"type":"Point","coordinates":[-77.03330364040981,38.89622834253659]}},{"type":"Feature","properties":{"OBJECTID":173,"ADDRESS":"H STREET NW","NAME":"BARUCH BERNARD BENCH OF INSPIRATION","ADDRID":"294264"},"geometry":{"type":"Point","coordinates":[-77.03657780180824,38.899585951655126]}},{"type":"Feature","properties":{"OBJECTID":174,"ADDRESS":"1ST STREET NE","NAME":"BRICK CAPITOL","ADDRID":"294369"},"geometry":{"type":"Point","coordinates":[-77.0060729734486,38.88991482106567]}},{"type":"Feature","properties":{"OBJECTID":175,"ADDRESS":"H STREET NW","NAME":"CHINESE FRIENDSHIP ARCHWAY","ADDRID":"294266"},"geometry":{"type":"Point","coordinates":[-77.02164952258154,38.89982064659152]}},{"type":"Feature","properties":{"OBJECTID":176,"ADDRESS":"INDIANA AVENUE NW","NAME":"COGSWELL TEMPERANCE FOUNTAIN","ADDRID":"294272"},"geometry":{"type":"Point","coordinates":[-77.02165980348532,38.89379611997146]}},{"type":"Feature","properties":{"OBJECTID":177,"ADDRESS":"17TH STREET NW","NAME":"CORCORAN LIONS","ADDRID":"294184"},"geometry":{"type":"Point","coordinates":[-77.0390982681083,38.89677173307592]}},{"type":"Feature","properties":{"OBJECTID":178,"ADDRESS":"VIRGINIA AVENUE NW","NAME":"CORDELL HULL STATUE","ADDRID":"310375"},"geometry":{"type":"Point","coordinates":[-77.04074708010671,38.892538857279646]}},{"type":"Feature","properties":{"OBJECTID":179,"ADDRESS":"W STREET NW","NAME":"DAN`TE ALIGHIERI","ADDRID":"294359"},"geometry":{"type":"Point","coordinates":[-77.03625953524647,38.91936558511113]}},{"type":"Feature","properties":{"OBJECTID":180,"ADDRESS":"F STREET NW","NAME":"DON QUIXOTE","ADDRID":"294449"},"geometry":{"type":"Point","coordinates":[-77.05458306813178,38.89694100685792]}},{"type":"Feature","properties":{"OBJECTID":181,"ADDRESS":"FLORIDA AVENUE NW","NAME":"DUKE ELLINGTON STATUE","ADDRID":"310369"},"geometry":{"type":"Point","coordinates":[-77.02063037921909,38.91555895549755]}},{"type":"Feature","properties":{"OBJECTID":182,"ADDRESS":"Q STREET NW","NAME":"BUFFALOES STATUE (BUFFALO BRIDGE)","ADDRID":"294331"},"geometry":{"type":"Point","coordinates":[-77.05089119951833,38.91114326444453]}},{"type":"Feature","properties":{"OBJECTID":183,"ADDRESS":"STATE PLACE NW","NAME":"FIRST DIVISION MONUMENT","ADDRID":"294347"},"geometry":{"type":"Point","coordinates":[-77.03871453768156,38.896171543321984]}},{"type":"Feature","properties":{"OBJECTID":184,"ADDRESS":"C STREET NW","NAME":"FOUNDERS OF THE DAUGHTERS OF THE AMERICAN REVOLUTION MEMORIAL","ADDRID":"310396"},"geometry":{"type":"Point","coordinates":[-77.04050200268497,38.89373309233399]}},{"type":"Feature","properties":{"OBJECTID":185,"ADDRESS":"34TH STREET NW","NAME":"FRANCIS SCOTT KEY STATUE","ADDRID":"294205"},"geometry":{"type":"Point","coordinates":[-77.06808666405018,38.90484379842583]}},{"type":"Feature","properties":{"OBJECTID":186,"ADDRESS":"N STREET SE","NAME":"FRANK HOWARD STATUE","ADDRID":"310373"},"geometry":{"type":"Point","coordinates":[-77.00743203775491,38.87405556387618]}},{"type":"Feature","properties":{"OBJECTID":187,"ADDRESS":"N STREET SE","NAME":"JOSH GIBSON STATUE","ADDRID":"310374"},"geometry":{"type":"Point","coordinates":[-77.00751835017043,38.874033037346564]}},{"type":"Feature","properties":{"OBJECTID":188,"ADDRESS":"N STREET SE","NAME":"WALTER JOHNSON STATUE","ADDRID":"310372"},"geometry":{"type":"Point","coordinates":[-77.0073541333623,38.87403493957057]}},{"type":"Feature","properties":{"OBJECTID":189,"ADDRESS":"PENNSYLVANIA AVENUE NW","NAME":"FUTURE STATUE","ADDRID":"294328"},"geometry":{"type":"Point","coordinates":[-77.02278065683936,38.89325774666226]}},{"type":"Feature","properties":{"OBJECTID":190,"ADDRESS":"CONSTITUTION AVENUE NW","NAME":"GEORGE C. MEADE STATUE","ADDRID":"294233"},"geometry":{"type":"Point","coordinates":[-77.0164636625626,38.89215077812782]}},{"type":"Feature","properties":{"OBJECTID":191,"ADDRESS":"EAST BASIN DRIVE SW","NAME":"GEORGE MASON STATUE","ADDRID":"310378"},"geometry":{"type":"Point","coordinates":[-77.03891741467015,38.87946363253594]}},{"type":"Feature","properties":{"OBJECTID":192,"ADDRESS":"H STREET NW","NAME":"GEORGE WASHINGTON STATUE","ADDRID":"310381"},"geometry":{"type":"Point","coordinates":[-77.04578969659583,38.89939289782505]}},{"type":"Feature","properties":{"OBJECTID":193,"ADDRESS":"GARFIELD STREET NW","NAME":"GEORGE WASHINGTON STATUE","ADDRID":"294260"},"geometry":{"type":"Point","coordinates":[-77.0701352123082,38.929534702368684]}},{"type":"Feature","properties":{"OBJECTID":194,"ADDRESS":"16TH STREET NW","NAME":"HAUPT FOUNTAINS","ADDRID":"294181"},"geometry":{"type":"Point","coordinates":[-77.03672094681964,38.892353268650545]}},{"type":"Feature","properties":{"OBJECTID":195,"ADDRESS":"35TH STREET NW","NAME":"HEALY FATHER PATRICK","ADDRID":"294208"},"geometry":{"type":"Point","coordinates":[-77.06953568416819,38.91057955256704]}},{"type":"Feature","properties":{"OBJECTID":196,"ADDRESS":"CONSTITUTION AVENUE NW","NAME":"HERITAGE AND GAURDIANSHIP SCULPTURE","ADDRID":"310405"},"geometry":{"type":"Point","coordinates":[-77.02322413492632,38.89230637522623]}},{"type":"Feature","properties":{"OBJECTID":197,"ADDRESS":"MASSACHUSETTS AVENUE NW","NAME":"HOLODOMOR MEMORIAL","ADDRID":"312324"},"geometry":{"type":"Point","coordinates":[-77.00957945462828,38.89748215774436]}},{"type":"Feature","properties":{"OBJECTID":198,"ADDRESS":"W STREET NW","NAME":"JAMES BUCHANAN STATUE","ADDRID":"294358"},"geometry":{"type":"Point","coordinates":[-77.03562549506835,38.91950063482682]}},{"type":"Feature","properties":{"OBJECTID":199,"ADDRESS":"E STREET NW","NAME":"JANE DELANO STATUE","ADDRID":"310385"},"geometry":{"type":"Point","coordinates":[-77.04078096560411,38.894951827771195]}},{"type":"Feature","properties":{"OBJECTID":200,"ADDRESS":"D STREET NW","NAME":"RED CROSS MEN & WOMEN KILLED IN SERVICE","ADDRID":"294239"},"geometry":{"type":"Point","coordinates":[-77.04078245862166,38.89475058027616]}},{"type":"Feature","properties":{"OBJECTID":201,"ADDRESS":"OHIO DRIVE SW","NAME":"JAPANESE PAGODA","ADDRID":"294437"},"geometry":{"type":"Point","coordinates":[-77.04173170709558,38.88327275967888]}},{"type":"Feature","properties":{"OBJECTID":202,"ADDRESS":"HAREWOOD ROAD NE","NAME":"JOHN PAUL II STATUE","ADDRID":"310384"},"geometry":{"type":"Point","coordinates":[-77.00439398975833,38.938066800802126]}},{"type":"Feature","properties":{"OBJECTID":203,"ADDRESS":"BEACH DRIVE NW","NAME":"JEAN JULES JUSSERAND MEMORIAL","ADDRID":"294212"},"geometry":{"type":"Point","coordinates":[-77.0511842863559,38.9379734301215]}},{"type":"Feature","properties":{"OBJECTID":204,"ADDRESS":"WESLEY CIRCLE NW","NAME":"JOHN WESLEY STATUE","ADDRID":"310380"},"geometry":{"type":"Point","coordinates":[-77.09042171023987,38.94072187574445]}},{"type":"Feature","properties":{"OBJECTID":205,"ADDRESS":"18TH STREET NW","NAME":"JOHN WITHERSPOON STATUE","ADDRID":"294188"},"geometry":{"type":"Point","coordinates":[-77.04178178267918,38.90718095267787]}},{"type":"Feature","properties":{"OBJECTID":206,"ADDRESS":"BEACH DRIVE NW","NAME":"JULES JUSSERAND MEMORIAL","ADDRID":"308009"},"geometry":{"type":"Point","coordinates":[-77.04966049294393,38.93252028064751]}},{"type":"Feature","properties":{"OBJECTID":207,"ADDRESS":"GARFIELD CIRCLE SW","NAME":"LAMP STANDARDS","ADDRID":"294413"},"geometry":{"type":"Point","coordinates":[-77.0116739707613,38.889262729483114]}},{"type":"Feature","properties":{"OBJECTID":208,"ADDRESS":"LINNEAN AVENUE NW","NAME":"MICHAEL KOVATS DE FABRICY STATUE","ADDRID":"310395"},"geometry":{"type":"Point","coordinates":[-77.05351627380476,38.93993790595209]}},{"type":"Feature","properties":{"OBJECTID":209,"ADDRESS":"PENNSYLVANIA AVENUE NW","NAME":"MOYNIHAN PLACE","ADDRID":"310462"},"geometry":{"type":"Point","coordinates":[-77.02971739026123,38.89481535652299]}},{"type":"Feature","properties":{"OBJECTID":210,"ADDRESS":"CONSTITUTION AVENUE NW","NAME":"NATHAN HALE STATUE","ADDRID":"294236"},"geometry":{"type":"Point","coordinates":[-77.02474154324928,38.892323900234224]}},{"type":"Feature","properties":{"OBJECTID":211,"ADDRESS":"9TH STREET NW","NAME":"PAST STATUE","ADDRID":"294166"},"geometry":{"type":"Point","coordinates":[-77.02337626037799,38.89328672601908]}},{"type":"Feature","properties":{"OBJECTID":212,"ADDRESS":"INDEPENDENCE AVENUE SW","NAME":"REFLECTING POOL","ADDRID":"304149"},"geometry":{"type":"Point","coordinates":[-77.04478311616717,38.889387420819936]}},{"type":"Feature","properties":{"OBJECTID":213,"ADDRESS":"14TH STREET NE","NAME":"SAINT BERNADETTE STATUE","ADDRID":"310382"},"geometry":{"type":"Point","coordinates":[-76.98518032752342,38.93682234871792]}},{"type":"Feature","properties":{"OBJECTID":214,"ADDRESS":"14TH STREET NE","NAME":"SAINT CHRISTOPHER STATUE","ADDRID":"310388"},"geometry":{"type":"Point","coordinates":[-76.98565060614756,38.93723967178865]}},{"type":"Feature","properties":{"OBJECTID":215,"ADDRESS":"14TH STREET NE","NAME":"SAINT FRANCIS OF ASSISI STATUE","ADDRID":"310389"},"geometry":{"type":"Point","coordinates":[-76.9856917350921,38.93747992814314]}},{"type":"Feature","properties":{"OBJECTID":216,"ADDRESS":"16TH STREET NW","NAME":"SERENITY STATUE","ADDRID":"294183"},"geometry":{"type":"Point","coordinates":[-77.03632869950052,38.92269170801062]}},{"type":"Feature","properties":{"OBJECTID":217,"ADDRESS":"3RD STREET NW","NAME":"SIR  WILLIAM BLACKSTONE STATUE","ADDRID":"294156"},"geometry":{"type":"Point","coordinates":[-77.01582412007188,38.89254155965117]}},{"type":"Feature","properties":{"OBJECTID":218,"ADDRESS":"VIRGINIA AVENUE NW","NAME":"SOR JUANA INES DE LA CRUZ STATUE","ADDRID":"310394"},"geometry":{"type":"Point","coordinates":[-77.04077319127938,38.892442458574415]}},{"type":"Feature","properties":{"OBJECTID":219,"ADDRESS":"CONSTITUTION AVENUE NW","NAME":"TERESA DE LA PARRA STATUE","ADDRID":"310402"},"geometry":{"type":"Point","coordinates":[-77.04026387576948,38.892551456398664]}},{"type":"Feature","properties":{"OBJECTID":220,"ADDRESS":"17TH STREET NW & C STREET NW","NAME":"JOSÉ CECILIO DE VALLE MEMORIAL","ADDRID":"904539"},"geometry":{"type":"Point","coordinates":[-77.03995721616386,38.89334977467053]}},{"type":"Feature","properties":{"OBJECTID":221,"ADDRESS":"30TH STREET NW","NAME":"SUPREME COURT JUSTICE WILLIAM O. DOUGAS STATUE","ADDRID":"310392"},"geometry":{"type":"Point","coordinates":[-77.05947595451107,38.90421232934752]}},{"type":"Feature","properties":{"OBJECTID":222,"ADDRESS":"PENNSYLVANIA AVENUE NW","NAME":"THAI BELL","ADDRID":"294324"},"geometry":{"type":"Point","coordinates":[-77.03171168449435,38.896262747112615]}},{"type":"Feature","properties":{"OBJECTID":223,"ADDRESS":"23RD STREET NW","NAME":"THE THREE SERVICEMEN","ADDRID":"294199"},"geometry":{"type":"Point","coordinates":[-77.0499135913201,38.89273681723911]}},{"type":"Feature","properties":{"OBJECTID":224,"ADDRESS":"PENNSYLVANIA AVENUE NW","NAME":"THE SPIRIT OF HAIDA GWAII SCULPTURE","ADDRID":"310398"},"geometry":{"type":"Point","coordinates":[-77.01834661374937,38.893177091629774]}},{"type":"Feature","properties":{"OBJECTID":225,"ADDRESS":"OHIO DRIVE SW","NAME":"THE WATERGATE STEPS","ADDRID":"304243"},"geometry":{"type":"Point","coordinates":[-77.05239972495666,38.88924849590636]}},{"type":"Feature","properties":{"OBJECTID":226,"ADDRESS":"FRANCIS SCOTT KEY BRIDGE NW","NAME":"THEODORE ROOSEVELT MEMORIAL","ADDRID":"307328"},"geometry":{"type":"Point","coordinates":[-77.06397212008093,38.89729117205268]}},{"type":"Feature","properties":{"OBJECTID":227,"ADDRESS":"WATER STREET SE","NAME":"THE YARDS PARK LIGHT TOWER","ADDRID":"311454"},"geometry":{"type":"Point","coordinates":[-77.00177302794786,38.872751190195764]}},{"type":"Feature","properties":{"OBJECTID":228,"ADDRESS":"30TH STREET NW","NAME":"THOMAS SIM LEE CORNER","ADDRID":"294204"},"geometry":{"type":"Point","coordinates":[-77.05929142495692,38.905372428944645]}},{"type":"Feature","properties":{"OBJECTID":229,"ADDRESS":"MASSACHUSETTS AVENUE NW","NAME":"TOMAS GARRIGUE MASARYK STATUE","ADDRID":"310400"},"geometry":{"type":"Point","coordinates":[-77.0485880441357,38.91126477656865]}},{"type":"Feature","properties":{"OBJECTID":230,"ADDRESS":"1ST STREET SW","NAME":"ULYSSES GRANT STATUE","ADDRID":"294403"},"geometry":{"type":"Point","coordinates":[-77.01291736826494,38.889473845023694]}},{"type":"Feature","properties":{"OBJECTID":231,"ADDRESS":"201 ALLISON ST NW","NAME":"THOMPSON-HARDING MONUMENT","ADDRID":"284159"},"geometry":{"type":"Point","coordinates":[-77.01104191464867,38.94731842940577]}},{"type":"Feature","properties":{"OBJECTID":232,"ADDRESS":"7TH STREET NW","NAME":"VAQUERO STATUE","ADDRID":"294161"},"geometry":{"type":"Point","coordinates":[-77.02316026677549,38.89831487935651]}},{"type":"Feature","properties":{"OBJECTID":233,"ADDRESS":"MARYLAND AVENUE NE","NAME":"VETERANS OF FOREIGN WARS MEMORIAL","ADDRID":"294384"},"geometry":{"type":"Point","coordinates":[-77.00329576460733,38.89232422225521]}},{"type":"Feature","properties":{"OBJECTID":234,"ADDRESS":"HENRY BACON DRIVE NW","NAME":"WOMEN WHO SERVED IN VIETNAM","ADDRID":"294271"},"geometry":{"type":"Point","coordinates":[-77.04698314414551,38.89054710585741]}},{"type":"Feature","properties":{"OBJECTID":235,"ADDRESS":"V STREET SE","NAME":"WORLD'S LARGEST CHAIR","ADDRID":"294401"},"geometry":{"type":"Point","coordinates":[-76.98968758493251,38.86539475205842]}},{"type":"Feature","properties":{"OBJECTID":236,"ADDRESS":null,"NAME":"ABRAHAM LINCOLN STATUE","ADDRID":"11828"},"geometry":{"type":"Point","coordinates":[-77.01755296983269,38.89505978273953]}},{"type":"Feature","properties":{"OBJECTID":237,"ADDRESS":"1 1ST STREET NE","NAME":"AUTHORITY OF LAW","ADDRID":"294386"},"geometry":{"type":"Point","coordinates":[-77.00516268363056,38.89043959195536]}},{"type":"Feature","properties":{"OBJECTID":238,"ADDRESS":"1 1ST STREET NE","NAME":"CONTEMPLATION OF JUSTICE","ADDRID":"294448"},"geometry":{"type":"Point","coordinates":[-77.00516491518434,38.89080557421978]}},{"type":"Feature","properties":{"OBJECTID":239,"ADDRESS":null,"NAME":"PETER MUHLENBERG MEMORIAL","ADDRID":"308543"},"geometry":{"type":"Point","coordinates":[-77.06948061257856,38.953578588828925]}}]}