{"type":"FeatureCollection","features":[{"type":"Feature","id":1,"geometry":{"type":"Point","coordinates":[-76.98655151955585,38.88354906285678],"bbox":[-76.98655151955585,38.88354906285678,-76.98655151955585,38.88354906285678]},"properties":{"OBJECTID":1,"NAME":"SAFEWAY PHARMACY #4205","ADDRESS":"415 14TH STREET SE","X":401167.04000000004,"Y":135078.34,"ADDRID":26239,"CITY":"WASHINGTON","STATE":"DC","ZIPCODE":20003,"PHONE":0,"FACTYPE":"Pharmacy","SEASONAL":null,"H1N1":null,"SSL":"1042    0109","WARD":"Ward 6"}},{"type":"Feature","id":2,"geometry":{"type":"Point","coordinates":[-77.00076730281324,38.89007568594387],"bbox":[-77.00076730281324,38.89007568594387,-77.00076730281324,38.89007568594387]},"properties":{"OBJECTID":2,"NAME":"GRUBBS PHARMACY","ADDRESS":"326 EAST CAPITOL STREET NE","X":399933.63,"Y":135802.76,"ADDRID":37469,"CITY":"WASHINGTON","STATE":"DC","ZIPCODE":20003,"PHONE":0,"FACTYPE":"Pharmacy","SEASONAL":"N","H1N1":"Y","SSL":"0786    0031","WARD":"Ward 6"}},{"type":"Feature","id":3,"geometry":{"type":"Point","coordinates":[-77.06294059389354,38.94404585684352],"bbox":[-77.06294059389354,38.94404585684352,-77.06294059389354,38.94404585684352]},"properties":{"OBJECTID":3,"NAME":"Walgreens","ADDRESS":"4225 CONNECTICUT AVENUE NW","X":394543.86,"Y":141795.78,"ADDRID":221312,"CITY":"WASHINGTON","STATE":"DC","ZIPCODE":20008,"PHONE":2029032019,"FACTYPE":"Pharmacy","SEASONAL":null,"H1N1":null,"SSL":"2051    0007","WARD":"Ward 3"}},{"type":"Feature","id":4,"geometry":{"type":"Point","coordinates":[-77.05132577075734,38.92382419489497],"bbox":[-77.05132577075734,38.92382419489497,-77.05132577075734,38.92382419489497]},"properties":{"OBJECTID":4,"NAME":"CVS/Pharmacy #1354","ADDRESS":"2601 CONNECTICUT AVENUE NW","X":395549.49,"Y":139550.37,"ADDRID":219106,"CITY":"WASHINGTON","STATE":"DC","ZIPCODE":20008,"PHONE":2023321446,"FACTYPE":"Pharmacy","SEASONAL":"Y","H1N1":"N","SSL":"2204    0835","WARD":"Ward 3"}},{"type":"Feature","id":5,"geometry":{"type":"Point","coordinates":[-77.03153190821139,38.90812058653974],"bbox":[-77.03153190821139,38.90812058653974,-77.03153190821139,38.90812058653974]},"properties":{"OBJECTID":5,"NAME":"Walgreens","ADDRESS":"1325 14TH STREET NW","X":397265.31,"Y":137806.36000000002,"ADDRID":225392,"CITY":"WASHINGTON","STATE":"DC","ZIPCODE":20005,"PHONE":2023328811,"FACTYPE":"Pharmacy","SEASONAL":null,"H1N1":null,"SSL":"0242    0839","WARD":"Ward 2"}},{"type":"Feature","id":6,"geometry":{"type":"Point","coordinates":[-77.07586483092467,38.96469478070002],"bbox":[-77.07586483092467,38.96469478070002,-77.07586483092467,38.96469478070002]},"properties":{"OBJECTID":6,"NAME":"CVS/PHARMACY #1346","ADDRESS":"5550 CONNECTICUT AVENUE NW","X":393425.36,"Y":144088.85,"ADDRID":263843,"CITY":"WASHINGTON","STATE":"DC","ZIPCODE":20015,"PHONE":0,"FACTYPE":"Pharmacy","SEASONAL":"Y","H1N1":"N","SSL":"1859    0093","WARD":"Ward 3"}},{"type":"Feature","id":7,"geometry":{"type":"Point","coordinates":[-77.0130214394723,38.95633504215177],"bbox":[-77.0130214394723,38.95633504215177,-77.0130214394723,38.95633504215177]},"properties":{"OBJECTID":7,"NAME":"CVS/Pharmacy #1366","ADDRESS":"128 KENNEDY STREET NW","X":398871.56,"Y":143158.19,"ADDRID":245880,"CITY":"WASHINGTON","STATE":"DC","ZIPCODE":20011,"PHONE":2022910352,"FACTYPE":"Pharmacy","SEASONAL":"Y","H1N1":"N","SSL":"3391    0811","WARD":"Ward 4"}},{"type":"Feature","id":8,"geometry":{"type":"Point","coordinates":[-77.02630447885886,38.916695658547475],"bbox":[-77.02630447885886,38.916695658547475,-77.02630447885886,38.916695658547475]},"properties":{"OBJECTID":8,"NAME":"CVS/Pharmacy #6419","ADDRESS":"1000 U STREET NW","X":397718.98,"Y":138758.12,"ADDRID":242764,"CITY":"WASHINGTON","STATE":"DC","ZIPCODE":20001,"PHONE":2025182978,"FACTYPE":"Pharmacy","SEASONAL":"Y","H1N1":"N","SSL":"0333    0037","WARD":"Ward 1"}},{"type":"Feature","id":9,"geometry":{"type":"Point","coordinates":[-77.0276367308206,38.897582066540814],"bbox":[-77.0276367308206,38.897582066540814,-77.0276367308206,38.897582066540814]},"properties":{"OBJECTID":9,"NAME":"Walgreens","ADDRESS":"1155 F STREET NW","X":397602.8,"Y":136636.39,"ADDRID":306768,"CITY":"WASHINGTON","STATE":"DC","ZIPCODE":20004,"PHONE":2029698814,"FACTYPE":"Pharmacy","SEASONAL":null,"H1N1":null,"SSL":"0320    0028","WARD":"Ward 2"}},{"type":"Feature","id":10,"geometry":{"type":"Point","coordinates":[-76.99656471295516,38.885172376759456],"bbox":[-76.99656471295516,38.885172376759456,-76.99656471295516,38.885172376759456]},"properties":{"OBJECTID":10,"NAME":"MedStar Physician Partners- Washington Primary Care Physicians","ADDRESS":"660 PENNSYLVANIA AVENUE SE","X":400298.25,"Y":135258.46,"ADDRID":300871,"CITY":"WASHINGTON","STATE":"DC","ZIPCODE":20003,"PHONE":0,"FACTYPE":"Other","SEASONAL":null,"H1N1":null,"SSL":"0873    0845","WARD":"Ward 6"}},{"type":"Feature","id":11,"geometry":{"type":"Point","coordinates":[-76.99455797346032,38.899985037164015],"bbox":[-76.99455797346032,38.899985037164015,-76.99455797346032,38.899985037164015]},"properties":{"OBJECTID":11,"NAME":"Rite Aid Pharmacy #2710","ADDRESS":"801 H STREET NE","X":400472.26,"Y":136902.79,"ADDRID":288965,"CITY":"WASHINGTON","STATE":"DC","ZIPCODE":20002,"PHONE":2026752555,"FACTYPE":"Pharmacy","SEASONAL":null,"H1N1":null,"SSL":"0912    0055","WARD":"Ward 6"}},{"type":"Feature","id":12,"geometry":{"type":"Point","coordinates":[-77.02009603816175,38.917556196144936],"bbox":[-77.02009603816175,38.917556196144936,-77.02009603816175,38.917556196144936]},"properties":{"OBJECTID":12,"NAME":"Howard University Hospital Inpatient Pharmacy","ADDRESS":"2041 GEORGIA AVENUE NW","X":398257.42,"Y":138853.51,"ADDRID":279523,"CITY":"WASHINGTON","STATE":"DC","ZIPCODE":20060,"PHONE":2028651323,"FACTYPE":"Pharmacy","SEASONAL":"N","H1N1":"Y","SSL":"3075    0807","WARD":"Ward 1"}},{"type":"Feature","id":13,"geometry":{"type":"Point","coordinates":[-77.04308170960878,38.90831282998837],"bbox":[-77.04308170960878,38.90831282998837,-77.04308170960878,38.90831282998837]},"properties":{"OBJECTID":13,"NAME":"CVS/Pharmacy #2872","ADDRESS":"1350 CONNECTICUT AVENUE NW","X":396263.56,"Y":137828.11000000002,"ADDRID":217992,"CITY":"WASHINGTON","STATE":"DC","ZIPCODE":20036,"PHONE":2022237252,"FACTYPE":"Pharmacy","SEASONAL":"Y","H1N1":"N","SSL":"0138    0013","WARD":"Ward 2"}},{"type":"Feature","id":14,"geometry":{"type":"Point","coordinates":[-77.03162778842162,38.918912190125496],"bbox":[-77.03162778842162,38.918912190125496,-77.03162778842162,38.918912190125496]},"properties":{"OBJECTID":14,"NAME":"CVS/Pharmacy #4546","ADDRESS":"2129 14TH STREET NW","X":397257.41000000003,"Y":139004.32,"ADDRID":306455,"CITY":"WASHINGTON","STATE":"DC","ZIPCODE":20009,"PHONE":2022990138,"FACTYPE":"Pharmacy","SEASONAL":"Y","H1N1":"N","SSL":"0235    0204","WARD":"Ward 1"}},{"type":"Feature","id":15,"geometry":{"type":"Point","coordinates":[-77.06366270266008,38.90865079001901],"bbox":[-77.06366270266008,38.90865079001901,-77.06366270266008,38.90865079001901]},"properties":{"OBJECTID":15,"NAME":"CVS/Pharmacy #1337","ADDRESS":"1403 WISCONSIN AVENUE NW","X":394478.52,"Y":137866.67,"ADDRID":223778,"CITY":"WASHINGTON","STATE":"DC","ZIPCODE":20007,"PHONE":2023374848,"FACTYPE":"Pharmacy","SEASONAL":"Y","H1N1":"N","SSL":"1256    0064","WARD":"Ward 2"}},{"type":"Feature","id":16,"geometry":{"type":"Point","coordinates":[-77.08841713128702,38.93908921390882],"bbox":[-77.08841713128702,38.93908921390882,-77.08841713128702,38.93908921390882]},"properties":{"OBJECTID":16,"NAME":"American University Student Health Center","ADDRESS":"4400 MASSACHUSETTS AVENUE NW","X":392334.76,"Y":141247.38,"ADDRID":223994,"CITY":"WASHINGTON","STATE":"DC","ZIPCODE":20016,"PHONE":0,"FACTYPE":"Other","SEASONAL":"N","H1N1":"Y","SSL":"1600    0001","WARD":"Ward 3"}},{"type":"Feature","id":17,"geometry":{"type":"Point","coordinates":[-77.04577834431187,38.902900216990105],"bbox":[-77.04577834431187,38.902900216990105,-77.04577834431187,38.902900216990105]},"properties":{"OBJECTID":17,"NAME":"Arthritis and Rheumatism Associates, PC","ADDRESS":"2021 K STREET NW","X":396029.37,"Y":137227.38,"ADDRID":242500,"CITY":"WASHINGTON","STATE":"DC","ZIPCODE":20006,"PHONE":0,"FACTYPE":"Other","SEASONAL":"N","H1N1":"Y","SSL":"0076    0083","WARD":"Ward 2"}},{"type":"Feature","id":18,"geometry":{"type":"Point","coordinates":[-77.0317020816538,38.912784790665675],"bbox":[-77.0317020816538,38.912784790665675,-77.0317020816538,38.912784790665675]},"properties":{"OBJECTID":18,"NAME":"Whitman Walker Clinic Pharmacy","ADDRESS":"1701 14TH STREET NW","X":397250.73,"Y":138324.13,"ADDRID":238070,"CITY":"WASHINGTON","STATE":"DC","ZIPCODE":20009,"PHONE":2027457000,"FACTYPE":"Pharmacy","SEASONAL":null,"H1N1":null,"SSL":"0239    0131","WARD":"Ward 2"}},{"type":"Feature","id":19,"geometry":{"type":"Point","coordinates":[-77.07157366136475,38.91983664148158],"bbox":[-77.07157366136475,38.91983664148158,-77.07157366136475,38.91983664148158]},"properties":{"OBJECTID":19,"NAME":"CVS/Pharmacy #2378","ADDRESS":"2226 WISCONSIN AVENUE NW","X":393793.35000000003,"Y":139108.9,"ADDRID":275326,"CITY":"WASHINGTON","STATE":"DC","ZIPCODE":20007,"PHONE":2029448671,"FACTYPE":"Pharmacy","SEASONAL":"Y","H1N1":"N","SSL":"1300    0556","WARD":"Ward 3"}},{"type":"Feature","id":20,"geometry":{"type":"Point","coordinates":[-77.06352646667224,38.94493213561748],"bbox":[-77.06352646667224,38.94493213561748,-77.06352646667224,38.94493213561748]},"properties":{"OBJECTID":20,"NAME":"CVS/Pharmacy #1362","ADDRESS":"4309 CONNECTICUT AVENUE NW","X":394493.14,"Y":141894.2,"ADDRID":302109,"CITY":"WASHINGTON","STATE":"DC","ZIPCODE":20008,"PHONE":2029663023,"FACTYPE":"Pharmacy","SEASONAL":"Y","H1N1":"N","SSL":"2049    0805","WARD":"Ward 3"}},{"type":"Feature","id":21,"geometry":{"type":"Point","coordinates":[-76.98211526108902,38.90131667199661],"bbox":[-76.98211526108902,38.90131667199661,-76.98211526108902,38.90131667199661]},"properties":{"OBJECTID":21,"NAME":"CVS/Pharmacy #1340","ADDRESS":"845 BLADENSBURG ROAD NE","X":401551.56,"Y":137050.75,"ADDRID":289021,"CITY":"WASHINGTON","STATE":"DC","ZIPCODE":20002,"PHONE":2023972600,"FACTYPE":"Pharmacy","SEASONAL":"Y","H1N1":"N","SSL":"4491    0005","WARD":"Ward 5"}},{"type":"Feature","id":22,"geometry":{"type":"Point","coordinates":[-77.04099386856593,38.92421518348502],"bbox":[-77.04099386856593,38.92421518348502,-77.04099386856593,38.92421518348502]},"properties":{"OBJECTID":22,"NAME":"Safeway Pharmacy","ADDRESS":"1747 COLUMBIA ROAD NW","X":396445.44,"Y":139593.32,"ADDRID":284083,"CITY":"WASHINGTON","STATE":"DC","ZIPCODE":20009,"PHONE":2026672080,"FACTYPE":"Pharmacy","SEASONAL":null,"H1N1":null,"SSL":"2580    0512","WARD":"Ward 1"}},{"type":"Feature","id":23,"geometry":{"type":"Point","coordinates":[-77.04099386279987,38.92421518348706],"bbox":[-77.04099386279987,38.92421518348706,-77.04099386279987,38.92421518348706]},"properties":{"OBJECTID":23,"NAME":"SAFEWAY PHARMACY #4202","ADDRESS":"1747 COLUMBIA ROAD NW","X":396445.44,"Y":139593.32,"ADDRID":284083,"CITY":"WASHINGTON","STATE":"DC","ZIPCODE":20009,"PHONE":0,"FACTYPE":"Pharmacy","SEASONAL":null,"H1N1":null,"SSL":"2580    0512","WARD":"Ward 1"}},{"type":"Feature","id":24,"geometry":{"type":"Point","coordinates":[-76.9702012537635,38.8678725926861],"bbox":[-76.9702012537635,38.8678725926861,-76.9702012537635,38.8678725926861]},"properties":{"OBJECTID":24,"NAME":"Childrens Pediatricians and Associates- Drs. Hudson & Simrel","ADDRESS":"2600 NAYLOR ROAD SE","X":402586.22000000003,"Y":133338.47,"ADDRID":46160,"CITY":"WASHINGTON","STATE":"DC","ZIPCODE":20020,"PHONE":0,"FACTYPE":"Other","SEASONAL":null,"H1N1":null,"SSL":"PAR 02120019","WARD":"Ward 7"}},{"type":"Feature","id":25,"geometry":{"type":"Point","coordinates":[-76.9948164107172,38.92103844767702],"bbox":[-76.9948164107172,38.92103844767702,-76.9948164107172,38.92103844767702]},"properties":{"OBJECTID":25,"NAME":"CVS/Pharmacy #1363","ADDRESS":"2350 WASHINGTON PLACE NE","X":400449.71,"Y":139239.89,"ADDRID":306519,"CITY":"WASHINGTON","STATE":"DC","ZIPCODE":20018,"PHONE":2026358520,"FACTYPE":"Pharmacy","SEASONAL":"Y","H1N1":"N","SSL":"3848    0825","WARD":"Ward 5"}},{"type":"Feature","id":26,"geometry":{"type":"Point","coordinates":[-77.04448717670367,38.90944780540054],"bbox":[-77.04448717670367,38.90944780540054,-77.04448717670367,38.90944780540054]},"properties":{"OBJECTID":26,"NAME":"CVS/Pharmacy #1347","ADDRESS":"6 DUPONT CIRCLE NW","X":396141.72000000003,"Y":137954.16,"ADDRID":241054,"CITY":"WASHINGTON","STATE":"DC","ZIPCODE":20036,"PHONE":2027851466,"FACTYPE":"Pharmacy","SEASONAL":"Y","H1N1":"N","SSL":"0114    0025","WARD":"Ward 2"}},{"type":"Feature","id":27,"geometry":{"type":"Point","coordinates":[-77.03493805151741,38.90219698609134],"bbox":[-77.03493805151741,38.90219698609134,-77.03493805151741,38.90219698609134]},"properties":{"OBJECTID":27,"NAME":"CVS/Pharmacy #2075","ADDRESS":"1500 K STREET NW","X":396969.63,"Y":137148.9,"ADDRID":242333,"CITY":"WASHINGTON","STATE":"DC","ZIPCODE":20005,"PHONE":2026386250,"FACTYPE":"Pharmacy","SEASONAL":"Y","H1N1":"N","SSL":"0199    0832","WARD":"Ward 2"}},{"type":"Feature","id":28,"geometry":{"type":"Point","coordinates":[-77.045341161229,38.90522355211266],"bbox":[-77.045341161229,38.90522355211266,-77.045341161229,38.90522355211266]},"properties":{"OBJECTID":28,"NAME":"CVS/Pharmacy #1841","ADDRESS":"2000 M STREET NW","X":396067.42,"Y":137485.27,"ADDRID":240946,"CITY":"WASHINGTON","STATE":"DC","ZIPCODE":20036,"PHONE":2028628417,"FACTYPE":"Pharmacy","SEASONAL":"Y","H1N1":"N","SSL":"0100    0897","WARD":"Ward 2"}},{"type":"Feature","id":29,"geometry":{"type":"Point","coordinates":[-77.05732572641007,38.93435788995804],"bbox":[-77.05732572641007,38.93435788995804,-77.05732572641007,38.93435788995804]},"properties":{"OBJECTID":29,"NAME":"CVS/Pharmacy #1353","ADDRESS":"3327 CONNECTICUT AVENUE NW","X":395029.94,"Y":140720.01,"ADDRID":219245,"CITY":"WASHINGTON","STATE":"DC","ZIPCODE":20008,"PHONE":2029667210,"FACTYPE":"Pharmacy","SEASONAL":"Y","H1N1":"N","SSL":"2218    0821","WARD":"Ward 3"}},{"type":"Feature","id":30,"geometry":{"type":"Point","coordinates":[-77.04802991207434,38.90292904057334],"bbox":[-77.04802991207434,38.90292904057334,-77.04802991207434,38.90292904057334]},"properties":{"OBJECTID":30,"NAME":"Foer Pharnacy","ADDRESS":"2141 K STREET NW","X":395834.07,"Y":137230.68,"ADDRID":242481,"CITY":"WASHINGTON","STATE":"DC","ZIPCODE":20037,"PHONE":0,"FACTYPE":"Pharmacy","SEASONAL":"N","H1N1":"Y","SSL":"0073    0079","WARD":"Ward 2"}},{"type":"Feature","id":31,"geometry":{"type":"Point","coordinates":[-77.04294197448023,38.90506221817691],"bbox":[-77.04294197448023,38.90506221817691,-77.04294197448023,38.90506221817691]},"properties":{"OBJECTID":31,"NAME":"Tschiffely Pharmacy","ADDRESS":"1145 19TH STREET NW","X":396275.51,"Y":137467.26,"ADDRID":241304,"CITY":"WASHINGTON","STATE":"DC","ZIPCODE":20036,"PHONE":2024668440,"FACTYPE":"Pharmacy","SEASONAL":null,"H1N1":null,"SSL":"0140    0913","WARD":"Ward 2"}},{"type":"Feature","id":32,"geometry":{"type":"Point","coordinates":[-77.01459388697084,38.97450071108389],"bbox":[-77.01459388697084,38.97450071108389,-77.01459388697084,38.97450071108389]},"properties":{"OBJECTID":32,"NAME":"CVS/Pharmacy #2330","ADDRESS":"110 CARROLL STREET NW","X":398735.59,"Y":145174.77,"ADDRID":280093,"CITY":"WASHINGTON","STATE":"DC","ZIPCODE":20012,"PHONE":2027227593,"FACTYPE":"Pharmacy","SEASONAL":"Y","H1N1":"N","SSL":"3357    0060","WARD":"Ward 4"}},{"type":"Feature","id":33,"geometry":{"type":"Point","coordinates":[-77.05267847254584,38.90507390816039],"bbox":[-77.05267847254584,38.90507390816039,-77.05267847254584,38.90507390816039]},"properties":{"OBJECTID":33,"NAME":"Capital Pulmonary Internists, P.C.","ADDRESS":"2440 M STREET NW","X":395430.99,"Y":137469,"ADDRID":274799,"CITY":"WASHINGTON","STATE":"DC","ZIPCODE":20037,"PHONE":0,"FACTYPE":"Other","SEASONAL":null,"H1N1":null,"SSL":"0025    0021","WARD":"Ward 2"}},{"type":"Feature","id":34,"geometry":{"type":"Point","coordinates":[-77.09545720743316,38.916767097520996],"bbox":[-77.09545720743316,38.916767097520996,-77.09545720743316,38.916767097520996]},"properties":{"OBJECTID":34,"NAME":"CVS/Pharmacy #2204","ADDRESS":"4859 MACARTHUR BOULEVARD NW","X":391721.82,"Y":138770.05,"ADDRID":293246,"CITY":"WASHINGTON","STATE":"DC","ZIPCODE":20007,"PHONE":2029656548,"FACTYPE":"Pharmacy","SEASONAL":"Y","H1N1":"N","SSL":"1374    0841","WARD":"Ward 3"}},{"type":"Feature","id":35,"geometry":{"type":"Point","coordinates":[-76.99535887373578,38.89232958171308],"bbox":[-76.99535887373578,38.89232958171308,-76.99535887373578,38.89232958171308]},"properties":{"OBJECTID":35,"NAME":"Specialty Hospital of Washington","ADDRESS":"700 CONSTITUTION AVENUE NE","X":400402.83,"Y":136052.97,"ADDRID":295162,"CITY":"WASHINGTON","STATE":"DC","ZIPCODE":20002,"PHONE":2025434800,"FACTYPE":"Other","SEASONAL":null,"H1N1":null,"SSL":"0895    0844","WARD":"Ward 6"}},{"type":"Feature","id":36,"geometry":{"type":"Point","coordinates":[-77.04058830007153,38.89812797474068],"bbox":[-77.04058830007153,38.89812797474068,-77.04058830007153,38.89812797474068]},"properties":{"OBJECTID":36,"NAME":"CVS/Pharmacy #57","ADDRESS":"1716 G STREET NW","X":396479.32,"Y":136697.41,"ADDRID":295003,"CITY":"WASHINGTON","STATE":"DC","ZIPCODE":20006,"PHONE":2022891616,"FACTYPE":"Pharmacy","SEASONAL":"Y","H1N1":"N","SSL":"0169    0832","WARD":"Ward 2"}},{"type":"Feature","id":37,"geometry":{"type":"Point","coordinates":[-77.09779632910674,38.946080646969364],"bbox":[-77.09779632910674,38.946080646969364,-77.09779632910674,38.946080646969364]},"properties":{"OBJECTID":37,"NAME":"Spring Valley Health and Wellness","ADDRESS":"4910 MASSACHUSETTS AVENUE NW","X":391522.45,"Y":142024.32,"ADDRID":269771,"CITY":"WASHINGTON","STATE":"DC","ZIPCODE":20016,"PHONE":0,"FACTYPE":"Other","SEASONAL":null,"H1N1":null,"SSL":"1467    0882","WARD":"Ward 3"}},{"type":"Feature","id":38,"geometry":{"type":"Point","coordinates":[-77.01439597648837,38.92937451433611],"bbox":[-77.01439597648837,38.92937451433611,-77.01439597648837,38.92937451433611]},"properties":{"OBJECTID":38,"NAME":"Medical Star Pharmacy","ADDRESS":"106 IRVING STREET NW","X":398751.95,"Y":140165.35,"ADDRID":301960,"CITY":"WASHINGTON","STATE":"DC","ZIPCODE":20010,"PHONE":0,"FACTYPE":"Pharmacy","SEASONAL":null,"H1N1":null,"SSL":"3129    0804","WARD":"Ward 5"}},{"type":"Feature","id":39,"geometry":{"type":"Point","coordinates":[-77.03005655348328,38.91678312536244],"bbox":[-77.03005655348328,38.91678312536244,-77.03005655348328,38.91678312536244]},"properties":{"OBJECTID":39,"NAME":"Rite Aid Pharmacy #3351","ADDRESS":"1306 U STREET NW","X":397393.59,"Y":138767.93,"ADDRID":302367,"CITY":"WASHINGTON","STATE":"DC","ZIPCODE":20009,"PHONE":2023288761,"FACTYPE":"Pharmacy","SEASONAL":null,"H1N1":null,"SSL":"0237    0205","WARD":"Ward 1"}},{"type":"Feature","id":40,"geometry":{"type":"Point","coordinates":[-76.98995732598824,38.88261685705123],"bbox":[-76.98995732598824,38.88261685705123,-76.98995732598824,38.88261685705123]},"properties":{"OBJECTID":40,"NAME":"CVS/Pharmacy #1344","ADDRESS":"500 12TH STREET SE","X":400871.55,"Y":134974.82,"ADDRID":288394,"CITY":"WASHINGTON","STATE":"DC","ZIPCODE":20003,"PHONE":2025431555,"FACTYPE":"Pharmacy","SEASONAL":"Y","H1N1":"N","SSL":"1019    0828","WARD":"Ward 6"}},{"type":"Feature","id":41,"geometry":{"type":"Point","coordinates":[-76.9866249868354,38.88020966142492],"bbox":[-76.9866249868354,38.88020966142492,-76.9866249868354,38.88020966142492]},"properties":{"OBJECTID":41,"NAME":"Harris Teeter, Inc.","ADDRESS":"1350 POTOMAC AVENUE SE","X":401160.72000000003,"Y":134707.64,"ADDRID":303730,"CITY":"WASHINGTON","STATE":"DC","ZIPCODE":20003,"PHONE":0,"FACTYPE":"Pharmacy","SEASONAL":"N","H1N1":"N","SSL":"1045    0138","WARD":"Ward 6"}},{"type":"Feature","id":42,"geometry":{"type":"Point","coordinates":[-77.05053205741098,38.90320192919575],"bbox":[-77.05053205741098,38.90320192919575,-77.05053205741098,38.90320192919575]},"properties":{"OBJECTID":42,"NAME":"Mark M. Sklar, M.D.","ADDRESS":"3 WASHINGTON CIRCLE NW","X":395617.05,"Y":137261.09,"ADDRID":226081,"CITY":"WASHINGTON","STATE":"DC","ZIPCODE":20037,"PHONE":0,"FACTYPE":"Other","SEASONAL":null,"H1N1":null,"SSL":"0038    0039","WARD":"Ward 2"}},{"type":"Feature","id":43,"geometry":{"type":"Point","coordinates":[-77.04292132388882,38.90789418099957],"bbox":[-77.04292132388882,38.90789418099957,-77.04292132388882,38.90789418099957]},"properties":{"OBJECTID":43,"NAME":"Tschiffely Pharmacy","ADDRESS":"1330 CONNECTICUT AVENUE NW","X":396277.45,"Y":137781.63,"ADDRID":218103,"CITY":"WASHINGTON","STATE":"DC","ZIPCODE":20036,"PHONE":2023317176,"FACTYPE":"Pharmacy","SEASONAL":null,"H1N1":null,"SSL":"0138    0803","WARD":"Ward 2"}},{"type":"Feature","id":44,"geometry":{"type":"Point","coordinates":[-77.05940330130274,38.93644822019158],"bbox":[-77.05940330130274,38.93644822019158,-77.05940330130274,38.93644822019158]},"properties":{"OBJECTID":44,"NAME":"Walgreens","ADDRESS":"3524 CONNECTICUT AVENUE NW","X":394849.96,"Y":140952.17,"ADDRID":220938,"CITY":"WASHINGTON","STATE":"DC","ZIPCODE":20008,"PHONE":2026866927,"FACTYPE":"Pharmacy","SEASONAL":null,"H1N1":null,"SSL":"2068    0039","WARD":"Ward 3"}},{"type":"Feature","id":45,"geometry":{"type":"Point","coordinates":[-77.05035417103552,38.90548247097927],"bbox":[-77.05035417103552,38.90548247097927,-77.05035417103552,38.90548247097927]},"properties":{"OBJECTID":45,"NAME":"Kaiser Permanente Pharmacy","ADDRESS":"2301 M STREET NW","X":395632.62,"Y":137514.24,"ADDRID":242336,"CITY":"WASHINGTON","STATE":"DC","ZIPCODE":20037,"PHONE":2024196200,"FACTYPE":"Pharmacy","SEASONAL":null,"H1N1":null,"SSL":"0036    0846","WARD":"Ward 2"}},{"type":"Feature","id":46,"geometry":{"type":"Point","coordinates":[-77.04578709665066,38.90341531137431],"bbox":[-77.04578709665066,38.90341531137431,-77.04578709665066,38.90341531137431]},"properties":{"OBJECTID":46,"NAME":"CVS/Pharmacy #2208","ADDRESS":"2000 L STREET NW","X":396028.64,"Y":137284.56,"ADDRID":243349,"CITY":"WASHINGTON","STATE":"DC","ZIPCODE":20036,"PHONE":2024526194,"FACTYPE":"Pharmacy","SEASONAL":"Y","H1N1":"N","SSL":"0076    0865","WARD":"Ward 2"}},{"type":"Feature","id":47,"geometry":{"type":"Point","coordinates":[-77.03973727274916,38.90403991310442],"bbox":[-77.03973727274916,38.90403991310442,-77.03973727274916,38.90403991310442]},"properties":{"OBJECTID":47,"NAME":"CVS/Pharmacy #6069","ADDRESS":"1101 CONNECTICUT AVENUE NW","X":396553.43,"Y":137353.65,"ADDRID":241795,"CITY":"WASHINGTON","STATE":"DC","ZIPCODE":20036,"PHONE":2027890136,"FACTYPE":"Pharmacy","SEASONAL":"Y","H1N1":"N","SSL":"0162    0096","WARD":"Ward 2"}},{"type":"Feature","id":48,"geometry":{"type":"Point","coordinates":[-77.027266943065,38.953737755959885],"bbox":[-77.027266943065,38.953737755959885,-77.027266943065,38.953737755959885]},"properties":{"OBJECTID":48,"NAME":"CVS/Pharmacy #1349","ADDRESS":"5227 GEORGIA AVENUE NW","X":397636.74,"Y":142870.14,"ADDRID":251714,"CITY":"WASHINGTON","STATE":"DC","ZIPCODE":20011,"PHONE":2027235811,"FACTYPE":"Pharmacy","SEASONAL":"Y","H1N1":"N","SSL":"3001    0089","WARD":"Ward 4"}},{"type":"Feature","id":49,"geometry":{"type":"Point","coordinates":[-77.00394445278046,38.876959050725304],"bbox":[-77.00394445278046,38.876959050725304,-77.00394445278046,38.876959050725304]},"properties":{"OBJECTID":49,"NAME":"CVS/Pharmacy #7102","ADDRESS":"1100 NEW JERSEY AVENUE SE","X":399657.93,"Y":134346.72,"ADDRID":285822,"CITY":"WASHINGTON","STATE":"DC","ZIPCODE":20003,"PHONE":2024882364,"FACTYPE":"Pharmacy","SEASONAL":"Y","H1N1":"N","SSL":"0742    0039","WARD":"Ward 6"}},{"type":"Feature","id":50,"geometry":{"type":"Point","coordinates":[-77.02588919594292,38.883828118859675],"bbox":[-77.02588919594292,38.883828118859675,-77.02588919594292,38.883828118859675]},"properties":{"OBJECTID":50,"NAME":"CVS/Pharmacy #1345","ADDRESS":"433 LENFANT PLAZA SW","X":397753.96,"Y":135109.55,"ADDRID":302403,"CITY":"WASHINGTON","STATE":"DC","ZIPCODE":20260,"PHONE":2025545270,"FACTYPE":"Pharmacy","SEASONAL":"Y","H1N1":"N","SSL":" ","WARD":"Ward 6"}},{"type":"Feature","id":51,"geometry":{"type":"Point","coordinates":[-77.02273216786384,38.8959519791804],"bbox":[-77.02273216786384,38.8959519791804,-77.02273216786384,38.8959519791804]},"properties":{"OBJECTID":51,"NAME":"CVS/Pharmacy #2490","ADDRESS":"435 8TH STREET NW","X":398028.21,"Y":136455.32,"ADDRID":301053,"CITY":"WASHINGTON","STATE":"DC","ZIPCODE":20004,"PHONE":2027834293,"FACTYPE":"Pharmacy","SEASONAL":"Y","H1N1":"N","SSL":"0431    0024","WARD":"Ward 2"}},{"type":"Feature","id":52,"geometry":{"type":"Point","coordinates":[-77.04850400264898,38.905518656597486],"bbox":[-77.04850400264898,38.905518656597486,-77.04850400264898,38.905518656597486]},"properties":{"OBJECTID":52,"NAME":"WALGREENS #10071","ADDRESS":"1217 22ND STREET NW","X":395793.10000000003,"Y":137518.17,"ADDRID":294975,"CITY":"WASHINGTON","STATE":"DC","ZIPCODE":20037,"PHONE":0,"FACTYPE":"Pharmacy","SEASONAL":null,"H1N1":null,"SSL":"0070    0884","WARD":"Ward 2"}},{"type":"Feature","id":53,"geometry":{"type":"Point","coordinates":[-77.04944445595535,38.90506487195198],"bbox":[-77.04944445595535,38.90506487195198,-77.04944445595535,38.90506487195198]},"properties":{"OBJECTID":53,"NAME":"CVS/Pharmacy #7074","ADDRESS":"2240 M STREET NW","X":395711.5,"Y":137467.84,"ADDRID":300189,"CITY":"WASHINGTON","STATE":"DC","ZIPCODE":20037,"PHONE":2022969877,"FACTYPE":"Pharmacy","SEASONAL":"Y","H1N1":"N","SSL":"0051    0079","WARD":"Ward 2"}},{"type":"Feature","id":54,"geometry":{"type":"Point","coordinates":[-77.01835491740452,38.90349680088984],"bbox":[-77.01835491740452,38.90349680088984,-77.01835491740452,38.90349680088984]},"properties":{"OBJECTID":54,"NAME":"SAFEWAY PHARMACY #2737","ADDRESS":"490 L STREET NW","X":398408.10000000003,"Y":137292.77,"ADDRID":304767,"CITY":"WASHINGTON","STATE":"DC","ZIPCODE":20001,"PHONE":0,"FACTYPE":"Pharmacy","SEASONAL":null,"H1N1":null,"SSL":"0515    0158","WARD":"Ward 6"}},{"type":"Feature","id":55,"geometry":{"type":"Point","coordinates":[-76.99433636633427,38.90042931894861],"bbox":[-76.99433636633427,38.90042931894861,-76.99433636633427,38.90042931894861]},"properties":{"OBJECTID":55,"NAME":"H Street Care & Wellness Center","ADDRESS":"812 H STREET NE","X":400491.48,"Y":136952.11000000002,"ADDRID":151166,"CITY":"WASHINGTON","STATE":"DC","ZIPCODE":20002,"PHONE":2026219667,"FACTYPE":"Other","SEASONAL":"N","H1N1":"Y","SSL":"0911    0075","WARD":"Ward 6"}},{"type":"Feature","id":56,"geometry":{"type":"Point","coordinates":[-77.01439600787107,38.927273865682935],"bbox":[-77.01439600787107,38.927273865682935,-77.01439600787107,38.927273865682935]},"properties":{"OBJECTID":56,"NAME":"Childrens National Med Center Pharmacy","ADDRESS":"111 MICHIGAN AVENUE NW","X":398751.91000000003,"Y":139932.16,"ADDRID":243365,"CITY":"WASHINGTON","STATE":"DC","ZIPCODE":20010,"PHONE":2024762056,"FACTYPE":"Pharmacy","SEASONAL":null,"H1N1":null,"SSL":"3129    0801","WARD":"Ward 5"}},{"type":"Feature","id":57,"geometry":{"type":"Point","coordinates":[-77.04577809351335,38.90036283266846],"bbox":[-77.04577809351335,38.90036283266846,-77.04577809351335,38.90036283266846]},"properties":{"OBJECTID":57,"NAME":"CVS/Pharmacy #2847","ADDRESS":"2000 PENNSYLVANIA AVENUE NW","X":396029.25,"Y":136945.71,"ADDRID":243283,"CITY":"WASHINGTON","STATE":"DC","ZIPCODE":20006,"PHONE":2022960329,"FACTYPE":"Pharmacy","SEASONAL":"Y","H1N1":"N","SSL":"0101    0058","WARD":"Ward 2"}},{"type":"Feature","id":58,"geometry":{"type":"Point","coordinates":[-77.05063898656881,38.90132679317358],"bbox":[-77.05063898656881,38.90132679317358,-77.05063898656881,38.90132679317358]},"properties":{"OBJECTID":58,"NAME":"George Washington University Hospital Pharmacy","ADDRESS":"900 23RD STREET NW","X":395607.66000000003,"Y":137052.94,"ADDRID":242349,"CITY":"WASHINGTON","STATE":"DC","ZIPCODE":20037,"PHONE":2027155035,"FACTYPE":"Pharmacy","SEASONAL":"N","H1N1":"Y","SSL":"0040    0036","WARD":"Ward 2"}},{"type":"Feature","id":59,"geometry":{"type":"Point","coordinates":[-77.0437975147778,38.90068906407562],"bbox":[-77.0437975147778,38.90068906407562,-77.0437975147778,38.90068906407562]},"properties":{"OBJECTID":59,"NAME":"CVS/PHARMACY #1842","ADDRESS":"1901 PENNSYLVANIA AVENUE NW","X":396201.07,"Y":136981.84,"ADDRID":218549,"CITY":"WASHINGTON","STATE":"DC","ZIPCODE":20006,"PHONE":0,"FACTYPE":"Pharmacy","SEASONAL":"Y","H1N1":"N","SSL":"0118    0818","WARD":"Ward 2"}},{"type":"Feature","id":60,"geometry":{"type":"Point","coordinates":[-77.03223333924664,38.92847570953521],"bbox":[-77.03223333924664,38.92847570953521,-77.03223333924664,38.92847570953521]},"properties":{"OBJECTID":60,"NAME":"CVS/Pharmacy #2834","ADDRESS":"3031 14TH STREET NW","X":397205.27,"Y":140065.97,"ADDRID":284557,"CITY":"WASHINGTON","STATE":"DC","ZIPCODE":20009,"PHONE":2023324865,"FACTYPE":"Pharmacy","SEASONAL":"Y","H1N1":"N","SSL":"2849    0108","WARD":"Ward 1"}},{"type":"Feature","id":61,"geometry":{"type":"Point","coordinates":[-77.02221017134934,38.915849725170474],"bbox":[-77.02221017134934,38.915849725170474,-77.02221017134934,38.915849725170474]},"properties":{"OBJECTID":61,"NAME":"CVS/Pharmacy #1355","ADDRESS":"1900 7TH STREET NW","X":398074.03,"Y":138664.12,"ADDRID":238381,"CITY":"WASHINGTON","STATE":"DC","ZIPCODE":20001,"PHONE":2022322201,"FACTYPE":"Pharmacy","SEASONAL":"Y","H1N1":"N","SSL":"0416    0030","WARD":"Ward 1"}},{"type":"Feature","id":62,"geometry":{"type":"Point","coordinates":[-76.99990691748883,38.921847780356295],"bbox":[-76.99990691748883,38.921847780356295,-76.99990691748883,38.921847780356295]},"properties":{"OBJECTID":62,"NAME":"SAFEWAY PHARMACY #0271","ADDRESS":"514 RHODE ISLAND AVENUE NE","X":400008.27,"Y":139329.72,"ADDRID":288529,"CITY":"WASHINGTON","STATE":"DC","ZIPCODE":20002,"PHONE":0,"FACTYPE":"Pharmacy","SEASONAL":null,"H1N1":null,"SSL":"3629    0007","WARD":"Ward 5"}},{"type":"Feature","id":63,"geometry":{"type":"Point","coordinates":[-76.99694528059815,38.8853708420202],"bbox":[-76.99694528059815,38.8853708420202,-76.99694528059815,38.8853708420202]},"properties":{"OBJECTID":63,"NAME":"Capitol Hill Care Pharmacy","ADDRESS":"650 PENNSYLVANIA AVENUE SE","X":400265.23,"Y":135280.49,"ADDRID":280033,"CITY":"WASHINGTON","STATE":"DC","ZIPCODE":20003,"PHONE":2025480008,"FACTYPE":"Pharmacy","SEASONAL":null,"H1N1":null,"SSL":"0873    0831","WARD":"Ward 6"}},{"type":"Feature","id":64,"geometry":{"type":"Point","coordinates":[-77.07528329588389,38.91205804343605],"bbox":[-77.07528329588389,38.91205804343605,-77.07528329588389,38.91205804343605]},"properties":{"OBJECTID":64,"NAME":"Georgetown University Hospital Pharmacy","ADDRESS":"3800 RESERVOIR ROAD NW","X":393470.94,"Y":138245.67,"ADDRID":291547,"CITY":"WASHINGTON","STATE":"DC","ZIPCODE":20007,"PHONE":8555460615,"FACTYPE":"Pharmacy","SEASONAL":"N","H1N1":"Y","SSL":"1321    0824","WARD":"Ward 2"}},{"type":"Feature","id":65,"geometry":{"type":"Point","coordinates":[-77.03825246222657,38.91135167451025],"bbox":[-77.03825246222657,38.91135167451025,-77.03825246222657,38.91135167451025]},"properties":{"OBJECTID":65,"NAME":"Careplus Pharmacy","ADDRESS":"1601 17TH STREET NW","X":396682.56,"Y":138165.26,"ADDRID":279240,"CITY":"WASHINGTON","STATE":"DC","ZIPCODE":20009,"PHONE":2025880186,"FACTYPE":"Pharmacy","SEASONAL":null,"H1N1":null,"SSL":"0179    0113","WARD":"Ward 2"}},{"type":"Feature","id":66,"geometry":{"type":"Point","coordinates":[-76.96839291422852,38.861952146750184],"bbox":[-76.96839291422852,38.861952146750184,-76.96839291422852,38.861952146750184]},"properties":{"OBJECTID":66,"NAME":"CVS/Pharmacy #1360","ADDRESS":"2646 NAYLOR ROAD SE","X":402743.38,"Y":132681.31,"ADDRID":287162,"CITY":"WASHINGTON","STATE":"DC","ZIPCODE":20020,"PHONE":2025824800,"FACTYPE":"Pharmacy","SEASONAL":"Y","H1N1":"N","SSL":"PAR 02130061","WARD":"Ward 7"}},{"type":"Feature","id":67,"geometry":{"type":"Point","coordinates":[-76.94748990615251,38.89303665046035],"bbox":[-76.94748990615251,38.89303665046035,-76.94748990615251,38.89303665046035]},"properties":{"OBJECTID":67,"NAME":"CVS/PHARMACY #22","ADDRESS":"320 40TH STREET NE","X":404555.57,"Y":136132.76,"ADDRID":295139,"CITY":"WASHINGTON","STATE":"DC","ZIPCODE":20019,"PHONE":0,"FACTYPE":"Pharmacy","SEASONAL":"Y","H1N1":"N","SSL":"5051N   0840","WARD":"Ward 7"}},{"type":"Feature","id":68,"geometry":{"type":"Point","coordinates":[-76.98370447935143,38.92491929305607],"bbox":[-76.98370447935143,38.92491929305607,-76.98370447935143,38.92491929305607]},"properties":{"OBJECTID":68,"NAME":"Rite Aid Pharmacy #4957","ADDRESS":"1401 RHODE ISLAND AVENUE NE","X":401413.24,"Y":139670.81,"ADDRID":65128,"CITY":"WASHINGTON","STATE":"DC","ZIPCODE":20018,"PHONE":2026363648,"FACTYPE":"Pharmacy","SEASONAL":null,"H1N1":null,"SSL":"4128    0080","WARD":"Ward 5"}},{"type":"Feature","id":69,"geometry":{"type":"Point","coordinates":[-77.03822029202037,38.909842967613805],"bbox":[-77.03822029202037,38.909842967613805,-77.03822029202037,38.909842967613805]},"properties":{"OBJECTID":69,"NAME":"CVS/Pharmacy #1365","ADDRESS":"1637 P STREET NW","X":396685.28,"Y":137997.78,"ADDRID":225837,"CITY":"WASHINGTON","STATE":"DC","ZIPCODE":20036,"PHONE":2023281250,"FACTYPE":"Pharmacy","SEASONAL":"Y","H1N1":"N","SSL":"0180    0088","WARD":"Ward 2"}},{"type":"Feature","id":70,"geometry":{"type":"Point","coordinates":[-77.0286541040564,38.95764142677717],"bbox":[-77.0286541040564,38.95764142677717,-77.0286541040564,38.95764142677717]},"properties":{"OBJECTID":70,"NAME":"Rite Aid Pharmacy #2653","ADDRESS":"5600 GEORGIA AVENUE NW","X":397516.64,"Y":143303.52,"ADDRID":253107,"CITY":"WASHINGTON","STATE":"DC","ZIPCODE":20011,"PHONE":2027225252,"FACTYPE":"Pharmacy","SEASONAL":null,"H1N1":null,"SSL":"2934    0044","WARD":"Ward 4"}},{"type":"Feature","id":71,"geometry":{"type":"Point","coordinates":[-76.99123160929233,38.94329505774602],"bbox":[-76.99123160929233,38.94329505774602,-76.99123160929233,38.94329505774602]},"properties":{"OBJECTID":71,"NAME":"Providence Hosptial Pharmacy","ADDRESS":"1150 VARNUM STREET NE","X":400760.34,"Y":141710.59,"ADDRID":289609,"CITY":"WASHINGTON","STATE":"DC","ZIPCODE":20017,"PHONE":2028547856,"FACTYPE":"Pharmacy","SEASONAL":null,"H1N1":null,"SSL":"3894    0826","WARD":"Ward 5"}},{"type":"Feature","id":72,"geometry":{"type":"Point","coordinates":[-77.03285271861816,38.9093502222475],"bbox":[-77.03285271861816,38.9093502222475,-77.03285271861816,38.9093502222475]},"properties":{"OBJECTID":72,"NAME":"CVS/Pharmacy #2817","ADDRESS":"1418 P STREET NW","X":397150.8,"Y":137942.9,"ADDRID":279148,"CITY":"WASHINGTON","STATE":"DC","ZIPCODE":20005,"PHONE":2029395735,"FACTYPE":"Pharmacy","SEASONAL":"Y","H1N1":"N","SSL":"0210    0125","WARD":"Ward 2"}},{"type":"Feature","id":73,"geometry":{"type":"Point","coordinates":[-77.03844187391378,38.92198694131333],"bbox":[-77.03844187391378,38.92198694131333,-77.03844187391378,38.92198694131333]},"properties":{"OBJECTID":73,"NAME":"Harris Teeter, Inc.","ADDRESS":"1631 KALORAMA ROAD NW","X":396666.63,"Y":139345.87,"ADDRID":284059,"CITY":"WASHINGTON","STATE":"DC","ZIPCODE":20009,"PHONE":0,"FACTYPE":"Pharmacy","SEASONAL":"N","H1N1":"N","SSL":"2572    0036","WARD":"Ward 1"}},{"type":"Feature","id":74,"geometry":{"type":"Point","coordinates":[-77.03237338875937,38.90442341935966],"bbox":[-77.03237338875937,38.90442341935966,-77.03237338875937,38.90442341935966]},"properties":{"OBJECTID":74,"NAME":"CVS/PHARMACY #1341","ADDRESS":"1199 VERMONT AVENUE NW","X":397192.18,"Y":137395.97,"ADDRID":278914,"CITY":"WASHINGTON","STATE":"DC","ZIPCODE":20005,"PHONE":0,"FACTYPE":"Pharmacy","SEASONAL":"Y","H1N1":"N","SSL":"0215    0012","WARD":"Ward 2"}},{"type":"Feature","id":75,"geometry":{"type":"Point","coordinates":[-77.04777657648133,38.896304214768314],"bbox":[-77.04777657648133,38.896304214768314,-77.04777657648133,38.896304214768314]},"properties":{"OBJECTID":75,"NAME":"CVS/Pharmacy #1358","ADDRESS":"2125 E STREET NW","X":395855.66000000003,"Y":136495.26,"ADDRID":300954,"CITY":"WASHINGTON","STATE":"DC","ZIPCODE":20037,"PHONE":2023386337,"FACTYPE":"Pharmacy","SEASONAL":"Y","H1N1":"N","SSL":"0081    0844","WARD":"Ward 2"}},{"type":"Feature","id":76,"geometry":{"type":"Point","coordinates":[-77.08007367219298,38.94939647693606],"bbox":[-77.08007367219298,38.94939647693606,-77.08007367219298,38.94939647693606]},"properties":{"OBJECTID":76,"NAME":"CVS/Pharmacy #2174","ADDRESS":"4555 WISCONSIN AVENUE NW","X":393059.11,"Y":142390.91,"ADDRID":300795,"CITY":"WASHINGTON","STATE":"DC","ZIPCODE":20016,"PHONE":2025371587,"FACTYPE":"Pharmacy","SEASONAL":"Y","H1N1":"N","SSL":"1770    0023","WARD":"Ward 3"}},{"type":"Feature","id":77,"geometry":{"type":"Point","coordinates":[-76.99243094024847,38.91922980577248],"bbox":[-76.99243094024847,38.91922980577248,-76.99243094024847,38.91922980577248]},"properties":{"OBJECTID":77,"NAME":"Giant Food Pharmacy #375","ADDRESS":"1050 BRENTWOOD ROAD NE","X":400656.59,"Y":139039.13,"ADDRID":299835,"CITY":"WASHINGTON","STATE":"DC","ZIPCODE":20018,"PHONE":2022813901,"FACTYPE":"Pharmacy","SEASONAL":"N","H1N1":"N","SSL":"3854    0802","WARD":"Ward 5"}},{"type":"Feature","id":78,"geometry":{"type":"Point","coordinates":[-77.04455020887069,38.902192364660756],"bbox":[-77.04455020887069,38.902192364660756,-77.04455020887069,38.902192364660756]},"properties":{"OBJECTID":78,"NAME":"CVS/Pharmacy #1839","ADDRESS":"1990 K STREET NW","X":396135.86,"Y":137148.75,"ADDRID":218576,"CITY":"WASHINGTON","STATE":"DC","ZIPCODE":20006,"PHONE":2022238735,"FACTYPE":"Pharmacy","SEASONAL":"Y","H1N1":"N","SSL":"0086    0042","WARD":"Ward 2"}},{"type":"Feature","id":79,"geometry":{"type":"Point","coordinates":[-76.99192977576068,38.899987767892696],"bbox":[-76.99192977576068,38.899987767892696,-76.99192977576068,38.899987767892696]},"properties":{"OBJECTID":79,"NAME":"Super Pharmacy","ADDRESS":"1019 H STREET NE","X":400700.24,"Y":136903.11000000002,"ADDRID":75505,"CITY":"WASHINGTON","STATE":"DC","ZIPCODE":20002,"PHONE":2023880050,"FACTYPE":"Pharmacy","SEASONAL":null,"H1N1":null,"SSL":"0959    0020","WARD":"Ward 6"}},{"type":"Feature","id":80,"geometry":{"type":"Point","coordinates":[-77.01688257821131,38.900106817680864],"bbox":[-77.01688257821131,38.900106817680864,-77.01688257821131,38.900106817680864]},"properties":{"OBJECTID":80,"NAME":"CVS/Pharmacy #7218","ADDRESS":"400 MASSACHUSETTS AVENUE NW","X":398535.74,"Y":136916.43,"ADDRID":289390,"CITY":"WASHINGTON","STATE":"DC","ZIPCODE":20001,"PHONE":2022892236,"FACTYPE":"Pharmacy","SEASONAL":"Y","H1N1":"N","SSL":"0517    0051","WARD":"Ward 2"}},{"type":"Feature","id":81,"geometry":{"type":"Point","coordinates":[-77.03156081112677,38.898906743019424],"bbox":[-77.03156081112677,38.898906743019424,-77.03156081112677,38.898906743019424]},"properties":{"OBJECTID":81,"NAME":"CVS/PHARMACY #1334","ADDRESS":"717 14TH STREET NW","X":397262.45,"Y":136783.55,"ADDRID":279904,"CITY":"WASHINGTON","STATE":"DC","ZIPCODE":20005,"PHONE":0,"FACTYPE":"Pharmacy","SEASONAL":"Y","H1N1":"N","SSL":"0252    0078","WARD":"Ward 2"}},{"type":"Feature","id":82,"geometry":{"type":"Point","coordinates":[-76.99645585997476,38.899982227448405],"bbox":[-76.99645585997476,38.899982227448405,-76.99645585997476,38.899982227448405]},"properties":{"OBJECTID":82,"NAME":"CVS/Pharmacy #10287","ADDRESS":"645 H STREET NE","X":400307.63,"Y":136902.47,"ADDRID":288821,"CITY":"WASHINGTON","STATE":"DC","ZIPCODE":20002,"PHONE":2025441878,"FACTYPE":"Pharmacy","SEASONAL":"Y","H1N1":"N","SSL":"0859    0839","WARD":"Ward 6"}},{"type":"Feature","id":83,"geometry":{"type":"Point","coordinates":[-77.06951569567839,38.95537022298044],"bbox":[-77.06951569567839,38.95537022298044,-77.06951569567839,38.95537022298044]},"properties":{"OBJECTID":83,"NAME":"CVS/Pharmacy #2104","ADDRESS":"5013 CONNECTICUT AVENUE NW","X":393974.82,"Y":143053.30000000002,"ADDRID":262738,"CITY":"WASHINGTON","STATE":"DC","ZIPCODE":20008,"PHONE":2029661815,"FACTYPE":"Pharmacy","SEASONAL":"Y","H1N1":"N","SSL":"1986    0008","WARD":"Ward 3"}},{"type":"Feature","id":84,"geometry":{"type":"Point","coordinates":[-77.08648967336961,38.90777564410672],"bbox":[-77.08648967336961,38.90777564410672,-77.08648967336961,38.90777564410672]},"properties":{"OBJECTID":84,"NAME":"Georgetown Day School Lower/Middle School Campus","ADDRESS":"4530 MACARTHUR BOULEVARD NW","X":392498.57,"Y":137771.15,"ADDRID":275307,"CITY":"WASHINGTON","STATE":"DC","ZIPCODE":20007,"PHONE":0,"FACTYPE":"Other","SEASONAL":"N","H1N1":"Y","SSL":"1356    0899","WARD":"Ward 3"}},{"type":"Feature","id":85,"geometry":{"type":"Point","coordinates":[-77.05769844566345,38.905518981689156],"bbox":[-77.05769844566345,38.905518981689156,-77.05769844566345,38.905518981689156]},"properties":{"OBJECTID":85,"NAME":"CVS/Pharmacy #2039","ADDRESS":"2819 M STREET NW","X":394995.60000000003,"Y":137518.67,"ADDRID":272093,"CITY":"WASHINGTON","STATE":"DC","ZIPCODE":20007,"PHONE":2023331592,"FACTYPE":"Pharmacy","SEASONAL":"Y","H1N1":"N","SSL":"1212    0807","WARD":"Ward 2"}},{"type":"Feature","id":86,"geometry":{"type":"Point","coordinates":[-77.07490967685338,38.964600719775945],"bbox":[-77.07490967685338,38.964600719775945,-77.07490967685338,38.964600719775945]},"properties":{"OBJECTID":86,"NAME":"SAFEWAY PHARMACY #4832","ADDRESS":"5545 CONNECTICUT AVENUE NW","X":393508.13,"Y":144078.34,"ADDRID":263999,"CITY":"WASHINGTON","STATE":"DC","ZIPCODE":20015,"PHONE":0,"FACTYPE":"Pharmacy","SEASONAL":null,"H1N1":null,"SSL":"1867    0092","WARD":"Ward 3"}},{"type":"Feature","id":87,"geometry":{"type":"Point","coordinates":[-76.99090890959268,38.933815152719845],"bbox":[-76.99090890959268,38.933815152719845,-76.99090890959268,38.933815152719845]},"properties":{"OBJECTID":87,"NAME":"CVS/Pharmacy #1333","ADDRESS":"3601 12TH STREET NE","X":400788.42,"Y":140658.24,"ADDRID":289172,"CITY":"WASHINGTON","STATE":"DC","ZIPCODE":20017,"PHONE":2025298559,"FACTYPE":"Pharmacy","SEASONAL":"Y","H1N1":"N","SSL":"3927    0812","WARD":"Ward 5"}},{"type":"Feature","id":88,"geometry":{"type":"Point","coordinates":[-77.06644132840322,38.91643452251136],"bbox":[-77.06644132840322,38.91643452251136,-77.06644132840322,38.91643452251136]},"properties":{"OBJECTID":88,"NAME":"SAFEWAY PHARMACY","ADDRESS":"3265 S STREET NW","X":394201.67,"Y":138652.15,"ADDRID":273636,"CITY":"WASHINGTON","STATE":"DC","ZIPCODE":20007,"PHONE":0,"FACTYPE":"Pharmacy","SEASONAL":null,"H1N1":null,"SSL":"1299    1010","WARD":"Ward 2"}},{"type":"Feature","id":89,"geometry":{"type":"Point","coordinates":[-77.09583449206883,38.945936787919635],"bbox":[-77.09583449206883,38.945936787919635,-77.09583449206883,38.945936787919635]},"properties":{"OBJECTID":89,"NAME":"CVS/Pharmacy #1343","ADDRESS":"4851 MASSACHUSETTS AVENUE NW","X":391692.5,"Y":142008.17,"ADDRID":284996,"CITY":"WASHINGTON","STATE":"DC","ZIPCODE":20016,"PHONE":2023639554,"FACTYPE":"Pharmacy","SEASONAL":"Y","H1N1":"N","SSL":"1499    0803","WARD":"Ward 3"}},{"type":"Feature","id":90,"geometry":{"type":"Point","coordinates":[-76.9964045339457,38.884470168371585],"bbox":[-76.9964045339457,38.884470168371585,-76.9964045339457,38.884470168371585]},"properties":{"OBJECTID":90,"NAME":"CVS/Pharmacy #1338","ADDRESS":"661 PENNSYLVANIA AVENUE SE","X":400312.15,"Y":135180.51,"ADDRID":280104,"CITY":"WASHINGTON","STATE":"DC","ZIPCODE":20003,"PHONE":2025433305,"FACTYPE":"Pharmacy","SEASONAL":"Y","H1N1":"N","SSL":"0874    0052","WARD":"Ward 6"}},{"type":"Feature","id":91,"geometry":{"type":"Point","coordinates":[-77.02935357973611,38.88469913108346],"bbox":[-77.02935357973611,38.88469913108346,-77.02935357973611,38.88469913108346]},"properties":{"OBJECTID":91,"NAME":"CVS/Pharmacy #8359","ADDRESS":"1201 MARYLAND AVENUE SW","X":397453.41000000003,"Y":135206.33000000002,"ADDRID":300320,"CITY":"WASHINGTON","STATE":"DC","ZIPCODE":20024,"PHONE":2024880243,"FACTYPE":"Pharmacy","SEASONAL":"Y","H1N1":"N","SSL":"0267    0042","WARD":"Ward 6"}},{"type":"Feature","id":92,"geometry":{"type":"Point","coordinates":[-77.10924120633734,38.93622858607263],"bbox":[-77.10924120633734,38.93622858607263,-77.10924120633734,38.93622858607263]},"properties":{"OBJECTID":92,"NAME":"Sibley Memorial Hospital Pharmacy","ADDRESS":"5255 LOUGHBORO ROAD NW","X":390529.01,"Y":140931.78,"ADDRID":295156,"CITY":"WASHINGTON","STATE":"DC","ZIPCODE":20016,"PHONE":2025374171,"FACTYPE":"Pharmacy","SEASONAL":null,"H1N1":null,"SSL":"1448N   0806","WARD":"Ward 3"}},{"type":"Feature","id":93,"geometry":{"type":"Point","coordinates":[-77.05439447421327,38.8986106152018],"bbox":[-77.05439447421327,38.8986106152018,-77.05439447421327,38.8986106152018]},"properties":{"OBJECTID":93,"NAME":"CVS/Pharmacy #1332","ADDRESS":"2530 VIRGINIA AVENUE NW","X":395281.72000000003,"Y":136751.61000000002,"ADDRID":300837,"CITY":"WASHINGTON","STATE":"DC","ZIPCODE":20037,"PHONE":2023335031,"FACTYPE":"Pharmacy","SEASONAL":"Y","H1N1":"N","SSL":"0008    0806","WARD":"Ward 2"}},{"type":"Feature","id":94,"geometry":{"type":"Point","coordinates":[-76.98475296485591,38.83602661895798],"bbox":[-76.98475296485591,38.83602661895798,-76.98475296485591,38.83602661895798]},"properties":{"OBJECTID":94,"NAME":"United Medical Center Pharmacy","ADDRESS":"1310 SOUTHERN AVENUE SE","X":401323.97000000003,"Y":129803.03,"ADDRID":277936,"CITY":"WASHINGTON","STATE":"DC","ZIPCODE":20032,"PHONE":2025746700,"FACTYPE":"Pharmacy","SEASONAL":null,"H1N1":null,"SSL":"5919    0802","WARD":"Ward 8"}},{"type":"Feature","id":95,"geometry":{"type":"Point","coordinates":[-77.0289111775901,38.89569513594025],"bbox":[-77.0289111775901,38.89569513594025,-77.0289111775901,38.89569513594025]},"properties":{"OBJECTID":95,"NAME":"CVS/PHARMACY #1342","ADDRESS":"1275 PENNSYLVANIA AVENUE NW","X":397492.18,"Y":136426.96,"ADDRID":300418,"CITY":"WASHINGTON","STATE":"DC","ZIPCODE":20004,"PHONE":0,"FACTYPE":"Pharmacy","SEASONAL":"Y","H1N1":"N","SSL":"0291    0037","WARD":"Ward 2"}},{"type":"Feature","id":96,"geometry":{"type":"Point","coordinates":[-77.039382988305,38.92450742691404],"bbox":[-77.039382988305,38.92450742691404,-77.039382988305,38.92450742691404]},"properties":{"OBJECTID":96,"NAME":"CVS/PHARMACY #1351","ADDRESS":"1700 COLUMBIA ROAD NW","X":396585.14,"Y":139625.7,"ADDRID":284066,"CITY":"WASHINGTON","STATE":"DC","ZIPCODE":20009,"PHONE":0,"FACTYPE":"Pharmacy","SEASONAL":"Y","H1N1":"N","SSL":"2565    0052","WARD":"Ward 1"}},{"type":"Feature","id":97,"geometry":{"type":"Point","coordinates":[-77.04204601908725,38.900689257191864],"bbox":[-77.04204601908725,38.900689257191864,-77.04204601908725,38.900689257191864]},"properties":{"OBJECTID":97,"NAME":"Foer Pharnacy","ADDRESS":"818 18TH STREET NW","X":396353,"Y":136981.79,"ADDRID":218770,"CITY":"WASHINGTON","STATE":"DC","ZIPCODE":20006,"PHONE":0,"FACTYPE":"Pharmacy","SEASONAL":"N","H1N1":"Y","SSL":"0105    0845","WARD":"Ward 2"}},{"type":"Feature","id":98,"geometry":{"type":"Point","coordinates":[-77.0186742933104,38.885577302223346],"bbox":[-77.0186742933104,38.885577302223346,-77.0186742933104,38.885577302223346]},"properties":{"OBJECTID":98,"NAME":"CVS/Pharmacy #283","ADDRESS":"500 C STREET SW","X":398379.99,"Y":135303.57,"ADDRID":276666,"CITY":"WASHINGTON","STATE":"DC","ZIPCODE":20024,"PHONE":2024848522,"FACTYPE":"Pharmacy","SEASONAL":"Y","H1N1":"N","SSL":"0493    0806","WARD":"Ward 6"}},{"type":"Feature","id":99,"geometry":{"type":"Point","coordinates":[-77.04855785065574,38.90163414113399],"bbox":[-77.04855785065574,38.90163414113399,-77.04855785065574,38.90163414113399]},"properties":{"OBJECTID":99,"NAME":"Medical Faculty Associates","ADDRESS":"2150 PENNSYLVANIA AVENUE NW","X":395788.2,"Y":137086.96,"ADDRID":242494,"CITY":"WASHINGTON","STATE":"DC","ZIPCODE":20037,"PHONE":0,"FACTYPE":"Other","SEASONAL":null,"H1N1":null,"SSL":"0075    0046","WARD":"Ward 2"}},{"type":"Feature","id":100,"geometry":{"type":"Point","coordinates":[-77.08518407888248,38.933648437367026],"bbox":[-77.08518407888248,38.933648437367026,-77.08518407888248,38.933648437367026]},"properties":{"OBJECTID":100,"NAME":"RITE AID #3873","ADDRESS":"3301 NEW MEXICO AVENUE NW","X":392614.49,"Y":140643.14,"ADDRID":223997,"CITY":"WASHINGTON","STATE":"DC","ZIPCODE":20016,"PHONE":0,"FACTYPE":"Pharmacy","SEASONAL":null,"H1N1":null,"SSL":"1601    0001","WARD":"Ward 3"}},{"type":"Feature","id":101,"geometry":{"type":"Point","coordinates":[-77.02655062193581,38.96952840268178],"bbox":[-77.02655062193581,38.96952840268178,-77.02655062193581,38.96952840268178]},"properties":{"OBJECTID":101,"NAME":"SAFEWAY PHARMACY #1276","ADDRESS":"6500 PINEY BRANCH ROAD NW","X":397699.34,"Y":144623.03,"ADDRID":285341,"CITY":"WASHINGTON","STATE":"DC","ZIPCODE":20012,"PHONE":0,"FACTYPE":"Pharmacy","SEASONAL":null,"H1N1":null,"SSL":"2974    0020","WARD":"Ward 4"}},{"type":"Feature","id":102,"geometry":{"type":"Point","coordinates":[-77.07140273613267,38.95838235098208],"bbox":[-77.07140273613267,38.95838235098208,-77.07140273613267,38.95838235098208]},"properties":{"OBJECTID":102,"NAME":"Chevy Chase Pediatric Center","ADDRESS":"5225 CONNECTICUT AVENUE NW","X":393811.52,"Y":143387.80000000002,"ADDRID":264203,"CITY":"WASHINGTON","STATE":"DC","ZIPCODE":20015,"PHONE":0,"FACTYPE":"Other","SEASONAL":null,"H1N1":null,"SSL":"1874    0801","WARD":"Ward 3"}},{"type":"Feature","id":103,"geometry":{"type":"Point","coordinates":[-77.02764852303166,38.96962759922382],"bbox":[-77.02764852303166,38.96962759922382,-77.02764852303166,38.96962759922382]},"properties":{"OBJECTID":103,"NAME":"CVS/Pharmacy #1364","ADDRESS":"6514 GEORGIA AVENUE NW","X":397604.2,"Y":144634.07,"ADDRID":285342,"CITY":"WASHINGTON","STATE":"DC","ZIPCODE":20012,"PHONE":2028295234,"FACTYPE":"Pharmacy","SEASONAL":"Y","H1N1":"N","SSL":"2946    0044","WARD":"Ward 4"}},{"type":"Feature","id":104,"geometry":{"type":"Point","coordinates":[-77.04047653437057,38.91934303086983],"bbox":[-77.04047653437057,38.91934303086983,-77.04047653437057,38.91934303086983]},"properties":{"OBJECTID":104,"NAME":"Community of Hope Health Services","ADDRESS":"2250 CHAMPLAIN STREET NW","X":396490.06,"Y":139052.45,"ADDRID":303241,"CITY":"WASHINGTON","STATE":"DC","ZIPCODE":20009,"PHONE":0,"FACTYPE":"Other","SEASONAL":null,"H1N1":null,"SSL":"2562    0826","WARD":"Ward 1"}},{"type":"Feature","id":105,"geometry":{"type":"Point","coordinates":[-77.04591540473709,38.91488459774628],"bbox":[-77.04591540473709,38.91488459774628,-77.04591540473709,38.91488459774628]},"properties":{"OBJECTID":105,"NAME":"Rite Aid Pharmacy #3845","ADDRESS":"1815 CONNECTICUT AVENUE NW","X":396018.15,"Y":138557.75,"ADDRID":302021,"CITY":"WASHINGTON","STATE":"DC","ZIPCODE":20009,"PHONE":2023321718,"FACTYPE":"Pharmacy","SEASONAL":null,"H1N1":null,"SSL":"2535    0831","WARD":"Ward 1"}},{"type":"Feature","id":106,"geometry":{"type":"Point","coordinates":[-77.00549455502134,38.90602306491623],"bbox":[-77.00549455502134,38.90602306491623,-77.00549455502134,38.90602306491623]},"properties":{"OBJECTID":106,"NAME":"Harris Teeter, Inc.","ADDRESS":"1201 1ST STREET NE","X":399523.62,"Y":137573.06,"ADDRID":303728,"CITY":"WASHINGTON","STATE":"DC","ZIPCODE":20002,"PHONE":2025890127,"FACTYPE":"Pharmacy","SEASONAL":"N","H1N1":"N","SSL":"0711    0816","WARD":"Ward 6"}},{"type":"Feature","id":107,"geometry":{"type":"Point","coordinates":[-77.02572491270985,38.90478783895059],"bbox":[-77.02572491270985,38.90478783895059,-77.02572491270985,38.90478783895059]},"properties":{"OBJECTID":107,"NAME":"CVS/PHARMACY #21","ADDRESS":"1117 10TH STREET NW","X":397768.87,"Y":137436.24,"ADDRID":300317,"CITY":"WASHINGTON","STATE":"DC","ZIPCODE":20001,"PHONE":0,"FACTYPE":"Pharmacy","SEASONAL":"Y","H1N1":"N","SSL":"0369    0069","WARD":"Ward 2"}},{"type":"Feature","id":108,"geometry":{"type":"Point","coordinates":[-76.96667323466005,38.85903221903893],"bbox":[-76.96667323466005,38.85903221903893,-76.96667323466005,38.85903221903893]},"properties":{"OBJECTID":108,"NAME":"SAFEWAY PHARMACY #1445","ADDRESS":"2845 ALABAMA AVENUE SE","X":402892.75,"Y":132357.23,"ADDRID":278282,"CITY":"WASHINGTON","STATE":"DC","ZIPCODE":20020,"PHONE":0,"FACTYPE":"Pharmacy","SEASONAL":null,"H1N1":null,"SSL":"5642    0001","WARD":"Ward 7"}},{"type":"Feature","id":109,"geometry":{"type":"Point","coordinates":[-77.01716180534368,38.877621504691085],"bbox":[-77.01716180534368,38.877621504691085,-77.01716180534368,38.877621504691085]},"properties":{"OBJECTID":109,"NAME":"Safeway Pharmacy","ADDRESS":"1100 4TH STREET SW","X":398511.05,"Y":134420.39,"ADDRID":307170,"CITY":"WASHINGTON","STATE":"DC","ZIPCODE":20024,"PHONE":2027192500,"FACTYPE":"Pharmacy","SEASONAL":null,"H1N1":null,"SSL":"0542    0872","WARD":"Ward 6"}},{"type":"Feature","id":110,"geometry":{"type":"Point","coordinates":[-77.0000965513043,38.876224302397254],"bbox":[-77.0000965513043,38.876224302397254,-77.0000965513043,38.876224302397254]},"properties":{"OBJECTID":110,"NAME":"Harris Teeter, Inc.","ADDRESS":"401 M STREET SE","X":399991.82,"Y":134265.15,"ADDRID":309432,"CITY":"WASHINGTON","STATE":"DC","ZIPCODE":20003,"PHONE":2025542076,"FACTYPE":"Pharmacy","SEASONAL":"N","H1N1":"N","SSL":"0771    0811","WARD":"Ward 6"}},{"type":"Feature","id":111,"geometry":{"type":"Point","coordinates":[-77.08246449753962,38.95234016155867],"bbox":[-77.08246449753962,38.95234016155867,-77.08246449753962,38.95234016155867]},"properties":{"OBJECTID":111,"NAME":"SAFEWAY PHARMACY #1395","ADDRESS":"4203 DAVENPORT STREET NW","X":392852.16000000003,"Y":142717.87,"ADDRID":301160,"CITY":"WASHINGTON","STATE":"DC","ZIPCODE":20016,"PHONE":0,"FACTYPE":"Pharmacy","SEASONAL":null,"H1N1":null,"SSL":"1672    0815","WARD":"Ward 3"}},{"type":"Feature","id":112,"geometry":{"type":"Point","coordinates":[-77.01816442060174,38.8775303682362],"bbox":[-77.01816442060174,38.8775303682362,-77.01816442060174,38.8775303682362]},"properties":{"OBJECTID":112,"NAME":"CVS/PHARMACY #1348","ADDRESS":"1101 4TH STREET SW","X":398425.11,"Y":134419.16,"ADDRID":307156,"CITY":"WASHINGTON","STATE":"DC","ZIPCODE":20024,"PHONE":0,"FACTYPE":"Pharmacy","SEASONAL":"Y","H1N1":"N","SSL":"0542    0827","WARD":"Ward 6"}},{"type":"Feature","id":113,"geometry":{"type":"Point","coordinates":[-76.95942329629428,38.869534369524104],"bbox":[-76.95942329629428,38.869534369524104,-76.95942329629428,38.869534369524104]},"properties":{"OBJECTID":113,"NAME":"CVS/Pharmacy #1335","ADDRESS":"3240 PENNSYLVANIA AVENUE SE","X":403521.48,"Y":133523.3,"ADDRID":278363,"CITY":"WASHINGTON","STATE":"DC","ZIPCODE":20020,"PHONE":2025845700,"FACTYPE":"Pharmacy","SEASONAL":"Y","H1N1":"N","SSL":"5539    0839","WARD":"Ward 7"}},{"type":"Feature","id":114,"geometry":{"type":"Point","coordinates":[-77.02164208421266,38.900001716019744],"bbox":[-77.02164208421266,38.900001716019744,-77.02164208421266,38.900001716019744]},"properties":{"OBJECTID":114,"NAME":"Walgreens","ADDRESS":"801 7TH STREET NW","X":398122.88,"Y":136904.85,"ADDRID":238697,"CITY":"WASHINGTON","STATE":"DC","ZIPCODE":20001,"PHONE":2027895345,"FACTYPE":"Pharmacy","SEASONAL":null,"H1N1":null,"SSL":"0453    0058","WARD":"Ward 2"}},{"type":"Feature","id":115,"geometry":{"type":"Point","coordinates":[-77.0254509651022,38.93833490158221],"bbox":[-77.0254509651022,38.93833490158221,-77.0254509651022,38.93833490158221]},"properties":{"OBJECTID":115,"NAME":"SAFEWAY PHARMACY #4873","ADDRESS":"920 RANDOLPH STREET NW","X":397777.97000000003,"Y":141180.59,"ADDRID":310447,"CITY":"WASHINGTON","STATE":"DC","ZIPCODE":20011,"PHONE":0,"FACTYPE":"Pharmacy","SEASONAL":null,"H1N1":null,"SSL":"2905    0814","WARD":"Ward 4"}},{"type":"Feature","id":116,"geometry":{"type":"Point","coordinates":[-76.97977232815262,38.90057508209077],"bbox":[-76.97977232815262,38.90057508209077,-76.97977232815262,38.90057508209077]},"properties":{"OBJECTID":116,"NAME":"SAFEWAY PHARMACY #4270","ADDRESS":"1601 MARYLAND AVENUE NE","X":401754.81,"Y":136968.47,"ADDRID":297814,"CITY":"WASHINGTON","STATE":"DC","ZIPCODE":20002,"PHONE":0,"FACTYPE":"Pharmacy","SEASONAL":null,"H1N1":null,"SSL":"4493    0001","WARD":"Ward 5"}},{"type":"Feature","id":117,"geometry":{"type":"Point","coordinates":[-77.00635796934606,38.906094997825655],"bbox":[-77.00635796934606,38.906094997825655,-77.00635796934606,38.906094997825655]},"properties":{"OBJECTID":117,"NAME":"CVS/Pharmacy #7174","ADDRESS":"1200 1ST STREET NE","X":399448.73,"Y":137581.05,"ADDRID":302635,"CITY":"WASHINGTON","STATE":"DC","ZIPCODE":20002,"PHONE":2022896499,"FACTYPE":"Pharmacy","SEASONAL":"Y","H1N1":"N","SSL":"0672    0856","WARD":"Ward 6"}},{"type":"Feature","id":118,"geometry":{"type":"Point","coordinates":[-77.02442127821007,38.93560758847045],"bbox":[-77.02442127821007,38.93560758847045,-77.02442127821007,38.93560758847045]},"properties":{"OBJECTID":118,"NAME":"CVS/Pharmacy #2787","ADDRESS":"3642 GEORGIA AVENUE NW","X":397882.86,"Y":140857.46,"ADDRID":308316,"CITY":"WASHINGTON","STATE":"DC","ZIPCODE":20010,"PHONE":2027222735,"FACTYPE":"Pharmacy","SEASONAL":"Y","H1N1":"N","SSL":"2897    0147","WARD":"Ward 1"}},{"type":"Feature","id":119,"geometry":{"type":"Point","coordinates":[-77.07334286224884,38.93457018038231],"bbox":[-77.07334286224884,38.93457018038231,-77.07334286224884,38.93457018038231]},"properties":{"OBJECTID":119,"NAME":"CVS/Pharmacy #5674","ADDRESS":"3700 NEWARK STREET NW","X":393641.24,"Y":140744.57,"ADDRID":311533,"CITY":"WASHINGTON","STATE":"DC","ZIPCODE":20016,"PHONE":2029660320,"FACTYPE":"Pharmacy","SEASONAL":"Y","H1N1":"N","SSL":"1920    0834","WARD":"Ward 3"}},{"type":"Feature","id":120,"geometry":{"type":"Point","coordinates":[-76.99517921244336,38.89005766241442],"bbox":[-76.99517921244336,38.89005766241442,-76.99517921244336,38.89005766241442]},"properties":{"OBJECTID":120,"NAME":"Mortons Pharmacy","ADDRESS":"724 EAST CAPITOL STREET NE","X":400418.43,"Y":135800.77,"ADDRID":77931,"CITY":"WASHINGTON","STATE":"DC","ZIPCODE":20003,"PHONE":2025431616,"FACTYPE":"Pharmacy","SEASONAL":null,"H1N1":null,"SSL":"0897    0800","WARD":"Ward 6"}},{"type":"Feature","id":121,"geometry":{"type":"Point","coordinates":[-77.08484663465958,38.96013286181774],"bbox":[-77.08484663465958,38.96013286181774,-77.08484663465958,38.96013286181774]},"properties":{"OBJECTID":121,"NAME":"CVS/PHARMACY #6214","ADDRESS":"5335 WISCONSIN AVENUE NW","X":392646.48,"Y":143583.12,"ADDRID":303179,"CITY":"WASHINGTON","STATE":"DC","ZIPCODE":20015,"PHONE":0,"FACTYPE":"Pharmacy","SEASONAL":"Y","H1N1":"N","SSL":"1661    0813","WARD":"Ward 3"}},{"type":"Feature","id":122,"geometry":{"type":"Point","coordinates":[-77.03933901476712,38.9033193794772],"bbox":[-77.03933901476712,38.9033193794772,-77.03933901476712,38.9033193794772]},"properties":{"OBJECTID":122,"NAME":"CVS/Pharmacy #2527","ADDRESS":"1025 CONNECTICUT AVENUE NW","X":396587.94,"Y":137273.65,"ADDRID":241803,"CITY":"WASHINGTON","STATE":"DC","ZIPCODE":20036,"PHONE":2027853102,"FACTYPE":"Pharmacy","SEASONAL":"Y","H1N1":"N","SSL":"0164    0035","WARD":"Ward 2"}}],"name":"Pharmacy_Locations","updated_at":1429022196000,"retrieved_at":1444244516734,"expires_at":1444330916734,"count":122}