{"type":"FeatureCollection","features":[{"type":"Feature","properties":{"OBJECTID":1,"ID":1,"NAME":"Transportation Bus Lot - L Street","BUILDING":" ","ADDRESS":"2nd Street & L Street SE","OFFICE":" ","TELEPHONE":"724-4028","GIS_ID":"pad_1"},"geometry":{"type":"Point","coordinates":[-77.00328145169182,38.8777502156215]}},{"type":"Feature","properties":{"OBJECTID":2,"ID":2,"NAME":"Transportation Bus Lot - New York Avenue","BUILDING":" ","ADDRESS":"1245 New York Avenue NE","OFFICE":" ","TELEPHONE":"576-8726","GIS_ID":"pad_2"},"geometry":{"type":"Point","coordinates":[-76.9875048260295,38.91461583743641]}},{"type":"Feature","properties":{"OBJECTID":3,"ID":3,"NAME":"Kramer Annex","BUILDING":" ","ADDRESS":"1700 Q Street SE","OFFICE":" ","TELEPHONE":"698-1180","GIS_ID":"pad_3"},"geometry":{"type":"Point","coordinates":[-76.98017357450912,38.87129385290042]}},{"type":"Feature","properties":{"OBJECTID":4,"ID":4,"NAME":"Workforce and Professional Development","BUILDING":"Logan Demountable","ADDRESS":"215 G Street NE","OFFICE":" ","TELEPHONE":"698-3995","GIS_ID":"pad_4"},"geometry":{"type":"Point","coordinates":[-77.00295050864615,38.89801921367429]}},{"type":"Feature","properties":{"OBJECTID":5,"ID":5,"NAME":"Accounts Payable","BUILDING":" ","ADDRESS":"825 North Capitol Street NE","OFFICE":"7th floor","TELEPHONE":"442-5255","GIS_ID":"pad_5"},"geometry":{"type":"Point","coordinates":[-77.00844831249732,38.901026134470925]}},{"type":"Feature","properties":{"OBJECTID":6,"ID":6,"NAME":"Academic Services","BUILDING":" ","ADDRESS":"825 North Capitol Street NE","OFFICE":"8th floor","TELEPHONE":"442-5599","GIS_ID":"pad_6"},"geometry":{"type":"Point","coordinates":[-77.00844831249732,38.901026134470925]}},{"type":"Feature","properties":{"OBJECTID":7,"ID":7,"NAME":"Acquisitions and Contracts","BUILDING":" ","ADDRESS":"825 North Capitol Street NE","OFFICE":"7th floor","TELEPHONE":"442-5111","GIS_ID":"pad_7"},"geometry":{"type":"Point","coordinates":[-77.00844831249732,38.901026134470925]}},{"type":"Feature","properties":{"OBJECTID":8,"ID":8,"NAME":"Adult Education U.D.C.","BUILDING":"Building 52","ADDRESS":"4200 Connecticut Ave NW","OFFICE":"Room 302","TELEPHONE":"274-7181","GIS_ID":"pad_8"},"geometry":{"type":"Point","coordinates":[-77.06520328656937,38.946233089843304]}},{"type":"Feature","properties":{"OBJECTID":9,"ID":9,"NAME":"AIDS Education","BUILDING":"Moten ES","ADDRESS":"1565 Morris Road SE","OFFICE":" ","TELEPHONE":"698-1806","GIS_ID":"pad_9"},"geometry":{"type":"Point","coordinates":[-76.98294595091757,38.8566634507234]}},{"type":"Feature","properties":{"OBJECTID":10,"ID":10,"NAME":"Associate Superintendent for Schools and Transformation","BUILDING":" ","ADDRESS":"825 North Capitol Street NE","OFFICE":" ","TELEPHONE":"442-5055","GIS_ID":"pad_10"},"geometry":{"type":"Point","coordinates":[-77.00844831249732,38.901026134470925]}},{"type":"Feature","properties":{"OBJECTID":11,"ID":11,"NAME":"Art","BUILDING":" ","ADDRESS":"825 North Capitol Street NE","OFFICE":"8th floor","TELEPHONE":"442-5639","GIS_ID":"pad_11"},"geometry":{"type":"Point","coordinates":[-77.00844831249732,38.901026134470925]}},{"type":"Feature","properties":{"OBJECTID":12,"ID":12,"NAME":"Athletics","BUILDING":"Hamilton Building","ADDRESS":"1401 Brentwood Parkway NE","OFFICE":" ","TELEPHONE":"698-3326","GIS_ID":"pad_12"},"geometry":{"type":"Point","coordinates":[-76.99405638220765,38.90966863131406]}},{"type":"Feature","properties":{"OBJECTID":13,"ID":13,"NAME":"Attendance Intervention Centers","BUILDING":"Douglas JHS","ADDRESS":"2600 Douglass Road SE","OFFICE":" ","TELEPHONE":"698-1581","GIS_ID":"pad_13"},"geometry":{"type":"Point","coordinates":[-76.98805208204165,38.856626753906355]}},{"type":"Feature","properties":{"OBJECTID":14,"ID":14,"NAME":"Attendance Intervention Centers","BUILDING":"Penn Center","ADDRESS":"1709 3rd Street NE","OFFICE":" ","TELEPHONE":"576-6985","GIS_ID":"pad_14"},"geometry":{"type":"Point","coordinates":[-77.00123776105305,38.91298231418602]}},{"type":"Feature","properties":{"OBJECTID":15,"ID":15,"NAME":"Before and After Care (Nations Capital Child and Family Development)","BUILDING":" ","ADDRESS":"1501 Benning Rd NE","OFFICE":"Lower Level","TELEPHONE":"397-3800","GIS_ID":"pad_15"},"geometry":{"type":"Point","coordinates":[-76.98337634734537,38.89936474663715]}},{"type":"Feature","properties":{"OBJECTID":16,"ID":16,"NAME":"Benefits","BUILDING":" ","ADDRESS":"825 North Capitol Street NE","OFFICE":"6th floor","TELEPHONE":"442-5420","GIS_ID":"pad_16"},"geometry":{"type":"Point","coordinates":[-77.00844831249732,38.901026134470925]}},{"type":"Feature","properties":{"OBJECTID":17,"ID":17,"NAME":"Bilingual Education","BUILDING":"Roosevelt SHS","ADDRESS":"4301 13th Street NW","OFFICE":" ","TELEPHONE":"576-8850","GIS_ID":"pad_17"},"geometry":{"type":"Point","coordinates":[-77.02890055430055,38.94318092131424]}},{"type":"Feature","properties":{"OBJECTID":18,"ID":18,"NAME":"Board of Education","BUILDING":" ","ADDRESS":"825 North Capitol Street NE","OFFICE":"9th floor","TELEPHONE":"442-4289","GIS_ID":"pad_18"},"geometry":{"type":"Point","coordinates":[-77.00844831249732,38.901026134470925]}},{"type":"Feature","properties":{"OBJECTID":19,"ID":19,"NAME":"Budget","BUILDING":" ","ADDRESS":"825 North Capitol Street NE","OFFICE":"7th floor","TELEPHONE":"442-5300","GIS_ID":"pad_19"},"geometry":{"type":"Point","coordinates":[-77.00844831249732,38.901026134470925]}},{"type":"Feature","properties":{"OBJECTID":20,"ID":20,"NAME":"Career and Technical Education","BUILDING":" ","ADDRESS":"825 North Capitol Street NE","OFFICE":"8th floor","TELEPHONE":"442-5062","GIS_ID":"pad_20"},"geometry":{"type":"Point","coordinates":[-77.00844831249732,38.901026134470925]}},{"type":"Feature","properties":{"OBJECTID":21,"ID":21,"NAME":"Center for Innovative Technology & Training","BUILDING":"Takoma EC","ADDRESS":"7010 Piney Branch Road NW","OFFICE":" ","TELEPHONE":"576-7938","GIS_ID":"pad_21"},"geometry":{"type":"Point","coordinates":[-77.02279721726731,38.97505034301768]}},{"type":"Feature","properties":{"OBJECTID":22,"ID":22,"NAME":"Teacher Certification","BUILDING":" ","ADDRESS":"825 North Capitol Street NE","OFFICE":"6th floor","TELEPHONE":"442-5377","GIS_ID":"pad_22"},"geometry":{"type":"Point","coordinates":[-77.00844831249732,38.901026134470925]}},{"type":"Feature","properties":{"OBJECTID":23,"ID":23,"NAME":"Child Find","BUILDING":" ","ADDRESS":"717 14th Street NW","OFFICE":"12th floor","TELEPHONE":"727-8300","GIS_ID":"pad_23"},"geometry":{"type":"Point","coordinates":[-77.03156081689077,38.89890674301787]}},{"type":"Feature","properties":{"OBJECTID":24,"ID":24,"NAME":"Children First Information & Referral Center","BUILDING":" ","ADDRESS":"825 North Capitol Street NE","OFFICE":"7th floor","TELEPHONE":"724-4222","GIS_ID":"pad_24"},"geometry":{"type":"Point","coordinates":[-77.00844831249732,38.901026134470925]}},{"type":"Feature","properties":{"OBJECTID":25,"ID":25,"NAME":"Citywide Early Childhood Education Iniatives","BUILDING":" ","ADDRESS":"825 North Capitol Street NE","OFFICE":"7th floor","TELEPHONE":"442-5116","GIS_ID":"pad_25"},"geometry":{"type":"Point","coordinates":[-77.00844831249732,38.901026134470925]}},{"type":"Feature","properties":{"OBJECTID":26,"ID":26,"NAME":"Civil Rights Compliance","BUILDING":" ","ADDRESS":"825 North Capitol Street NE","OFFICE":"9th floor","TELEPHONE":"442-5099","GIS_ID":"pad_26"},"geometry":{"type":"Point","coordinates":[-77.00844831249732,38.901026134470925]}},{"type":"Feature","properties":{"OBJECTID":27,"ID":27,"NAME":"Communications","BUILDING":" ","ADDRESS":"825 North Capitol Street NE","OFFICE":"7th floor","TELEPHONE":"442-5635","GIS_ID":"pad_27"},"geometry":{"type":"Point","coordinates":[-77.00844831249732,38.901026134470925]}},{"type":"Feature","properties":{"OBJECTID":28,"ID":28,"NAME":"Computer Donations","BUILDING":"Warehouse","ADDRESS":"2000 Adams Place NE","OFFICE":" ","TELEPHONE":"576-5444","GIS_ID":"pad_28"},"geometry":{"type":"Point","coordinates":[-76.97551472598973,38.91929414759171]}},{"type":"Feature","properties":{"OBJECTID":29,"ID":29,"NAME":"Conflict Resolution","BUILDING":" ","ADDRESS":"825 North Capitol Street NE","OFFICE":"8th floor","TELEPHONE":"442-5099","GIS_ID":"pad_29"},"geometry":{"type":"Point","coordinates":[-77.00844831249732,38.901026134470925]}},{"type":"Feature","properties":{"OBJECTID":30,"ID":30,"NAME":"Student Contests","BUILDING":" ","ADDRESS":"825 North Capitol Street NE","OFFICE":"6th floor","TELEPHONE":"442-5110","GIS_ID":"pad_30"},"geometry":{"type":"Point","coordinates":[-77.00844831249732,38.901026134470925]}},{"type":"Feature","properties":{"OBJECTID":31,"ID":31,"NAME":"Council of School Officers","BUILDING":" ","ADDRESS":"2120 Bladensburg Road NE","OFFICE":" ","TELEPHONE":"526-4700","GIS_ID":"pad_31"},"geometry":{"type":"Point","coordinates":[-76.9712859148557,38.91941200493035]}},{"type":"Feature","properties":{"OBJECTID":32,"ID":32,"NAME":"Crisis Intervention Team","BUILDING":" ","ADDRESS":"825 North Capitol Street NE","OFFICE":"6th floor","TELEPHONE":"442-4800","GIS_ID":"pad_32"},"geometry":{"type":"Point","coordinates":[-77.00844831249732,38.901026134470925]}},{"type":"Feature","properties":{"OBJECTID":33,"ID":33,"NAME":"Curriculum","BUILDING":" ","ADDRESS":"825 North Capitol Street NE","OFFICE":"8th floor","TELEPHONE":"442-5599","GIS_ID":"pad_33"},"geometry":{"type":"Point","coordinates":[-77.00844831249732,38.901026134470925]}},{"type":"Feature","properties":{"OBJECTID":34,"ID":34,"NAME":"DC28","BUILDING":"Penn Center","ADDRESS":"1709 3rd Street NE","OFFICE":" ","TELEPHONE":"576-7741","GIS_ID":"pad_34"},"geometry":{"type":"Point","coordinates":[-77.00123776105305,38.91298231418602]}},{"type":"Feature","properties":{"OBJECTID":35,"ID":35,"NAME":"DC College Assessment Program","BUILDING":" ","ADDRESS":"1029 Vermont Avenue","OFFICE":"Room 500","TELEPHONE":"783-7933","GIS_ID":"pad_35"},"geometry":{"type":"Point","coordinates":[-77.0328466022875,38.9035550620689]}},{"type":"Feature","properties":{"OBJECTID":36,"ID":36,"NAME":"DC Teachers Federal Credit Union","BUILDING":"Old Edmonds School Bldg","ADDRESS":"903 D Street NE","OFFICE":" ","TELEPHONE":"547-4800","GIS_ID":"pad_36"},"geometry":{"type":"Point","coordinates":[-76.99338715864306,38.894511899736585]}},{"type":"Feature","properties":{"OBJECTID":37,"ID":37,"NAME":"DCPTA","BUILDING":"Hamilton Building","ADDRESS":"1401 Brentwood Parkway NE","OFFICE":" ","TELEPHONE":"543-0333","GIS_ID":"pad_37"},"geometry":{"type":"Point","coordinates":[-76.99405638220765,38.90966863131406]}},{"type":"Feature","properties":{"OBJECTID":38,"ID":38,"NAME":"DC Teaching Fellows","BUILDING":" ","ADDRESS":"825 North Capitol Street NE","OFFICE":" ","TELEPHONE":"442-4400","GIS_ID":"pad_38"},"geometry":{"type":"Point","coordinates":[-77.00844831249732,38.901026134470925]}},{"type":"Feature","properties":{"OBJECTID":39,"ID":39,"NAME":"Diplomas","BUILDING":" ","ADDRESS":"825 North Capitol Street NE","OFFICE":"6th floor","TELEPHONE":"442-5110","GIS_ID":"pad_39"},"geometry":{"type":"Point","coordinates":[-77.00844831249732,38.901026134470925]}},{"type":"Feature","properties":{"OBJECTID":40,"ID":40,"NAME":"Distance Learning","BUILDING":" ","ADDRESS":"825 North Capitol Street NE","OFFICE":"8th floor","TELEPHONE":"442-5666","GIS_ID":"pad_40"},"geometry":{"type":"Point","coordinates":[-77.00844831249732,38.901026134470925]}},{"type":"Feature","properties":{"OBJECTID":41,"ID":41,"NAME":"Distribution Facilities","BUILDING":"Warehouse","ADDRESS":"2000 Adams Place NE","OFFICE":" ","TELEPHONE":"576-6026","GIS_ID":"pad_41"},"geometry":{"type":"Point","coordinates":[-76.97551472598973,38.91929414759171]}},{"type":"Feature","properties":{"OBJECTID":42,"ID":42,"NAME":"Donations","BUILDING":"Warehouse","ADDRESS":"2000 Adams Place NE","OFFICE":" ","TELEPHONE":"576-6026","GIS_ID":"pad_42"},"geometry":{"type":"Point","coordinates":[-76.97551472598973,38.91929414759171]}},{"type":"Feature","properties":{"OBJECTID":43,"ID":43,"NAME":"Educational Accoundatability","BUILDING":" ","ADDRESS":"825 North Capitol Street NE","OFFICE":"8th floor","TELEPHONE":"442-5220","GIS_ID":"pad_43"},"geometry":{"type":"Point","coordinates":[-77.00844831249732,38.901026134470925]}},{"type":"Feature","properties":{"OBJECTID":44,"ID":44,"NAME":"Educational Institution Licensure Commission","BUILDING":" ","ADDRESS":"825 North Capitol Street NE","OFFICE":" ","TELEPHONE":"442-4400","GIS_ID":"pad_44"},"geometry":{"type":"Point","coordinates":[-77.00844831249732,38.901026134470925]}},{"type":"Feature","properties":{"OBJECTID":45,"ID":45,"NAME":"Educational Opportunity Center","BUILDING":" ","ADDRESS":"1233 20th Street NW","OFFICE":" ","TELEPHONE":"822-5180","GIS_ID":"pad_45"},"geometry":{"type":"Point","coordinates":[-77.04449747181336,38.906711245452705]}},{"type":"Feature","properties":{"OBJECTID":46,"ID":46,"NAME":"Elementary School Divisions","BUILDING":" ","ADDRESS":"825 North Capitol Street NE","OFFICE":"9th floor","TELEPHONE":"442-4099","GIS_ID":"pad_46"},"geometry":{"type":"Point","coordinates":[-77.00844831249732,38.901026134470925]}},{"type":"Feature","properties":{"OBJECTID":47,"ID":47,"NAME":"Embassy Adoption","BUILDING":" ","ADDRESS":"825 North Capitol Street NE","OFFICE":"8th floor","TELEPHONE":"442-5069","GIS_ID":"pad_47"},"geometry":{"type":"Point","coordinates":[-77.00844831249732,38.901026134470925]}},{"type":"Feature","properties":{"OBJECTID":48,"ID":48,"NAME":"Employee Assistance Program","BUILDING":" ","ADDRESS":"1120 G St NW","OFFICE":"Room 550","TELEPHONE":"628-5240","GIS_ID":"pad_48"},"geometry":{"type":"Point","coordinates":[-77.0277616341523,38.89802524844366]}},{"type":"Feature","properties":{"OBJECTID":49,"ID":49,"NAME":"Employee ID","BUILDING":" ","ADDRESS":"825 North Capitol Street NE","OFFICE":"6th floor","TELEPHONE":"442-5397","GIS_ID":"pad_49"},"geometry":{"type":"Point","coordinates":[-77.00844831249732,38.901026134470925]}},{"type":"Feature","properties":{"OBJECTID":50,"ID":50,"NAME":"English","BUILDING":" ","ADDRESS":"825 North Capitol Street NE","OFFICE":"8th floor","TELEPHONE":"442-5599","GIS_ID":"pad_50"},"geometry":{"type":"Point","coordinates":[-77.00844831249732,38.901026134470925]}},{"type":"Feature","properties":{"OBJECTID":51,"ID":51,"NAME":"Equal Employment Opportunity","BUILDING":" ","ADDRESS":"825 North Capitol Street NE","OFFICE":"6th floor","TELEPHONE":"442-5424","GIS_ID":"pad_51"},"geometry":{"type":"Point","coordinates":[-77.00844831249732,38.901026134470925]}},{"type":"Feature","properties":{"OBJECTID":52,"ID":52,"NAME":"Equipment Maintenance","BUILDING":"Warehouse","ADDRESS":"2000 Adams Place NE","OFFICE":" ","TELEPHONE":"576-7446","GIS_ID":"pad_52"},"geometry":{"type":"Point","coordinates":[-76.97551472598973,38.91929414759171]}},{"type":"Feature","properties":{"OBJECTID":53,"ID":53,"NAME":"ESL","BUILDING":"Roosevelt SHS","ADDRESS":"4301 13th Street NW","OFFICE":" ","TELEPHONE":"576-8850","GIS_ID":"pad_53"},"geometry":{"type":"Point","coordinates":[-77.02890055430055,38.94318092131424]}},{"type":"Feature","properties":{"OBJECTID":54,"ID":54,"NAME":"Even Start","BUILDING":"Webbs ES","ADDRESS":"1375 Mt Olivet Road NE","OFFICE":" ","TELEPHONE":"724-3900","GIS_ID":"pad_54"},"geometry":{"type":"Point","coordinates":[-76.98113828452074,38.90808143103494]}},{"type":"Feature","properties":{"OBJECTID":55,"ID":55,"NAME":"Extra Duty Pay","BUILDING":" ","ADDRESS":"825 North Capitol Street NE","OFFICE":"6th floor","TELEPHONE":"442-5330","GIS_ID":"pad_55"},"geometry":{"type":"Point","coordinates":[-77.00844831249732,38.901026134470925]}},{"type":"Feature","properties":{"OBJECTID":56,"ID":56,"NAME":"Facilities-Capital Improvements","BUILDING":"Penn Center","ADDRESS":"1709 3rd Street NE","OFFICE":" ","TELEPHONE":"576-7718","GIS_ID":"pad_56"},"geometry":{"type":"Point","coordinates":[-77.00123776105305,38.91298231418602]}},{"type":"Feature","properties":{"OBJECTID":57,"ID":57,"NAME":"Facilities-Operations & Maintenance","BUILDING":"Penn Center","ADDRESS":"1709 3rd Street NE","OFFICE":" ","TELEPHONE":"576-6657","GIS_ID":"pad_57"},"geometry":{"type":"Point","coordinates":[-77.00123776105305,38.91298231418602]}},{"type":"Feature","properties":{"OBJECTID":58,"ID":58,"NAME":"Facilities Service Desk","BUILDING":"Penn Center","ADDRESS":"1709 3rd Street NE","OFFICE":" ","TELEPHONE":"576-7676","GIS_ID":"pad_58"},"geometry":{"type":"Point","coordinates":[-77.00123776105305,38.91298231418602]}},{"type":"Feature","properties":{"OBJECTID":59,"ID":59,"NAME":"Federal Grants Program - SEA","BUILDING":" ","ADDRESS":"825 North Capitol Street NE","OFFICE":"8th floor","TELEPHONE":"442-5570","GIS_ID":"pad_59"},"geometry":{"type":"Point","coordinates":[-77.00844831249732,38.901026134470925]}},{"type":"Feature","properties":{"OBJECTID":60,"ID":60,"NAME":"Federal Grants Program - LEA","BUILDING":" ","ADDRESS":"825 North Capitol Street NE","OFFICE":"8th floor","TELEPHONE":"442-5593","GIS_ID":"pad_60"},"geometry":{"type":"Point","coordinates":[-77.00844831249732,38.901026134470925]}},{"type":"Feature","properties":{"OBJECTID":61,"ID":61,"NAME":"Finance","BUILDING":" ","ADDRESS":"825 North Capitol Street NE","OFFICE":"7th floor","TELEPHONE":"442-5300","GIS_ID":"pad_61"},"geometry":{"type":"Point","coordinates":[-77.00844831249732,38.901026134470925]}},{"type":"Feature","properties":{"OBJECTID":62,"ID":62,"NAME":"Fingerprinting","BUILDING":" ","ADDRESS":"825 North Capitol Street NE","OFFICE":"6th floor","TELEPHONE":"442-5397","GIS_ID":"pad_62"},"geometry":{"type":"Point","coordinates":[-77.00844831249732,38.901026134470925]}},{"type":"Feature","properties":{"OBJECTID":63,"ID":63,"NAME":"Foreign Language","BUILDING":" ","ADDRESS":"825 North Capitol Street NE","OFFICE":"8th floor","TELEPHONE":"442-5599","GIS_ID":"pad_63"},"geometry":{"type":"Point","coordinates":[-77.00844831249732,38.901026134470925]}},{"type":"Feature","properties":{"OBJECTID":64,"ID":64,"NAME":"Food Services","BUILDING":" ","ADDRESS":"3535 V Street NE","OFFICE":" ","TELEPHONE":"576-7400","GIS_ID":"pad_64"},"geometry":{"type":"Point","coordinates":[-76.9572555220796,38.9182376232844]}},{"type":"Feature","properties":{"OBJECTID":65,"ID":65,"NAME":"Freedom of Information Act (FOIA)","BUILDING":" ","ADDRESS":"825 North Capitol Street NE","OFFICE":"9th floor","TELEPHONE":"442-5000","GIS_ID":"pad_65"},"geometry":{"type":"Point","coordinates":[-77.00844831249732,38.901026134470925]}},{"type":"Feature","properties":{"OBJECTID":66,"ID":66,"NAME":"GED Class U.D.C.","BUILDING":"Building 52","ADDRESS":"4200 Connectict Ave NW","OFFICE":"Room 302","TELEPHONE":"274-7181","GIS_ID":"pad_66"},"geometry":{"type":"Point","coordinates":[-77.06520328656937,38.946233089843304]}},{"type":"Feature","properties":{"OBJECTID":67,"ID":67,"NAME":"GED Records/Testing U.D.C.","BUILDING":"Building 52","ADDRESS":"4200 Connectict Ave NW","OFFICE":"Room 302","TELEPHONE":"274-7173","GIS_ID":"pad_67"},"geometry":{"type":"Point","coordinates":[-77.06520328656937,38.946233089843304]}},{"type":"Feature","properties":{"OBJECTID":68,"ID":68,"NAME":"General Counsel","BUILDING":" ","ADDRESS":"825 North Capitol Street NE","OFFICE":"9th floor","TELEPHONE":"442-5000","GIS_ID":"pad_68"},"geometry":{"type":"Point","coordinates":[-77.00844831249732,38.901026134470925]}},{"type":"Feature","properties":{"OBJECTID":69,"ID":69,"NAME":"Guidance and Counseling","BUILDING":" ","ADDRESS":"825 North Capitol Street NE","OFFICE":"8th floor","TELEPHONE":"442-5415","GIS_ID":"pad_69"},"geometry":{"type":"Point","coordinates":[-77.00844831249732,38.901026134470925]}},{"type":"Feature","properties":{"OBJECTID":70,"ID":70,"NAME":"Head Start","BUILDING":"Annex Johnson Jr HS","ADDRESS":"1200 12th Place SE","OFFICE":" ","TELEPHONE":"698-1034","GIS_ID":"pad_70"},"geometry":{"type":"Point","coordinates":[-76.98370604312805,38.85134435958135]}},{"type":"Feature","properties":{"OBJECTID":71,"ID":71,"NAME":"Student Hearings","BUILDING":" ","ADDRESS":"825 North Capitol Street NE","OFFICE":"8th floor","TELEPHONE":"442-5432","GIS_ID":"pad_71"},"geometry":{"type":"Point","coordinates":[-77.00844831249732,38.901026134470925]}},{"type":"Feature","properties":{"OBJECTID":72,"ID":72,"NAME":"Employee Hearings","BUILDING":" ","ADDRESS":"825 North Capitol Street NE","OFFICE":"6th floor","TELEPHONE":"442-5373","GIS_ID":"pad_72"},"geometry":{"type":"Point","coordinates":[-77.00844831249732,38.901026134470925]}},{"type":"Feature","properties":{"OBJECTID":73,"ID":73,"NAME":"Helping Teachers","BUILDING":"Browne JHS","ADDRESS":"850 26th Street NW","OFFICE":" ","TELEPHONE":"724-4811","GIS_ID":"pad_73"},"geometry":{"type":"Point","coordinates":[-76.970669269369,38.902606391936104]}},{"type":"Feature","properties":{"OBJECTID":74,"ID":74,"NAME":"HIV/AIDS Education","BUILDING":"Moten ES","ADDRESS":"1565 Morris Road SE","OFFICE":" ","TELEPHONE":"698-1806","GIS_ID":"pad_74"},"geometry":{"type":"Point","coordinates":[-76.98294595091757,38.8566634507234]}},{"type":"Feature","properties":{"OBJECTID":75,"ID":75,"NAME":"Home Schooling","BUILDING":" ","ADDRESS":"825 North Capitol Street NE","OFFICE":"8th floor","TELEPHONE":"442-5149","GIS_ID":"pad_75"},"geometry":{"type":"Point","coordinates":[-77.00844831249732,38.901026134470925]}},{"type":"Feature","properties":{"OBJECTID":76,"ID":76,"NAME":"Homeless Children and Youths","BUILDING":"Hamilton Building","ADDRESS":"1401 Brentwood Parkway NE","OFFICE":" ","TELEPHONE":"698-8231","GIS_ID":"pad_76"},"geometry":{"type":"Point","coordinates":[-76.99405638220765,38.90966863131406]}},{"type":"Feature","properties":{"OBJECTID":77,"ID":77,"NAME":"Human Resources","BUILDING":" ","ADDRESS":"825 North Capitol Street NE","OFFICE":"6th floor","TELEPHONE":"442-5420","GIS_ID":"pad_77"},"geometry":{"type":"Point","coordinates":[-77.00844831249732,38.901026134470925]}},{"type":"Feature","properties":{"OBJECTID":78,"ID":78,"NAME":"Immunization (DC Government)","BUILDING":" ","ADDRESS":"1131 Spring Road NW","OFFICE":" ","TELEPHONE":"576-7127","GIS_ID":"pad_78"},"geometry":{"type":"Point","coordinates":[-77.02916065885769,38.936379684530614]}},{"type":"Feature","properties":{"OBJECTID":79,"ID":79,"NAME":"Impact Aid","BUILDING":" ","ADDRESS":"825 North Capitol Street NE","OFFICE":"8th floor","TELEPHONE":"673-8325","GIS_ID":"pad_79"},"geometry":{"type":"Point","coordinates":[-77.00844831249732,38.901026134470925]}},{"type":"Feature","properties":{"OBJECTID":80,"ID":80,"NAME":"Infant Care Center - Cardozo","BUILDING":"Cardozo SHS","ADDRESS":"1200 Clifton St NW","OFFICE":" ","TELEPHONE":"282-0710","GIS_ID":"pad_80"},"geometry":{"type":"Point","coordinates":[-77.02843595910153,38.92214702691139]}},{"type":"Feature","properties":{"OBJECTID":81,"ID":81,"NAME":"Infant Care Center - Dunbar","BUILDING":"Dunbar SHS","ADDRESS":"1301 New Jersey Avenue NW","OFFICE":" ","TELEPHONE":"673-3503","GIS_ID":"pad_81"},"geometry":{"type":"Point","coordinates":[-77.01469614395009,38.90853100466543]}},{"type":"Feature","properties":{"OBJECTID":82,"ID":82,"NAME":"Infant Care Center - Hart","BUILDING":"Hart MS","ADDRESS":"601 Mississippi Avenue SE","OFFICE":" ","TELEPHONE":"645-3430","GIS_ID":"pad_82"},"geometry":{"type":"Point","coordinates":[-76.99718101999316,38.837745313083275]}},{"type":"Feature","properties":{"OBJECTID":83,"ID":83,"NAME":"Information and Referral","BUILDING":" ","ADDRESS":"825 North Capitol Street NE","OFFICE":"7th floor","TELEPHONE":"724-4222","GIS_ID":"pad_83"},"geometry":{"type":"Point","coordinates":[-77.00844831249732,38.901026134470925]}},{"type":"Feature","properties":{"OBJECTID":84,"ID":84,"NAME":"Infant Care Center - Spingarn","BUILDING":"Spingarn SHS","ADDRESS":"2500 Benning Road NE","OFFICE":" ","TELEPHONE":"397-1150","GIS_ID":"pad_84"},"geometry":{"type":"Point","coordinates":[-76.97133670086984,38.89949447581823]}},{"type":"Feature","properties":{"OBJECTID":85,"ID":85,"NAME":"Inspector General","BUILDING":" ","ADDRESS":"717 14th Street NW","OFFICE":"Suite 500","TELEPHONE":"727-2540","GIS_ID":"pad_85"},"geometry":{"type":"Point","coordinates":[-77.03156081689077,38.89890674301787]}},{"type":"Feature","properties":{"OBJECTID":86,"ID":86,"NAME":"Instructional Technology","BUILDING":" ","ADDRESS":"825 North Capitol Street NE","OFFICE":"8th floor","TELEPHONE":"442-5666","GIS_ID":"pad_86"},"geometry":{"type":"Point","coordinates":[-77.00844831249732,38.901026134470925]}},{"type":"Feature","properties":{"OBJECTID":87,"ID":87,"NAME":"Instructional TV","BUILDING":"Penn Center","ADDRESS":"1709 3rd Street NE","OFFICE":" ","TELEPHONE":"576-7272","GIS_ID":"pad_87"},"geometry":{"type":"Point","coordinates":[-77.00123776105305,38.91298231418602]}},{"type":"Feature","properties":{"OBJECTID":88,"ID":88,"NAME":"International Student Center","BUILDING":"Roosevelt SHS","ADDRESS":"4301 13th Street NW","OFFICE":" ","TELEPHONE":"576-8850","GIS_ID":"pad_88"},"geometry":{"type":"Point","coordinates":[-77.02890055430055,38.94318092131424]}},{"type":"Feature","properties":{"OBJECTID":89,"ID":89,"NAME":"International Programs","BUILDING":" ","ADDRESS":"825 North Capitol Street NE","OFFICE":"8th floor","TELEPHONE":"442-5059","GIS_ID":"pad_89"},"geometry":{"type":"Point","coordinates":[-77.00844831249732,38.901026134470925]}},{"type":"Feature","properties":{"OBJECTID":90,"ID":90,"NAME":"JuniorHigh/Middle School Division","BUILDING":" ","ADDRESS":"825 North Capitol Street NE","OFFICE":"9th floor","TELEPHONE":"442-5075","GIS_ID":"pad_90"},"geometry":{"type":"Point","coordinates":[-77.00844831249732,38.901026134470925]}},{"type":"Feature","properties":{"OBJECTID":91,"ID":91,"NAME":"Labor Relations","BUILDING":" ","ADDRESS":"825 North Capitol Street NE","OFFICE":"6th floor","TELEPHONE":"442-5373","GIS_ID":"pad_91"},"geometry":{"type":"Point","coordinates":[-77.00844831249732,38.901026134470925]}},{"type":"Feature","properties":{"OBJECTID":92,"ID":92,"NAME":"Legal Services","BUILDING":" ","ADDRESS":"825 North Capitol Street NE","OFFICE":"9th floor","TELEPHONE":"442-5000","GIS_ID":"pad_92"},"geometry":{"type":"Point","coordinates":[-77.00844831249732,38.901026134470925]}},{"type":"Feature","properties":{"OBJECTID":93,"ID":93,"NAME":"Library Media","BUILDING":"Penn Center","ADDRESS":"1709 3rd Street NE","OFFICE":" ","TELEPHONE":"576-6317","GIS_ID":"pad_93"},"geometry":{"type":"Point","coordinates":[-77.00123776105305,38.91298231418602]}},{"type":"Feature","properties":{"OBJECTID":94,"ID":94,"NAME":"Linguistic and Cultural Diversity","BUILDING":"Roosevelt SHS","ADDRESS":"4301 13th Street NW","OFFICE":" ","TELEPHONE":"576-8850","GIS_ID":"pad_94"},"geometry":{"type":"Point","coordinates":[-77.02890055430055,38.94318092131424]}},{"type":"Feature","properties":{"OBJECTID":95,"ID":95,"NAME":"Mail Room","BUILDING":"Warehouse","ADDRESS":"2000 Adams Place NE","OFFICE":" ","TELEPHONE":"541-3892","GIS_ID":"pad_95"},"geometry":{"type":"Point","coordinates":[-76.97551472598973,38.91929414759171]}},{"type":"Feature","properties":{"OBJECTID":96,"ID":96,"NAME":"Maintenance Service Center","BUILDING":"Penn Center","ADDRESS":"1709 3rd Street NE","OFFICE":" ","TELEPHONE":"576-7676","GIS_ID":"pad_96"},"geometry":{"type":"Point","coordinates":[-77.00123776105305,38.91298231418602]}},{"type":"Feature","properties":{"OBJECTID":97,"ID":97,"NAME":"Math","BUILDING":" ","ADDRESS":"825 North Capitol Street NE","OFFICE":"8th floor","TELEPHONE":"442-5637","GIS_ID":"pad_97"},"geometry":{"type":"Point","coordinates":[-77.00844831249732,38.901026134470925]}},{"type":"Feature","properties":{"OBJECTID":98,"ID":98,"NAME":"Migrant Education","BUILDING":"Hamilton Building","ADDRESS":"1401 Brentwood Parkway NE","OFFICE":" ","TELEPHONE":"698-3300","GIS_ID":"pad_98"},"geometry":{"type":"Point","coordinates":[-76.99405638220765,38.90966863131406]}},{"type":"Feature","properties":{"OBJECTID":99,"ID":99,"NAME":"Multicultural Affairs","BUILDING":" ","ADDRESS":"825 North Capitol Street NE","OFFICE":"9th floor","TELEPHONE":"442-5181","GIS_ID":"pad_99"},"geometry":{"type":"Point","coordinates":[-77.00844831249732,38.901026134470925]}},{"type":"Feature","properties":{"OBJECTID":100,"ID":100,"NAME":"Music","BUILDING":" ","ADDRESS":"825 North Capitol Street NE","OFFICE":"8th floor","TELEPHONE":"442-5642","GIS_ID":"pad_100"},"geometry":{"type":"Point","coordinates":[-77.00844831249732,38.901026134470925]}},{"type":"Feature","properties":{"OBJECTID":101,"ID":101,"NAME":"Non-Public Schools","BUILDING":" ","ADDRESS":"825 North Capitol Street NE","OFFICE":"8th floor","TELEPHONE":"442-5599","GIS_ID":"pad_101"},"geometry":{"type":"Point","coordinates":[-77.00844831249732,38.901026134470925]}},{"type":"Feature","properties":{"OBJECTID":102,"ID":102,"NAME":"Office of Information Technology","BUILDING":" ","ADDRESS":"825 North Capitol Street NE","OFFICE":" ","TELEPHONE":"442-5555","GIS_ID":"pad_102"},"geometry":{"type":"Point","coordinates":[-77.00844831249732,38.901026134470925]}},{"type":"Feature","properties":{"OBJECTID":103,"ID":103,"NAME":"Office of Management Services","BUILDING":" ","ADDRESS":"825 North Capitol Street NE","OFFICE":"8th floor","TELEPHONE":"442-5088","GIS_ID":"pad_103"},"geometry":{"type":"Point","coordinates":[-77.00844831249732,38.901026134470925]}},{"type":"Feature","properties":{"OBJECTID":104,"ID":104,"NAME":"Out-of-Boundary","BUILDING":"Logan Building","ADDRESS":"215 G Street","OFFICE":" ","TELEPHONE":"442-5200","GIS_ID":"pad_104"},"geometry":{"type":"Point","coordinates":[-77.00256932357671,38.898538095391096]}},{"type":"Feature","properties":{"OBJECTID":105,"ID":105,"NAME":"Parent's Special Education Service Center","BUILDING":" ","ADDRESS":"825 North Capitol Street NE","OFFICE":"6th floor","TELEPHONE":"471-4272","GIS_ID":"pad_105"},"geometry":{"type":"Point","coordinates":[-77.00844831249732,38.901026134470925]}},{"type":"Feature","properties":{"OBJECTID":106,"ID":106,"NAME":"Parent's Special Education Service Center - Spanish","BUILDING":" ","ADDRESS":"825 North Capitol Street NE","OFFICE":"6th floor","TELEPHONE":"471-4269","GIS_ID":"pad_106"},"geometry":{"type":"Point","coordinates":[-77.00844831249732,38.901026134470925]}},{"type":"Feature","properties":{"OBJECTID":107,"ID":107,"NAME":"Parent's Special Education Service Center - Chinese","BUILDING":" ","ADDRESS":"825 North Capitol Street NE","OFFICE":"6th floor","TELEPHONE":"471-4275","GIS_ID":"pad_107"},"geometry":{"type":"Point","coordinates":[-77.00844831249732,38.901026134470925]}},{"type":"Feature","properties":{"OBJECTID":108,"ID":108,"NAME":"Parent's Special Education Service Center - Vietnamese","BUILDING":" ","ADDRESS":"825 North Capitol Street NE","OFFICE":"6th floor","TELEPHONE":"471-4276","GIS_ID":"pad_108"},"geometry":{"type":"Point","coordinates":[-77.00844831249732,38.901026134470925]}},{"type":"Feature","properties":{"OBJECTID":109,"ID":109,"NAME":"Parent's Special Education Service Center - French","BUILDING":" ","ADDRESS":"825 North Capitol Street NE","OFFICE":"6th floor","TELEPHONE":"471-4281","GIS_ID":"pad_109"},"geometry":{"type":"Point","coordinates":[-77.00844831249732,38.901026134470925]}},{"type":"Feature","properties":{"OBJECTID":110,"ID":110,"NAME":"Parent's Special Education Service Center - Amharic","BUILDING":" ","ADDRESS":"825 North Capitol Street NE","OFFICE":"6th floor","TELEPHONE":"471-4282","GIS_ID":"pad_110"},"geometry":{"type":"Point","coordinates":[-77.00844831249732,38.901026134470925]}},{"type":"Feature","properties":{"OBJECTID":111,"ID":111,"NAME":"Payroll","BUILDING":" ","ADDRESS":"825 North Capitol Street NE","OFFICE":"7th floor","TELEPHONE":"442-5330","GIS_ID":"pad_111"},"geometry":{"type":"Point","coordinates":[-77.00844831249732,38.901026134470925]}},{"type":"Feature","properties":{"OBJECTID":112,"ID":112,"NAME":"Peaceable Schools","BUILDING":" ","ADDRESS":"825 North Capitol Street NE","OFFICE":"8th floor","TELEPHONE":"442-5099","GIS_ID":"pad_112"},"geometry":{"type":"Point","coordinates":[-77.00844831249732,38.901026134470925]}},{"type":"Feature","properties":{"OBJECTID":113,"ID":113,"NAME":"Personnel","BUILDING":" ","ADDRESS":"825 North Capitol Street NE","OFFICE":"6th floor","TELEPHONE":"442-5420","GIS_ID":"pad_113"},"geometry":{"type":"Point","coordinates":[-77.00844831249732,38.901026134470925]}},{"type":"Feature","properties":{"OBJECTID":114,"ID":114,"NAME":"Post-Secondary Education","BUILDING":" ","ADDRESS":"441 4th Street NW","OFFICE":"Suite 350","TELEPHONE":"727-6436","GIS_ID":"pad_114"},"geometry":{"type":"Point","coordinates":[-77.0156545054435,38.895453357962545]}},{"type":"Feature","properties":{"OBJECTID":115,"ID":115,"NAME":"Procurement","BUILDING":" ","ADDRESS":"825 North Capitol Street NE","OFFICE":"7th floor","TELEPHONE":"442-5111","GIS_ID":"pad_115"},"geometry":{"type":"Point","coordinates":[-77.00844831249732,38.901026134470925]}},{"type":"Feature","properties":{"OBJECTID":116,"ID":116,"NAME":"Projects in Education","BUILDING":" ","ADDRESS":"1234 Massachusetts Avenue NW","OFFICE":"Suite 113","TELEPHONE":"393-4919","GIS_ID":"pad_116"},"geometry":{"type":"Point","coordinates":[-77.02931559557713,38.904205143534874]}},{"type":"Feature","properties":{"OBJECTID":117,"ID":117,"NAME":"Prime DC","BUILDING":"Bancroft ES","ADDRESS":"1755 Newton Street NW","OFFICE":"Room 211","TELEPHONE":"673-4579","GIS_ID":"pad_117"},"geometry":{"type":"Point","coordinates":[-77.04055574806802,38.934325816191446]}},{"type":"Feature","properties":{"OBJECTID":118,"ID":118,"NAME":"Public Charter Schools","BUILDING":" ","ADDRESS":"1436 U Street NW","OFFICE":"Room 401","TELEPHONE":"328-2660","GIS_ID":"pad_118"},"geometry":{"type":"Point","coordinates":[-77.03355353534809,38.91666729921268]}},{"type":"Feature","properties":{"OBJECTID":119,"ID":119,"NAME":"Realty Office","BUILDING":" ","ADDRESS":"825 North Capitol Street NE","OFFICE":"7th floor","TELEPHONE":"442-5199","GIS_ID":"pad_119"},"geometry":{"type":"Point","coordinates":[-77.00844831249732,38.901026134470925]}},{"type":"Feature","properties":{"OBJECTID":120,"ID":120,"NAME":"Recruitment Services","BUILDING":" ","ADDRESS":"825 North Capitol Street NE","OFFICE":"6th floor","TELEPHONE":"442-5347","GIS_ID":"pad_120"},"geometry":{"type":"Point","coordinates":[-77.00844831249732,38.901026134470925]}},{"type":"Feature","properties":{"OBJECTID":121,"ID":121,"NAME":"Reproduction","BUILDING":" ","ADDRESS":"2000 Adams Place NE","OFFICE":" ","TELEPHONE":"541-3890","GIS_ID":"pad_121"},"geometry":{"type":"Point","coordinates":[-76.97551472598973,38.91929414759171]}},{"type":"Feature","properties":{"OBJECTID":122,"ID":122,"NAME":"Research and Evaluation","BUILDING":" ","ADDRESS":"825 North Capitol Street NE","OFFICE":"8th floor","TELEPHONE":"576-8962","GIS_ID":"pad_122"},"geometry":{"type":"Point","coordinates":[-77.00844831249732,38.901026134470925]}},{"type":"Feature","properties":{"OBJECTID":123,"ID":123,"NAME":"Scholarships","BUILDING":" ","ADDRESS":"825 North Capitol Street NE","OFFICE":"6th floor","TELEPHONE":"442-5110","GIS_ID":"pad_123"},"geometry":{"type":"Point","coordinates":[-77.00844831249732,38.901026134470925]}},{"type":"Feature","properties":{"OBJECTID":124,"ID":124,"NAME":"School Health Programs","BUILDING":" ","ADDRESS":"825 North Capitol Street NE","OFFICE":"6th floor","TELEPHONE":"442-5042","GIS_ID":"pad_124"},"geometry":{"type":"Point","coordinates":[-77.00844831249732,38.901026134470925]}},{"type":"Feature","properties":{"OBJECTID":125,"ID":125,"NAME":"School-to-Careers","BUILDING":" ","ADDRESS":"825 North Capitol Street NE","OFFICE":"8th floor","TELEPHONE":"442-5062","GIS_ID":"pad_125"},"geometry":{"type":"Point","coordinates":[-77.00844831249732,38.901026134470925]}},{"type":"Feature","properties":{"OBJECTID":126,"ID":126,"NAME":"Science","BUILDING":" ","ADDRESS":"825 North Capitol Street NE","OFFICE":"8th floor","TELEPHONE":"442-5638","GIS_ID":"pad_126"},"geometry":{"type":"Point","coordinates":[-77.00844831249732,38.901026134470925]}},{"type":"Feature","properties":{"OBJECTID":127,"ID":127,"NAME":"Secondary School Programs","BUILDING":" ","ADDRESS":"825 North Capitol Street NE","OFFICE":"9th floor","TELEPHONE":"442-5100","GIS_ID":"pad_127"},"geometry":{"type":"Point","coordinates":[-77.00844831249732,38.901026134470925]}},{"type":"Feature","properties":{"OBJECTID":128,"ID":128,"NAME":"Security Desk","BUILDING":" ","ADDRESS":"825 North Capitol Street NE","OFFICE":"1st floor","TELEPHONE":"789-2282","GIS_ID":"pad_128"},"geometry":{"type":"Point","coordinates":[-77.00844831249732,38.901026134470925]}},{"type":"Feature","properties":{"OBJECTID":129,"ID":129,"NAME":"Security Division","BUILDING":" ","ADDRESS":"3535 V Street NE","OFFICE":" ","TELEPHONE":"576-6962","GIS_ID":"pad_129"},"geometry":{"type":"Point","coordinates":[-76.9572555220796,38.9182376232844]}},{"type":"Feature","properties":{"OBJECTID":130,"ID":130,"NAME":"SIS Hotline","BUILDING":" ","ADDRESS":"825 North Capitol Street NE","OFFICE":"5th floor","TELEPHONE":"442-5715","GIS_ID":"pad_130"},"geometry":{"type":"Point","coordinates":[-77.00844831249732,38.901026134470925]}},{"type":"Feature","properties":{"OBJECTID":131,"ID":131,"NAME":"Senior High School School Division","BUILDING":" ","ADDRESS":"825 North Capitol Street NE","OFFICE":"9th floor","TELEPHONE":"442-5100","GIS_ID":"pad_131"},"geometry":{"type":"Point","coordinates":[-77.00844831249732,38.901026134470925]}},{"type":"Feature","properties":{"OBJECTID":132,"ID":132,"NAME":"Service Learning","BUILDING":" ","ADDRESS":"825 North Capitol Street NE","OFFICE":"8th floor","TELEPHONE":"442-5155","GIS_ID":"pad_132"},"geometry":{"type":"Point","coordinates":[-77.00844831249732,38.901026134470925]}},{"type":"Feature","properties":{"OBJECTID":133,"ID":133,"NAME":"Social Studies","BUILDING":" ","ADDRESS":"825 North Capitol Street NE","OFFICE":"8th floor","TELEPHONE":"442-5646","GIS_ID":"pad_133"},"geometry":{"type":"Point","coordinates":[-77.00844831249732,38.901026134470925]}},{"type":"Feature","properties":{"OBJECTID":134,"ID":134,"NAME":"Special Education","BUILDING":" ","ADDRESS":"825 North Capitol Street NE","OFFICE":"6th floor","TELEPHONE":"442-4800","GIS_ID":"pad_134"},"geometry":{"type":"Point","coordinates":[-77.00844831249732,38.901026134470925]}},{"type":"Feature","properties":{"OBJECTID":135,"ID":135,"NAME":"Student Accounting","BUILDING":" ","ADDRESS":"825 North Capitol Street NE","OFFICE":"8th floor","TELEPHONE":"442-5220","GIS_ID":"pad_135"},"geometry":{"type":"Point","coordinates":[-77.00844831249732,38.901026134470925]}},{"type":"Feature","properties":{"OBJECTID":136,"ID":136,"NAME":"Student Affairs","BUILDING":" ","ADDRESS":"825 North Capitol Street NE","OFFICE":"6th floor","TELEPHONE":"442-5110","GIS_ID":"pad_136"},"geometry":{"type":"Point","coordinates":[-77.00844831249732,38.901026134470925]}},{"type":"Feature","properties":{"OBJECTID":137,"ID":137,"NAME":"Student Assessment","BUILDING":" ","ADDRESS":"825 North Capitol Street NE","OFFICE":"8th floor","TELEPHONE":"442-5220","GIS_ID":"pad_137"},"geometry":{"type":"Point","coordinates":[-77.00844831249732,38.901026134470925]}},{"type":"Feature","properties":{"OBJECTID":138,"ID":138,"NAME":"Student Government","BUILDING":" ","ADDRESS":"825 North Capitol Street NE","OFFICE":"6th floor","TELEPHONE":"442-5110","GIS_ID":"pad_138"},"geometry":{"type":"Point","coordinates":[-77.00844831249732,38.901026134470925]}},{"type":"Feature","properties":{"OBJECTID":139,"ID":139,"NAME":"Student Intervention","BUILDING":" ","ADDRESS":"825 North Capitol Street NE","OFFICE":"8th floor","TELEPHONE":"442-5099","GIS_ID":"pad_139"},"geometry":{"type":"Point","coordinates":[-77.00844831249732,38.901026134470925]}},{"type":"Feature","properties":{"OBJECTID":140,"ID":140,"NAME":"Student Enrollment Records","BUILDING":" ","ADDRESS":"825 North Capitol Street NE","OFFICE":"6th floor","TELEPHONE":"442-5110","GIS_ID":"pad_140"},"geometry":{"type":"Point","coordinates":[-77.00844831249732,38.901026134470925]}},{"type":"Feature","properties":{"OBJECTID":141,"ID":141,"NAME":"Student Residency","BUILDING":" ","ADDRESS":"825 North Capitol Street NE","OFFICE":"7th floor","TELEPHONE":"442-5215","GIS_ID":"pad_141"},"geometry":{"type":"Point","coordinates":[-77.00844831249732,38.901026134470925]}},{"type":"Feature","properties":{"OBJECTID":142,"ID":142,"NAME":"Student and School Support Services","BUILDING":" ","ADDRESS":"825 North Capitol Street NE","OFFICE":"8th floor","TELEPHONE":"442-5200","GIS_ID":"pad_142"},"geometry":{"type":"Point","coordinates":[-77.00844831249732,38.901026134470925]}},{"type":"Feature","properties":{"OBJECTID":143,"ID":143,"NAME":"Sumner School Museum and Archives","BUILDING":" ","ADDRESS":"1201 17th Street NW","OFFICE":" ","TELEPHONE":"442-6060","GIS_ID":"pad_143"},"geometry":{"type":"Point","coordinates":[-77.03813796250813,38.90586286300343]}},{"type":"Feature","properties":{"OBJECTID":144,"ID":144,"NAME":"Superintendent","BUILDING":" ","ADDRESS":"825 North Capitol Street NE","OFFICE":"9th floor","TELEPHONE":"442-5885","GIS_ID":"pad_144"},"geometry":{"type":"Point","coordinates":[-77.00844831249732,38.901026134470925]}},{"type":"Feature","properties":{"OBJECTID":145,"ID":145,"NAME":"TANF/After School Programs","BUILDING":" ","ADDRESS":"825 North Capitol Street NE","OFFICE":"8th floor","TELEPHONE":"442-5574","GIS_ID":"pad_145"},"geometry":{"type":"Point","coordinates":[-77.00844831249732,38.901026134470925]}},{"type":"Feature","properties":{"OBJECTID":146,"ID":146,"NAME":"Teacher Affairs","BUILDING":" ","ADDRESS":"825 North Capitol Street NE","OFFICE":"9th floor","TELEPHONE":"442-5574","GIS_ID":"pad_146"},"geometry":{"type":"Point","coordinates":[-77.00844831249732,38.901026134470925]}},{"type":"Feature","properties":{"OBJECTID":147,"ID":147,"NAME":"Teaching & Learning","BUILDING":" ","ADDRESS":"825 North Capitol Street NE","OFFICE":"8th floor","TELEPHONE":"442-5599","GIS_ID":"pad_147"},"geometry":{"type":"Point","coordinates":[-77.00844831249732,38.901026134470925]}},{"type":"Feature","properties":{"OBJECTID":148,"ID":148,"NAME":"Telecommuncations","BUILDING":" ","ADDRESS":"825 North Capitol Street NE","OFFICE":"8th floor","TELEPHONE":"442-5533","GIS_ID":"pad_148"},"geometry":{"type":"Point","coordinates":[-77.00844831249732,38.901026134470925]}},{"type":"Feature","properties":{"OBJECTID":149,"ID":149,"NAME":"Textbook Services","BUILDING":" ","ADDRESS":"825 North Capitol Street NE","OFFICE":"8th floor","TELEPHONE":"442-5599","GIS_ID":"pad_149"},"geometry":{"type":"Point","coordinates":[-77.00844831249732,38.901026134470925]}},{"type":"Feature","properties":{"OBJECTID":150,"ID":150,"NAME":"Title I","BUILDING":" ","ADDRESS":"825 North Capitol Street NE","OFFICE":"8th floor","TELEPHONE":"442-5570","GIS_ID":"pad_150"},"geometry":{"type":"Point","coordinates":[-77.00844831249732,38.901026134470925]}},{"type":"Feature","properties":{"OBJECTID":151,"ID":151,"NAME":"Transcripts for Closed Schools","BUILDING":" ","ADDRESS":"2000 Adams Place NE","OFFICE":" ","TELEPHONE":"576-7756","GIS_ID":"pad_151"},"geometry":{"type":"Point","coordinates":[-76.97551472598973,38.91929414759171]}},{"type":"Feature","properties":{"OBJECTID":152,"ID":152,"NAME":"Transitory Services","BUILDING":"Hamilton Building","ADDRESS":"1401 Brentwood Parkway NE","OFFICE":" ","TELEPHONE":"698-3300","GIS_ID":"pad_152"},"geometry":{"type":"Point","coordinates":[-76.99405638220765,38.90966863131406]}},{"type":"Feature","properties":{"OBJECTID":153,"ID":153,"NAME":"Transportation","BUILDING":"Penn Center","ADDRESS":"1709 3rd Street NE","OFFICE":" ","TELEPHONE":"576-6228","GIS_ID":"pad_153"},"geometry":{"type":"Point","coordinates":[-77.00123776105305,38.91298231418602]}},{"type":"Feature","properties":{"OBJECTID":154,"ID":154,"NAME":"Tuition Assistance Grant Program (DC TAG)","BUILDING":" ","ADDRESS":"441 4th Street NW","OFFICE":" ","TELEPHONE":"727-2824","GIS_ID":"pad_154"},"geometry":{"type":"Point","coordinates":[-77.0156545054435,38.895453357962545]}},{"type":"Feature","properties":{"OBJECTID":155,"ID":155,"NAME":"Visting Instruction Services","BUILDING":"Hamilton Building","ADDRESS":"1401 Brentwood Parkway NE","OFFICE":" ","TELEPHONE":"698-3300","GIS_ID":"pad_155"},"geometry":{"type":"Point","coordinates":[-76.99405638220765,38.90966863131406]}},{"type":"Feature","properties":{"OBJECTID":156,"ID":156,"NAME":"Volunteers","BUILDING":" ","ADDRESS":"825 North Capitol Street NE","OFFICE":"7th floor","TELEPHONE":"727-0488","GIS_ID":"pad_156"},"geometry":{"type":"Point","coordinates":[-77.00844831249732,38.901026134470925]}},{"type":"Feature","properties":{"OBJECTID":157,"ID":157,"NAME":"Warehouse","BUILDING":" ","ADDRESS":"2000 Adams Place NE","OFFICE":" ","TELEPHONE":"576-6026","GIS_ID":"pad_157"},"geometry":{"type":"Point","coordinates":[-76.97551472598973,38.91929414759171]}},{"type":"Feature","properties":{"OBJECTID":158,"ID":158,"NAME":"Washington Teachers' Union","BUILDING":" ","ADDRESS":"7717 K Street NW","OFFICE":"Suite 902","TELEPHONE":"293-8600","GIS_ID":"pad_158"},"geometry":{"type":"Point","coordinates":[-77.04005537085935,38.90281817235914]}},{"type":"Feature","properties":{"OBJECTID":159,"ID":159,"NAME":"Workforce and Professional Development","BUILDING":"Logan Building","ADDRESS":"215 G Street","OFFICE":" ","TELEPHONE":"698-3995","GIS_ID":"pad_159"},"geometry":{"type":"Point","coordinates":[-77.0025684243842,38.898537771109844]}},{"type":"Feature","properties":{"OBJECTID":160,"ID":160,"NAME":"Work Permits","BUILDING":" ","ADDRESS":"825 North Capitol Street NE","OFFICE":"6th floor","TELEPHONE":"442-5108","GIS_ID":"pad_160"},"geometry":{"type":"Point","coordinates":[-77.00844831249732,38.901026134470925]}},{"type":"Feature","properties":{"OBJECTID":161,"ID":161,"NAME":"Main Administration Building","BUILDING":" ","ADDRESS":"825 North Capitol Street NE","OFFICE":" ","TELEPHONE":"724-4222","GIS_ID":"pad_161"},"geometry":{"type":"Point","coordinates":[-77.00844831249732,38.901026134470925]}},{"type":"Feature","properties":{"OBJECTID":162,"ID":162,"NAME":"Harbor Garage","BUILDING":" ","ADDRESS":"7th Street & H Street SW","OFFICE":" ","TELEPHONE":"724-4881","GIS_ID":"pad_162"},"geometry":{"type":"Point","coordinates":[-77.02359773073371,38.88042843296545]}},{"type":"Feature","properties":{"OBJECTID":163,"ID":163,"NAME":"Transportation Bus Lot  - 5th Street","BUILDING":" ","ADDRESS":"2115 5th Street NE","OFFICE":" ","TELEPHONE":"576-6306","GIS_ID":"pad_163"},"geometry":{"type":"Point","coordinates":[-76.99918967467059,38.91863901149488]}}]}