{"type":"FeatureCollection","features":[{"type":"Feature","properties":{"OBJECTID":1,"NAME":"Agape Woodland Tiger Children's Academy","ADDRESS":"3200 S STREET SE","PHONE":"202-575-0694","SPONSORING":"DC Department of Parks and Recreation","DATE_OPEN":"2016-06-20T00:00:00.000Z","DATE_CLOSE":"2016-08-19T00:00:00.000Z","DAYS_OPEN":"M,T,W,TH, F","HOURS_OPEN":"8:00 -12:30","LUNCH_TIME":"11:30 - 12:30","SNACK_TIME":null,"DINNER_SUP":null,"MEAL_TYPES":"B , L","X":403496.31,"Y":133383.67,"WARD":"Ward 7","ADDRID":38824,"CONTACT_FI_NAME":"Monica","CONTACT_LAS_NAME":"Dowtin","STATUS":"Open","ADDRESS2":null,"BREAKFEAST_TIME":"8:00 - 9:00","CONTACT_PHONE":"202-575-0694","ZIPCODE":"20020","STATE_REFERENCE":null},"geometry":{"type":"Point","coordinates":[-76.95971405284833,38.86827662589985]}},{"type":"Feature","properties":{"OBJECTID":2,"NAME":"Anacostia Neighborhood Library","ADDRESS":"1800 GOOD HOPE ROAD SE","PHONE":"202-715-7707","SPONSORING":"DC Department of Parks and Recreation","DATE_OPEN":"2016-06-19T00:00:00.000Z","DATE_CLOSE":"2016-08-19T00:00:00.000Z","DAYS_OPEN":"M,T,W,TH, F,SA","HOURS_OPEN":"1:00 -2:00","LUNCH_TIME":"1:00 - 2:00","SNACK_TIME":null,"DINNER_SUP":null,"MEAL_TYPES":"L","X":401854.99,"Y":133121.03,"WARD":"Ward 8","ADDRID":53560,"CONTACT_FI_NAME":"Yvette ","CONTACT_LAS_NAME":"Davis","STATUS":"Open","ADDRESS2":null,"BREAKFEAST_TIME":null,"CONTACT_PHONE":"202-715-7707","ZIPCODE":"20020","STATE_REFERENCE":null},"geometry":{"type":"Point","coordinates":[-76.978627807395,38.865915649665844]}},{"type":"Feature","properties":{"OBJECTID":3,"NAME":"Anacostia Recreation Center","ADDRESS":"1800 ANACOSTIA DRIVE SE","PHONE":"202-997-4772","SPONSORING":"DC Department of Parks and Recreation","DATE_OPEN":"2016-06-20T00:00:00.000Z","DATE_CLOSE":"2016-08-19T00:00:00.000Z","DAYS_OPEN":"M,T,W,TH, F","HOURS_OPEN":"9:00 -2:00","LUNCH_TIME":"12:00 - 2:00","SNACK_TIME":null,"DINNER_SUP":null,"MEAL_TYPES":"B , L","X":401466.4,"Y":133862.52,"WARD":"Ward 8","ADDRID":295129,"CONTACT_FI_NAME":"Cecilia ","CONTACT_LAS_NAME":"Thomas","STATUS":"Open","ADDRESS2":null,"BREAKFEAST_TIME":"9:00 - 10:00","CONTACT_PHONE":"202-997-4772","ZIPCODE":"20020","STATE_REFERENCE":null},"geometry":{"type":"Point","coordinates":[-76.98310382807962,38.87259602805553]}},{"type":"Feature","properties":{"OBJECTID":4,"NAME":"Arbor View Community Center (formerly Southern Ridge)","ADDRESS":"1220 SOUTHERN AVENUE SE","PHONE":"202-562-1920","SPONSORING":"DC Department of Parks and Recreation","DATE_OPEN":"2016-06-20T00:00:00.000Z","DATE_CLOSE":"2016-08-19T00:00:00.000Z","DAYS_OPEN":"M,T,W,TH, F","HOURS_OPEN":"9:00 -1:00","LUNCH_TIME":"12:00 - 1:00","SNACK_TIME":null,"DINNER_SUP":null,"MEAL_TYPES":"B , L","X":401163.53,"Y":129652.73,"WARD":"Ward 8","ADDRID":285942,"CONTACT_FI_NAME":"Cora ","CONTACT_LAS_NAME":"Clark","STATUS":"Open","ADDRESS2":null,"BREAKFEAST_TIME":"9:00 - 10:00","CONTACT_PHONE":"202-562-1920","ZIPCODE":"20032","STATE_REFERENCE":null},"geometry":{"type":"Point","coordinates":[-76.98660115105274,38.8346728743419]}},{"type":"Feature","properties":{"OBJECTID":5,"NAME":"Arboretum Community Center","ADDRESS":"2412 RAND PLACE NE","PHONE":"202-528-3110","SPONSORING":"DC Department of Parks and Recreation","DATE_OPEN":"2016-06-20T00:00:00.000Z","DATE_CLOSE":"2016-08-19T00:00:00.000Z","DAYS_OPEN":"M,T,W,TH, F","HOURS_OPEN":"8:00-2:30","LUNCH_TIME":"12:00 - 2:00","SNACK_TIME":null,"DINNER_SUP":null,"MEAL_TYPES":"B, L","X":402500.41,"Y":138428.3,"WARD":"Ward 5","ADDRID":296167,"CONTACT_FI_NAME":"Jean ","CONTACT_LAS_NAME":"Mason","STATUS":"Open","ADDRESS2":null,"BREAKFEAST_TIME":"9:00  - 10:00","CONTACT_PHONE":"202-528-3110","ZIPCODE":"20002","STATE_REFERENCE":null},"geometry":{"type":"Point","coordinates":[-76.97117152271163,38.91372393474667]}},{"type":"Feature","properties":{"OBJECTID":6,"NAME":"Assembly of the Saints, CDC","ADDRESS":"4605 KANE PLACE NE","PHONE":"202-399-5091","SPONSORING":"DC Department of Parks and Recreation","DATE_OPEN":"2016-06-20T00:00:00.000Z","DATE_CLOSE":"2016-08-19T00:00:00.000Z","DAYS_OPEN":"M,T,W,TH, F","HOURS_OPEN":"6:30 -12:30","LUNCH_TIME":"11:30 - 12:30","SNACK_TIME":null,"DINNER_SUP":null,"MEAL_TYPES":"B , L","X":405580.11,"Y":137293.58,"WARD":"Ward 7","ADDRID":19383,"CONTACT_FI_NAME":"Stefani ","CONTACT_LAS_NAME":"Costen","STATUS":"Open","ADDRESS2":null,"BREAKFEAST_TIME":"6:30 - 9:00","CONTACT_PHONE":"202-399-5091","ZIPCODE":"20019","STATE_REFERENCE":null},"geometry":{"type":"Point","coordinates":[-76.93567053584619,38.90348783024039]}},{"type":"Feature","properties":{"OBJECTID":7,"NAME":"Atlas Performing Arts Center - City at Peace","ADDRESS":"1333 H STREET NE","PHONE":"202-412-0684","SPONSORING":"DC Department of Parks and Recreation","DATE_OPEN":"2016-06-20T00:00:00.000Z","DATE_CLOSE":"2016-08-19T00:00:00.000Z","DAYS_OPEN":"M,T,W,TH, F","HOURS_OPEN":"12:00 -1:00","LUNCH_TIME":"12:00 - 1:00","SNACK_TIME":null,"DINNER_SUP":null,"MEAL_TYPES":"L","X":401108.85,"Y":136902.33,"WARD":"Ward 6","ADDRID":286066,"CONTACT_FI_NAME":"Sandra ","CONTACT_LAS_NAME":"Holloway","STATUS":"Open","ADDRESS2":null,"BREAKFEAST_TIME":null,"CONTACT_PHONE":"202-412-0684","ZIPCODE":"20002","STATE_REFERENCE":null},"geometry":{"type":"Point","coordinates":[-76.98721924780708,38.899980321082474]}},{"type":"Feature","properties":{"OBJECTID":8,"NAME":"Bald Eagle Rec. Center","ADDRESS":"100 JOLIET STREET SW","PHONE":"202-671-5125","SPONSORING":"DC Department of Parks and Recreation","DATE_OPEN":"2016-06-20T00:00:00.000Z","DATE_CLOSE":"2016-08-12T00:00:00.000Z","DAYS_OPEN":"M,T,W,TH, F,SA","HOURS_OPEN":"8:00 -2:00","LUNCH_TIME":"12:00 - 2:00","SNACK_TIME":null,"DINNER_SUP":null,"MEAL_TYPES":"B , L","X":399117.53,"Y":127901.54,"WARD":"Ward 8","ADDRID":301277,"CONTACT_FI_NAME":"Margie ","CONTACT_LAS_NAME":"Robinson","STATUS":"Open","ADDRESS2":null,"BREAKFEAST_TIME":"8:00 - 9:00","CONTACT_PHONE":"202-671-5125","ZIPCODE":"20032","STATE_REFERENCE":null},"geometry":{"type":"Point","coordinates":[-77.01016401193681,38.81889765596578]}},{"type":"Feature","properties":{"OBJECTID":9,"NAME":"Banneker Rec. Center","ADDRESS":"2500 GEORGIA AVENUE NW","PHONE":"202-673-6861","SPONSORING":"DC Department of Parks and Recreation","DATE_OPEN":"2016-06-20T00:00:00.000Z","DATE_CLOSE":"2016-08-19T00:00:00.000Z","DAYS_OPEN":"M,T,W,TH, F,SA","HOURS_OPEN":"9:00 -2:00","LUNCH_TIME":"12:00 - 2:00","SNACK_TIME":null,"DINNER_SUP":null,"MEAL_TYPES":"B , L","X":398041.68,"Y":139425.87,"WARD":"Ward 1","ADDRID":232292,"CONTACT_FI_NAME":"Henry ","CONTACT_LAS_NAME":"Plater","STATUS":"Open","ADDRESS2":null,"BREAKFEAST_TIME":"9:00 - 10:00","CONTACT_PHONE":"202-673-6861","ZIPCODE":"20001","STATE_REFERENCE":null},"geometry":{"type":"Point","coordinates":[-77.02258537040541,38.92271174781959]}},{"type":"Feature","properties":{"OBJECTID":10,"NAME":"Baptized Believers Church ","ADDRESS":"2801 7TH STREET NE","PHONE":"202-500-6317","SPONSORING":"DC Department of Parks and Recreation","DATE_OPEN":"2016-06-20T00:00:00.000Z","DATE_CLOSE":"2016-08-19T00:00:00.000Z","DAYS_OPEN":"M,T,W,TH, F","HOURS_OPEN":null,"LUNCH_TIME":null,"SNACK_TIME":null,"DINNER_SUP":null,"MEAL_TYPES":"B , L","X":400364.67,"Y":139771,"WARD":"Ward 5","ADDRID":44722,"CONTACT_FI_NAME":"Higginbotham","CONTACT_LAS_NAME":"Nischka","STATUS":"Open","ADDRESS2":null,"BREAKFEAST_TIME":null,"CONTACT_PHONE":"202-500-6317","ZIPCODE":"20017","STATE_REFERENCE":null},"geometry":{"type":"Point","coordinates":[-76.995796775797,38.92582289679478]}},{"type":"Feature","properties":{"OBJECTID":11,"NAME":"Barry Farm (HA)","ADDRESS":"1136 EATON ROAD SE","PHONE":"202-607-5440","SPONSORING":"DC Department of Parks and Recreation","DATE_OPEN":"2016-06-20T00:00:00.000Z","DATE_CLOSE":"2016-08-19T00:00:00.000Z","DAYS_OPEN":"M,T,W,TH, F","HOURS_OPEN":"11:45 -1:00","LUNCH_TIME":"11:45 - 1:00","SNACK_TIME":null,"DINNER_SUP":null,"MEAL_TYPES":"L","X":400072.57,"Y":132557.45,"WARD":"Ward 8","ADDRID":147916,"CONTACT_FI_NAME":"Rhonda","CONTACT_LAS_NAME":"Edwards","STATUS":"Open","ADDRESS2":null,"BREAKFEAST_TIME":null,"CONTACT_PHONE":"202-607-5440","ZIPCODE":"20020","STATE_REFERENCE":null},"geometry":{"type":"Point","coordinates":[-76.99916613902809,38.8608406382703]}},{"type":"Feature","properties":{"OBJECTID":12,"NAME":"Barry Farm Rec. Center","ADDRESS":"1230 SUMNER ROAD SE","PHONE":"202-498-4988             202-442-5420","SPONSORING":"DC Department of Parks and Recreation","DATE_OPEN":"2016-06-20T00:00:00.000Z","DATE_CLOSE":"2016-08-19T00:00:00.000Z","DAYS_OPEN":"M,T,W,TH, F,SA","HOURS_OPEN":"8:00 -2:00","LUNCH_TIME":"12:00 - 2:00","SNACK_TIME":null,"DINNER_SUP":null,"MEAL_TYPES":"B , L","X":400320.84,"Y":132501.09,"WARD":"Ward 8","ADDRID":285960,"CONTACT_FI_NAME":"Richard ","CONTACT_LAS_NAME":"Evans","STATUS":"Open","ADDRESS2":null,"BREAKFEAST_TIME":"8:00 - 10:00","CONTACT_PHONE":"202-498-4988","ZIPCODE":"20020","STATE_REFERENCE":null},"geometry":{"type":"Point","coordinates":[-76.99630563057333,38.86033286820143]}},{"type":"Feature","properties":{"OBJECTID":13,"NAME":"Basis DC","ADDRESS":"410 8TH STREET NW","PHONE":"202-808-0641","SPONSORING":"DC Department of Parks and Recreation","DATE_OPEN":"2016-06-20T00:00:00.000Z","DATE_CLOSE":"2016-08-19T00:00:00.000Z","DAYS_OPEN":"M,T,W,TH, F","HOURS_OPEN":"12:00 - 2:00","LUNCH_TIME":"12:00 - 2:00","SNACK_TIME":null,"DINNER_SUP":null,"MEAL_TYPES":"L","X":397985.56,"Y":136374.28,"WARD":"Ward 2","ADDRID":279758,"CONTACT_FI_NAME":"Heather","CONTACT_LAS_NAME":"Vita","STATUS":"Open","ADDRESS2":null,"BREAKFEAST_TIME":null,"CONTACT_PHONE":"202-808-0641","ZIPCODE":"20004","STATE_REFERENCE":null},"geometry":{"type":"Point","coordinates":[-77.02322358555865,38.89522184439351]}},{"type":"Feature","properties":{"OBJECTID":14,"NAME":"Benning Park Rec. Center","ADDRESS":"5100 SOUTHERN AVENUE SE","PHONE":"202-645-3957","SPONSORING":"DC Department of Parks and Recreation","DATE_OPEN":"2016-06-20T00:00:00.000Z","DATE_CLOSE":"2016-08-19T00:00:00.000Z","DAYS_OPEN":"M,T,W,TH, F,SA","HOURS_OPEN":"9:00 - 2:00","LUNCH_TIME":"12:00 - 2:00","SNACK_TIME":null,"DINNER_SUP":null,"MEAL_TYPES":"B , L","X":406339.46,"Y":134665.37,"WARD":"Ward 7","ADDRID":296175,"CONTACT_FI_NAME":"Cecilia ","CONTACT_LAS_NAME":"Graves","STATUS":"Open","ADDRESS2":null,"BREAKFEAST_TIME":"9:00 - 10:00","CONTACT_PHONE":"202-645-3957","ZIPCODE":"20019","STATE_REFERENCE":null},"geometry":{"type":"Point","coordinates":[-76.9269404244556,38.87980679198983]}},{"type":"Feature","properties":{"OBJECTID":15,"NAME":"Benning Terrace (HA)","ADDRESS":"4450 G STREET SE","PHONE":"202-329-2523","SPONSORING":"DC Department of Parks and Recreation","DATE_OPEN":"2016-06-20T00:00:00.000Z","DATE_CLOSE":"2016-08-12T00:00:00.000Z","DAYS_OPEN":"M,T,W,TH, F","HOURS_OPEN":"9:00 -2:00","LUNCH_TIME":"12:00 - 2:00","SNACK_TIME":null,"DINNER_SUP":null,"MEAL_TYPES":"B , L","X":405474.3,"Y":134753.82,"WARD":"Ward 7","ADDRID":21041,"CONTACT_FI_NAME":"Tia","CONTACT_LAS_NAME":"Newman","STATUS":"Open","ADDRESS2":null,"BREAKFEAST_TIME":"9:00 - 10:00","CONTACT_PHONE":"202-329-2523","ZIPCODE":"20019","STATE_REFERENCE":null},"geometry":{"type":"Point","coordinates":[-76.93691062842727,38.88060939565308]}},{"type":"Feature","properties":{"OBJECTID":16,"NAME":"Bethel Christian Fellowship","ADDRESS":"2200 MARTIN LUTHER KING JR AVENUE SE","PHONE":"202-678-8934","SPONSORING":"DC Department of Parks and Recreation","DATE_OPEN":"2016-06-20T00:00:00.000Z","DATE_CLOSE":"2016-08-19T00:00:00.000Z","DAYS_OPEN":"M,T,W,TH, F","HOURS_OPEN":"8:00 -12:30","LUNCH_TIME":"11:30 - 12:30","SNACK_TIME":null,"DINNER_SUP":null,"MEAL_TYPES":"B , L","X":400903.89,"Y":132992.5,"WARD":"Ward 8","ADDRID":50762,"CONTACT_FI_NAME":"Wanda ","CONTACT_LAS_NAME":"Edwards","STATUS":"Open","ADDRESS2":null,"BREAKFEAST_TIME":"8:00 - 9:00","CONTACT_PHONE":"202-678-8934","ZIPCODE":"20020","STATE_REFERENCE":null},"geometry":{"type":"Point","coordinates":[-76.98958720626895,38.86475928955623]}},{"type":"Feature","properties":{"OBJECTID":17,"NAME":"Bishop John T. Walker School for Boys","ADDRESS":"3640 MARTIN LUTHER KING JR AVENUE SE","PHONE":"202-399-3618             202-864-9714","SPONSORING":"DC Department of Parks and Recreation","DATE_OPEN":"2016-06-20T00:00:00.000Z","DATE_CLOSE":"2016-08-16T00:00:00.000Z","DAYS_OPEN":"M,T,W,TH, F","HOURS_OPEN":"7:00 -12:30","LUNCH_TIME":"11:30 - 12:30","SNACK_TIME":null,"DINNER_SUP":null,"MEAL_TYPES":"B , L","X":399520.53,"Y":130045.2,"WARD":"Ward 8","ADDRID":32174,"CONTACT_FI_NAME":"Jashae","CONTACT_LAS_NAME":"Johnson","STATUS":"Open","ADDRESS2":null,"BREAKFEAST_TIME":"7:30 - 8:30","CONTACT_PHONE":"202-399-3618         202-864-9714","ZIPCODE":"20032","STATE_REFERENCE":null},"geometry":{"type":"Point","coordinates":[-77.00552491976322,38.83820906157063]}},{"type":"Feature","properties":{"OBJECTID":18,"NAME":"Brentwood Rec. Center","ADDRESS":"2311 14TH STREET NE","PHONE":"202-576-6667","SPONSORING":"DC Department of Parks and Recreation","DATE_OPEN":"2016-06-20T00:00:00.000Z","DATE_CLOSE":"2016-08-19T00:00:00.000Z","DAYS_OPEN":"M,T,W,TH, F,SA","HOURS_OPEN":"9:00 -2:00","LUNCH_TIME":"12:00 - 2:00","SNACK_TIME":null,"DINNER_SUP":null,"MEAL_TYPES":"B , L","X":401481.38,"Y":139241.02,"WARD":"Ward 5","ADDRID":286825,"CONTACT_FI_NAME":"George ","CONTACT_LAS_NAME":"Love","STATUS":"Open","ADDRESS2":null,"BREAKFEAST_TIME":"9:00 - 10:00","CONTACT_PHONE":"202-576-6667","ZIPCODE":"20018","STATE_REFERENCE":null},"geometry":{"type":"Point","coordinates":[-76.98291960666006,38.921047494004576]}},{"type":"Feature","properties":{"OBJECTID":19,"NAME":"Brighter Day Enrichment Academy (formerly Brighter Day Ministries)","ADDRESS":"2525 12TH PLACE SE","PHONE":"202-562-0600            202-562-1874","SPONSORING":"DC Department of Parks and Recreation","DATE_OPEN":"2016-06-20T00:00:00.000Z","DATE_CLOSE":"2016-08-19T00:00:00.000Z","DAYS_OPEN":"M,T,W,TH, F","HOURS_OPEN":"7:30 - 2:00","LUNCH_TIME":"12:00 - 2:00","SNACK_TIME":null,"DINNER_SUP":null,"MEAL_TYPES":"B , L","X":401272.87,"Y":131527.14,"WARD":"Ward 8","ADDRID":46354,"CONTACT_FI_NAME":"Ryane ","CONTACT_LAS_NAME":"Nickens","STATUS":"Open","ADDRESS2":null,"BREAKFEAST_TIME":"7:30 - 8:30","CONTACT_PHONE":"202-562-0600       202-562-1874","ZIPCODE":"20020","STATE_REFERENCE":null},"geometry":{"type":"Point","coordinates":[-76.9853383446426,38.85155824704445]}},{"type":"Feature","properties":{"OBJECTID":20,"NAME":"Camp Nation","ADDRESS":"806 RHODE ISLAND AVENUE NE","PHONE":"202-526-5176","SPONSORING":"DC Department of Parks and Recreation","DATE_OPEN":"2016-06-20T00:00:00.000Z","DATE_CLOSE":"2016-08-12T00:00:00.000Z","DAYS_OPEN":"M,T,W,TH, F","HOURS_OPEN":"8:00 -12:00","LUNCH_TIME":"11:00 - 12:00","SNACK_TIME":null,"DINNER_SUP":null,"MEAL_TYPES":"B , L","X":400495.52,"Y":139362.39,"WARD":"Ward 5","ADDRID":79837,"CONTACT_FI_NAME":"Anthony ","CONTACT_LAS_NAME":"Minor","STATUS":"Open","ADDRESS2":null,"BREAKFEAST_TIME":"8:00 - 9:00","CONTACT_PHONE":"202-526-5176","ZIPCODE":"20018","STATE_REFERENCE":null},"geometry":{"type":"Point","coordinates":[-76.99428805994299,38.922141942848]}},{"type":"Feature","properties":{"OBJECTID":21,"NAME":"Campbell AME Church ","ADDRESS":"2562 MARTIN LUTHER KING JR AVENUE SE","PHONE":"202-3/706-2374","SPONSORING":"DC Department of Parks and Recreation","DATE_OPEN":"2016-06-20T00:00:00.000Z","DATE_CLOSE":"2016-08-19T00:00:00.000Z","DAYS_OPEN":"W , F","HOURS_OPEN":"4:00 - 8:00","LUNCH_TIME":"4:00 - 8:00","SNACK_TIME":null,"DINNER_SUP":null,"MEAL_TYPES":"L","X":400460.56,"Y":132407.69,"WARD":"Ward 8","ADDRID":278182,"CONTACT_FI_NAME":"Angela ","CONTACT_LAS_NAME":"White","STATUS":"Open","ADDRESS2":null,"BREAKFEAST_TIME":null,"CONTACT_PHONE":"202-3/706-2374","ZIPCODE":"20020","STATE_REFERENCE":null},"geometry":{"type":"Point","coordinates":[-76.9946958688226,38.85949141951033]}},{"type":"Feature","properties":{"OBJECTID":22,"NAME":"Capitol View Library","ADDRESS":"5001 CENTRAL AVENUE SE","PHONE":"202-645-0755            202-409-9751","SPONSORING":"DC Department of Parks and Recreation","DATE_OPEN":"2016-06-20T00:00:00.000Z","DATE_CLOSE":"2016-08-19T00:00:00.000Z","DAYS_OPEN":"M,T,W,TH, F,SA","HOURS_OPEN":"1:00 -2:30","LUNCH_TIME":"1:00 - 2:30 ","SNACK_TIME":null,"DINNER_SUP":null,"MEAL_TYPES":"L","X":406109.69,"Y":135681.52,"WARD":"Ward 7","ADDRID":15509,"CONTACT_FI_NAME":"Violette","CONTACT_LAS_NAME":"Taylor","STATUS":"Open","ADDRESS2":null,"BREAKFEAST_TIME":null,"CONTACT_PHONE":"202-645-0755        202-409-9751","ZIPCODE":"20019","STATE_REFERENCE":null},"geometry":{"type":"Point","coordinates":[-76.92957947374357,38.888962286299915]}},{"type":"Feature","properties":{"OBJECTID":23,"NAME":"Carver Terrace Tenants Association","ADDRESS":"2026 MARYLAND AVENUE NE","PHONE":"202-320-5072","SPONSORING":"DC Department of Parks and Recreation","DATE_OPEN":"2016-06-20T00:00:00.000Z","DATE_CLOSE":"2016-08-19T00:00:00.000Z","DAYS_OPEN":"M,T,W,TH, F","HOURS_OPEN":"9:00 -1:30","LUNCH_TIME":"12:00 - 1:30","SNACK_TIME":null,"DINNER_SUP":null,"MEAL_TYPES":"B , L","X":402213.91,"Y":137358.03,"WARD":"Ward 5","ADDRID":52408,"CONTACT_FI_NAME":"Thelma ","CONTACT_LAS_NAME":"Duren","STATUS":"Open","ADDRESS2":null,"BREAKFEAST_TIME":"9:00 - 10:00","CONTACT_PHONE":"202-320-5072","ZIPCODE":"20002","STATE_REFERENCE":null},"geometry":{"type":"Point","coordinates":[-76.97447843584874,38.90408334113219]}},{"type":"Feature","properties":{"OBJECTID":24,"NAME":"Center City PCS - Congress Heights","ADDRESS":"220 HIGHVIEW PLACE SE","PHONE":"202-562-7070","SPONSORING":"DC Department of Parks and Recreation","DATE_OPEN":"2016-06-20T00:00:00.000Z","DATE_CLOSE":"2016-08-19T00:00:00.000Z","DAYS_OPEN":"M,T,W,TH, F","HOURS_OPEN":"8:15 -2:00","LUNCH_TIME":"12:00 - 2:00","SNACK_TIME":null,"DINNER_SUP":null,"MEAL_TYPES":"B , L","X":399614.14,"Y":130420.96,"WARD":"Ward 8","ADDRID":303702,"CONTACT_FI_NAME":"Sidney ","CONTACT_LAS_NAME":"Smith","STATUS":"Open","ADDRESS2":null,"BREAKFEAST_TIME":"8:15 - 9:15","CONTACT_PHONE":"202-562-7070","ZIPCODE":"20032","STATE_REFERENCE":null},"geometry":{"type":"Point","coordinates":[-77.00444691030762,38.841594123678135]}},{"type":"Feature","properties":{"OBJECTID":25,"NAME":"Center City PCS - Shaw (Kids and Culture Camp)","ADDRESS":"711 N STREET NW","PHONE":"202-234-1093","SPONSORING":"DC Department of Parks and Recreation","DATE_OPEN":"2016-06-20T00:00:00.000Z","DATE_CLOSE":"2016-08-19T00:00:00.000Z","DAYS_OPEN":"M,T,W,TH, F","HOURS_OPEN":"8:15 -2:00","LUNCH_TIME":"12:00 - 2:00","SNACK_TIME":null,"DINNER_SUP":null,"MEAL_TYPES":"B , L","X":398034.11,"Y":137731.91,"WARD":"Ward 6","ADDRID":290191,"CONTACT_FI_NAME":"Josh","CONTACT_LAS_NAME":"Browning","STATUS":"Open","ADDRESS2":null,"BREAKFEAST_TIME":"8:15 - 9:15","CONTACT_PHONE":"202-234-1093","ZIPCODE":"20001","STATE_REFERENCE":null},"geometry":{"type":"Point","coordinates":[-77.02266781558147,38.90745197117722]}},{"type":"Feature","properties":{"OBJECTID":26,"NAME":"Chancy Spruell Community Center","ADDRESS":"3517 JAY STREET NE","PHONE":"202-398-2375","SPONSORING":"DC Department of Parks and Recreation","DATE_OPEN":"2016-06-20T00:00:00.000Z","DATE_CLOSE":"2016-08-19T00:00:00.000Z","DAYS_OPEN":"M,T,W,TH, F","HOURS_OPEN":"8:00 -1:00","LUNCH_TIME":"11:30 - 1:00","SNACK_TIME":null,"DINNER_SUP":null,"MEAL_TYPES":"B , L","X":404252.63,"Y":137564.14,"WARD":"Ward 7","ADDRID":295237,"CONTACT_FI_NAME":"Tina","CONTACT_LAS_NAME":"Beeks ","STATUS":"Open","ADDRESS2":null,"BREAKFEAST_TIME":"8:00 - 9:00","CONTACT_PHONE":"202-398-2375","ZIPCODE":"20019","STATE_REFERENCE":null},"geometry":{"type":"Point","coordinates":[-76.95097305539552,38.90593255400814]}},{"type":"Feature","properties":{"OBJECTID":27,"NAME":"CHV Tenants Association","ADDRESS":"2900 14TH STREET NW","PHONE":"202-409-1045","SPONSORING":"DC Department of Parks and Recreation","DATE_OPEN":"2016-06-20T00:00:00.000Z","DATE_CLOSE":"2016-08-19T00:00:00.000Z","DAYS_OPEN":"M,T,W,TH, F","HOURS_OPEN":"9:00 -1:30","LUNCH_TIME":"12:00 - 1:30","SNACK_TIME":null,"DINNER_SUP":null,"MEAL_TYPES":"B , L","X":397160.74,"Y":139909.37,"WARD":"Ward 1","ADDRID":234356,"CONTACT_FI_NAME":"Patricia ","CONTACT_LAS_NAME":"Jenkins","STATUS":"Open","ADDRESS2":null,"BREAKFEAST_TIME":"9:00 - 10:00","CONTACT_PHONE":"202-409-1045","ZIPCODE":"20009","STATE_REFERENCE":null},"geometry":{"type":"Point","coordinates":[-77.03274625262765,38.92706486480764]}},{"type":"Feature","properties":{"OBJECTID":28,"NAME":"City Gate at Richardson Dwellings","ADDRESS":"5319 1/2 DIX STREET NE","PHONE":"202-550-3157 /202-561-5113","SPONSORING":"DC Department of Parks and Recreation","DATE_OPEN":"2016-06-20T00:00:00.000Z","DATE_CLOSE":"2016-08-19T00:00:00.000Z","DAYS_OPEN":"M,T,W,TH, F","HOURS_OPEN":"9:00 - 2:00","LUNCH_TIME":"12:00 - 2:00","SNACK_TIME":null,"DINNER_SUP":null,"MEAL_TYPES":"B , L","X":406587.97,"Y":136293.24,"WARD":"Ward 7","ADDRID":290956,"CONTACT_FI_NAME":"Alicia ","CONTACT_LAS_NAME":"Vicks","STATUS":"Open","ADDRESS2":null,"BREAKFEAST_TIME":"9:00  - 10:00","CONTACT_PHONE":"202-550-3157 /202-561-5113","ZIPCODE":"20019","STATE_REFERENCE":null},"geometry":{"type":"Point","coordinates":[-76.92406075824229,38.894469433049544]}},{"type":"Feature","properties":{"OBJECTID":29,"NAME":"City Gate at the Merrick Center","ADDRESS":"4275 4TH STREET SE","PHONE":"202-237-1799","SPONSORING":"DC Department of Parks and Recreation","DATE_OPEN":"2016-06-20T00:00:00.000Z","DATE_CLOSE":"2016-08-19T00:00:00.000Z","DAYS_OPEN":"M,T,W,TH, F","HOURS_OPEN":"9:00 - 2:00","LUNCH_TIME":"12:00 - 2:00","SNACK_TIME":null,"DINNER_SUP":null,"MEAL_TYPES":"B , L","X":400003.9,"Y":128589.91,"WARD":"Ward 8","ADDRID":276628,"CONTACT_FI_NAME":"Ralph ","CONTACT_LAS_NAME":"Jackson","STATUS":"Open","ADDRESS2":null,"BREAKFEAST_TIME":"9:00  - 10:00","CONTACT_PHONE":"202-237-1799","ZIPCODE":"20032","STATE_REFERENCE":null},"geometry":{"type":"Point","coordinates":[-76.99995736617356,38.825099264650945]}},{"type":"Feature","properties":{"OBJECTID":30,"NAME":"Columbia Heights","ADDRESS":"1480 GIRARD STREET NW","PHONE":"202-671-0373","SPONSORING":"DC Department of Parks and Recreation","DATE_OPEN":"2016-06-20T00:00:00.000Z","DATE_CLOSE":"2016-08-19T00:00:00.000Z","DAYS_OPEN":"M,T,W,TH, F,SA","HOURS_OPEN":"9:00 -2:00","LUNCH_TIME":"12:00 - 2:00","SNACK_TIME":null,"DINNER_SUP":null,"MEAL_TYPES":"B , L","X":396956.78,"Y":139707.59,"WARD":"Ward 1","ADDRID":284045,"CONTACT_FI_NAME":"Shameka ","CONTACT_LAS_NAME":"Jones","STATUS":"Open","ADDRESS2":null,"BREAKFEAST_TIME":"9:00 - 10:00","CONTACT_PHONE":"202-671-0373","ZIPCODE":"20009","STATE_REFERENCE":null},"geometry":{"type":"Point","coordinates":[-77.0350975408508,38.92524648392043]}},{"type":"Feature","properties":{"OBJECTID":31,"NAME":"Congress Heights Rec. Center","ADDRESS":"611 ALABAMA AVENUE SE","PHONE":"202-645-3980","SPONSORING":"DC Department of Parks and Recreation","DATE_OPEN":"2016-06-20T00:00:00.000Z","DATE_CLOSE":"2016-08-19T00:00:00.000Z","DAYS_OPEN":"M,T,W,TH, F","HOURS_OPEN":"9:00 -2:00","LUNCH_TIME":"12:00 - 2:00","SNACK_TIME":null,"DINNER_SUP":null,"MEAL_TYPES":"B , L","X":400270.18,"Y":130495.24,"WARD":"Ward 8","ADDRID":307835,"CONTACT_FI_NAME":"Thomas ","CONTACT_LAS_NAME":"Bolden","STATUS":"Open","ADDRESS2":null,"BREAKFEAST_TIME":"9:00 - 10:00","CONTACT_PHONE":"202-645-3980","ZIPCODE":"20032","STATE_REFERENCE":null},"geometry":{"type":"Point","coordinates":[-76.99689011115642,38.842263314708994]}},{"type":"Feature","properties":{"OBJECTID":32,"NAME":"Dance Institute of Washington","ADDRESS":"3400 14TH STREET NW","PHONE":"202-371-9686","SPONSORING":"DC Department of Parks and Recreation","DATE_OPEN":"2016-06-20T00:00:00.000Z","DATE_CLOSE":"2016-08-19T00:00:00.000Z","DAYS_OPEN":"M,T,W,TH, F","HOURS_OPEN":"8:00 -2:00","LUNCH_TIME":"12:00 - 2:00","SNACK_TIME":null,"DINNER_SUP":null,"MEAL_TYPES":"B , L","X":397142.33,"Y":140414.33,"WARD":"Ward 1","ADDRID":302547,"CONTACT_FI_NAME":"Mark ","CONTACT_LAS_NAME":"Henderson","STATUS":"Open","ADDRESS2":null,"BREAKFEAST_TIME":"8:00 - 9:00","CONTACT_PHONE":"202-371-9686","ZIPCODE":"20010","STATE_REFERENCE":null},"geometry":{"type":"Point","coordinates":[-77.0329606700036,38.93161364193694]}},{"type":"Feature","properties":{"OBJECTID":33,"NAME":"Dance Place","ADDRESS":"3225 8TH STREET NE","PHONE":"202-269-1600","SPONSORING":"DC Department of Parks and Recreation","DATE_OPEN":"2016-06-20T00:00:00.000Z","DATE_CLOSE":"2016-08-19T00:00:00.000Z","DAYS_OPEN":"M,T,W,TH, F","HOURS_OPEN":"7:30 -12:30","LUNCH_TIME":"11:30 - 12:30","SNACK_TIME":null,"DINNER_SUP":null,"MEAL_TYPES":"B , L","X":400471.46,"Y":140274.68,"WARD":"Ward 5","ADDRID":38045,"CONTACT_FI_NAME":"Brenna","CONTACT_LAS_NAME":"Darnes","STATUS":"Open","ADDRESS2":null,"BREAKFEAST_TIME":"7:30 - 8:30","CONTACT_PHONE":"202-269-1600","ZIPCODE":"20017","STATE_REFERENCE":null},"geometry":{"type":"Point","coordinates":[-76.99456488832172,38.93036015356297]}},{"type":"Feature","properties":{"OBJECTID":34,"NAME":"DC Bilingual PCS (Kids and Culture Camp)","ADDRESS":"33 RIGGS ROAD NE","PHONE":"202-643-8787","SPONSORING":"DC Department of Parks and Recreation","DATE_OPEN":"2016-06-20T00:00:00.000Z","DATE_CLOSE":"2016-08-19T00:00:00.000Z","DAYS_OPEN":"M,T,W,TH, F","HOURS_OPEN":"7:45 -2:00","LUNCH_TIME":"12:00 - 2:00","SNACK_TIME":null,"DINNER_SUP":null,"MEAL_TYPES":"B , L","X":399424.65,"Y":143002.17,"WARD":"Ward 5","ADDRID":155991,"CONTACT_FI_NAME":"Jania ","CONTACT_LAS_NAME":"Otey","STATUS":"Open","ADDRESS2":null,"BREAKFEAST_TIME":"7:45 - 8:45","CONTACT_PHONE":"202-643-8787","ZIPCODE":"20011","STATE_REFERENCE":null},"geometry":{"type":"Point","coordinates":[-77.0066401453936,38.954930109115296]}},{"type":"Feature","properties":{"OBJECTID":35,"NAME":"Deanwood Rec. Center","ADDRESS":"1350 49TH STREET NE","PHONE":"202-671-3077","SPONSORING":"DC Department of Parks and Recreation","DATE_OPEN":"2016-06-20T00:00:00.000Z","DATE_CLOSE":"2016-08-19T00:00:00.000Z","DAYS_OPEN":"M,T,W,TH, F,SA","HOURS_OPEN":"9:00 -2:00","LUNCH_TIME":"12:00 - 2:00","SNACK_TIME":null,"DINNER_SUP":null,"MEAL_TYPES":"B , L","X":405884.39,"Y":137844.91,"WARD":"Ward 7","ADDRID":307551,"CONTACT_FI_NAME":"Marcia ","CONTACT_LAS_NAME":"Brown","STATUS":"Open","ADDRESS2":null,"BREAKFEAST_TIME":"9:00 - 10:00","CONTACT_PHONE":"202-671-3077","ZIPCODE":"20019","STATE_REFERENCE":null},"geometry":{"type":"Point","coordinates":[-76.93215784256401,38.90845241862821]}},{"type":"Feature","properties":{"OBJECTID":36,"NAME":"Democracy Prep Congress Heights (formerly Imagine Southeast)","ADDRESS":"3100 MARTIN LUTHER KING JR AVENUE SE","PHONE":"768-271-6009","SPONSORING":"DC Department of Parks and Recreation","DATE_OPEN":"2016-06-20T00:00:00.000Z","DATE_CLOSE":"2016-08-19T00:00:00.000Z","DAYS_OPEN":"M,T,W,TH, ","HOURS_OPEN":"7:45 -12:30","LUNCH_TIME":"11:30 - 12:30","SNACK_TIME":null,"DINNER_SUP":null,"MEAL_TYPES":"B , L","X":400161.23,"Y":130633.04,"WARD":"Ward 8","ADDRID":301280,"CONTACT_FI_NAME":"Ximena ","CONTACT_LAS_NAME":"Marquez","STATUS":"Open","ADDRESS2":null,"BREAKFEAST_TIME":"7:45 - 8:45","CONTACT_PHONE":"768-271-6009","ZIPCODE":"20032","STATE_REFERENCE":null},"geometry":{"type":"Point","coordinates":[-76.99814506005384,38.84350470550558]}},{"type":"Feature","properties":{"OBJECTID":37,"NAME":"Dept. on Disability Services","ADDRESS":"250 E STREET SW","PHONE":"202-664-0486","SPONSORING":"DC Department of Parks and Recreation","DATE_OPEN":"2016-06-20T00:00:00.000Z","DATE_CLOSE":"2016-08-19T00:00:00.000Z","DAYS_OPEN":"M,T,W,TH, F","HOURS_OPEN":"8:30 -1:00","LUNCH_TIME":"12:00 - 1:00","SNACK_TIME":null,"DINNER_SUP":null,"MEAL_TYPES":"B , L","X":398705.35,"Y":135017.77,"WARD":"Ward 6","ADDRID":301036,"CONTACT_FI_NAME":"Fikicia ","CONTACT_LAS_NAME":"Guy","STATUS":"Open","ADDRESS2":null,"BREAKFEAST_TIME":"8:30 - 9:30","CONTACT_PHONE":"202-664-0486","ZIPCODE":"20024","STATE_REFERENCE":null},"geometry":{"type":"Point","coordinates":[-77.01492370515322,38.883003245172866]}},{"type":"Feature","properties":{"OBJECTID":38,"NAME":"Dorothy L. Height/Benning Neighborhood Library","ADDRESS":"3935 BENNING ROAD NE","PHONE":"202-281-2583","SPONSORING":"DC Department of Parks and Recreation","DATE_OPEN":"2016-06-20T00:00:00.000Z","DATE_CLOSE":"2016-08-19T00:00:00.000Z","DAYS_OPEN":"M,T,W,TH, F,SA","HOURS_OPEN":"1:00 -2:30","LUNCH_TIME":"1:00 - 2:30","SNACK_TIME":null,"DINNER_SUP":null,"MEAL_TYPES":"L ","X":404530.91,"Y":136260.63,"WARD":"Ward 7","ADDRID":295144,"CONTACT_FI_NAME":"Winnell ","CONTACT_LAS_NAME":"Montague","STATUS":"Open","ADDRESS2":null,"BREAKFEAST_TIME":null,"CONTACT_PHONE":"202-281-2583","ZIPCODE":"20019","STATE_REFERENCE":null},"geometry":{"type":"Point","coordinates":[-76.94777332041996,38.894188678043136]}},{"type":"Feature","properties":{"OBJECTID":39,"NAME":"Douglas Community Center","ADDRESS":"1898 STANTON TERRACE SE","PHONE":"202-645-3980","SPONSORING":"DC Department of Parks and Recreation","DATE_OPEN":"2016-06-20T00:00:00.000Z","DATE_CLOSE":"2016-08-19T00:00:00.000Z","DAYS_OPEN":"M,T,W,TH, F","HOURS_OPEN":"9:00 - 2:00","LUNCH_TIME":"12:00 - 2:00","SNACK_TIME":null,"DINNER_SUP":null,"MEAL_TYPES":"B , L","X":401930.33,"Y":131647.8,"WARD":"Ward 8","ADDRID":286513,"CONTACT_FI_NAME":"Windy ","CONTACT_LAS_NAME":"Deville","STATUS":"Open","ADDRESS2":null,"BREAKFEAST_TIME":"9:00 - 10:00","CONTACT_PHONE":"202-645-3980","ZIPCODE":"20020","STATE_REFERENCE":null},"geometry":{"type":"Point","coordinates":[-76.97776382253926,38.85264400791208]}},{"type":"Feature","properties":{"OBJECTID":40,"NAME":"Douglas Knolls","ADDRESS":"3331 22ND STREET SE","PHONE":"202-889-2500","SPONSORING":"DC Department of Parks and Recreation","DATE_OPEN":"2016-06-20T00:00:00.000Z","DATE_CLOSE":"2016-08-19T00:00:00.000Z","DAYS_OPEN":"M,T,W,TH, F","HOURS_OPEN":"12:00 - 2:00","LUNCH_TIME":"12:00 - 2:00","SNACK_TIME":null,"DINNER_SUP":null,"MEAL_TYPES":"B , L","X":402218.69,"Y":131242.83,"WARD":"Ward 8","ADDRID":278376,"CONTACT_FI_NAME":"Monica","CONTACT_LAS_NAME":"Bell","STATUS":"Open","ADDRESS2":null,"BREAKFEAST_TIME":null,"CONTACT_PHONE":"202-889-2500","ZIPCODE":"20020","STATE_REFERENCE":null},"geometry":{"type":"Point","coordinates":[-76.97444306370681,38.84899518164654]}},{"type":"Feature","properties":{"OBJECTID":41,"NAME":"Douglas Memorial UM Church","ADDRESS":"800 11TH STREET NE","PHONE":"202-332-0919","SPONSORING":"DC Department of Parks and Recreation","DATE_OPEN":"2016-06-20T00:00:00.000Z","DATE_CLOSE":"2016-08-19T00:00:00.000Z","DAYS_OPEN":"M,T,W,TH, F","HOURS_OPEN":"9:00 -2:00","LUNCH_TIME":"12:00 - 2:00","SNACK_TIME":null,"DINNER_SUP":null,"MEAL_TYPES":"B , L","X":400712.33,"Y":136953.85,"WARD":"Ward 6","ADDRID":79534,"CONTACT_FI_NAME":"Carl ","CONTACT_LAS_NAME":"McKinley","STATUS":"Open","ADDRESS2":null,"BREAKFEAST_TIME":"9:00 - 10:00","CONTACT_PHONE":"202-332-0919","ZIPCODE":"20002","STATE_REFERENCE":null},"geometry":{"type":"Point","coordinates":[-76.9917903530788,38.90044484236606]}},{"type":"Feature","properties":{"OBJECTID":42,"NAME":"Eagle Academy (New Jersey Ave.)","ADDRESS":"1017 NEW JERSEY AVENUE SE","PHONE":"202-459-6825","SPONSORING":"DC Department of Parks and Recreation","DATE_OPEN":"2016-06-20T00:00:00.000Z","DATE_CLOSE":"2016-08-19T00:00:00.000Z","DAYS_OPEN":"M,T,W,TH, F","HOURS_OPEN":"8:30 -1:00","LUNCH_TIME":"12:00 - 1:00","SNACK_TIME":null,"DINNER_SUP":null,"MEAL_TYPES":"B , L","X":399558.98,"Y":134445.1,"WARD":"Ward 6","ADDRID":276169,"CONTACT_FI_NAME":"Sabrina ","CONTACT_LAS_NAME":"O'Gilvie","STATUS":"Open","ADDRESS2":null,"BREAKFEAST_TIME":"8:30- 9:30","CONTACT_PHONE":"202-459-6825","ZIPCODE":"20003","STATE_REFERENCE":null},"geometry":{"type":"Point","coordinates":[-77.00508486830242,38.87784525262435]}},{"type":"Feature","properties":{"OBJECTID":43,"NAME":"Eagle Academy(Wheeler Road)","ADDRESS":"3400 WHEELER ROAD SE","PHONE":"202-544-2646","SPONSORING":"DC Department of Parks and Recreation","DATE_OPEN":"2016-06-20T00:00:00.000Z","DATE_CLOSE":"2016-08-16T00:00:00.000Z","DAYS_OPEN":"M,T,W,TH, F","HOURS_OPEN":"8:20 - 1:30","LUNCH_TIME":"12:30 - 1:30","SNACK_TIME":null,"DINNER_SUP":null,"MEAL_TYPES":"B , L","X":400604.46,"Y":130274.71,"WARD":"Ward 8","ADDRID":294566,"CONTACT_FI_NAME":"Royston ","CONTACT_LAS_NAME":"Little","STATUS":"Open","ADDRESS2":null,"BREAKFEAST_TIME":"8:20 - 9:20","CONTACT_PHONE":"202-544-2646","ZIPCODE":"20032","STATE_REFERENCE":null},"geometry":{"type":"Point","coordinates":[-76.99303977622442,38.84027651513957]}},{"type":"Feature","properties":{"OBJECTID":44,"NAME":"Early Childhood Academy PCS","ADDRESS":"4025 9TH STREET SE","PHONE":"202-373-0035","SPONSORING":"DC Department of Parks and Recreation","DATE_OPEN":"2016-06-20T00:00:00.000Z","DATE_CLOSE":"2016-08-19T00:00:00.000Z","DAYS_OPEN":"M,T,W,TH, F","HOURS_OPEN":"9:00 -1:30","LUNCH_TIME":"12:30 - 1:30","SNACK_TIME":null,"DINNER_SUP":null,"MEAL_TYPES":"B , L","X":400822.11,"Y":129329.27,"WARD":"Ward 8","ADDRID":278471,"CONTACT_FI_NAME":"Yesi ","CONTACT_LAS_NAME":"Menjivar","STATUS":"Open","ADDRESS2":null,"BREAKFEAST_TIME":"9:00 - 10:00","CONTACT_PHONE":"202-373-0035","ZIPCODE":"20032","STATE_REFERENCE":null},"geometry":{"type":"Point","coordinates":[-76.99053389248978,38.83175938238148]}},{"type":"Feature","properties":{"OBJECTID":45,"NAME":"Edgewood Recreation Center","ADDRESS":"3RD STREET NE AND EVARTS STREET NE","PHONE":"202-210-7417","SPONSORING":"DC Department of Parks and Recreation","DATE_OPEN":"2016-06-20T00:00:00.000Z","DATE_CLOSE":"2016-08-19T00:00:00.000Z","DAYS_OPEN":"M,T,W,TH, F","HOURS_OPEN":"9:00 - 2:00","LUNCH_TIME":"12:00 - 2:00","SNACK_TIME":null,"DINNER_SUP":null,"MEAL_TYPES":"B , L","X":399825.69074979,"Y":139623.896159,"WARD":null,"ADDRID":906255,"CONTACT_FI_NAME":"William ","CONTACT_LAS_NAME":"Gross","STATUS":"Open","ADDRESS2":null,"BREAKFEAST_TIME":"9:00 - 10:00","CONTACT_PHONE":"202-210-7417","ZIPCODE":null,"STATE_REFERENCE":null},"geometry":{"type":"Point","coordinates":[-77.00201244699633,38.9244977970121]}},{"type":"Feature","properties":{"OBJECTID":46,"NAME":"Emergent Preparatory Academy 1","ADDRESS":"2801 STANTON ROAD SE","PHONE":"202-610-3111","SPONSORING":"DC Department of Parks and Recreation","DATE_OPEN":"2016-06-20T00:00:00.000Z","DATE_CLOSE":"2016-08-19T00:00:00.000Z","DAYS_OPEN":"M,T,W,TH, F","HOURS_OPEN":"7:00 -12:30","LUNCH_TIME":"11:30 - 12:30","SNACK_TIME":null,"DINNER_SUP":null,"MEAL_TYPES":"B , L","X":401098.25,"Y":132124.24,"WARD":"Ward 8","ADDRID":44747,"CONTACT_FI_NAME":"Delores","CONTACT_LAS_NAME":"McGee","STATUS":"Open","ADDRESS2":null,"BREAKFEAST_TIME":"7:00 - 8:00","CONTACT_PHONE":"202-610-3111","ZIPCODE":"20020","STATE_REFERENCE":null},"geometry":{"type":"Point","coordinates":[-76.98734907885574,38.85693741655958]}},{"type":"Feature","properties":{"OBJECTID":47,"NAME":"Emergent Preparatory Academy 2","ADDRESS":"227 42ND STREET NE","PHONE":"202-399-3111","SPONSORING":"DC Department of Parks and Recreation","DATE_OPEN":"2016-06-20T00:00:00.000Z","DATE_CLOSE":"2016-08-19T00:00:00.000Z","DAYS_OPEN":"M,T,W,TH, F","HOURS_OPEN":"7:00 -12:30","LUNCH_TIME":"11:30 - 12:30","SNACK_TIME":null,"DINNER_SUP":null,"MEAL_TYPES":"B , L","X":405000.07,"Y":136197.75,"WARD":"Ward 7","ADDRID":49172,"CONTACT_FI_NAME":"Monica ","CONTACT_LAS_NAME":"Hall","STATUS":"Open","ADDRESS2":null,"BREAKFEAST_TIME":"7:00 - 8:00","CONTACT_PHONE":"202-399-3111","ZIPCODE":"20019","STATE_REFERENCE":null},"geometry":{"type":"Point","coordinates":[-76.94236565162689,38.89361968882344]}},{"type":"Feature","properties":{"OBJECTID":48,"NAME":"Emery Rec. Center","ADDRESS":"5801 GEORGIA AVENUE NW","PHONE":"202-576-3211","SPONSORING":"DC Department of Parks and Recreation","DATE_OPEN":"2016-06-20T00:00:00.000Z","DATE_CLOSE":"2016-08-14T00:00:00.000Z","DAYS_OPEN":"M,T,W,TH, F,SA","HOURS_OPEN":"9:00 -2:00","LUNCH_TIME":"12:00 - 2:00","SNACK_TIME":null,"DINNER_SUP":null,"MEAL_TYPES":"B , L","X":397583.92,"Y":143434.89,"WARD":"Ward 4","ADDRID":285269,"CONTACT_FI_NAME":"Zakyia ","CONTACT_LAS_NAME":"Brown","STATUS":"Open","ADDRESS2":null,"BREAKFEAST_TIME":"9:00 - 10:00","CONTACT_PHONE":"202-576-3211","ZIPCODE":"20011","STATE_REFERENCE":null},"geometry":{"type":"Point","coordinates":[-77.0278783170157,38.95882502973561]}},{"type":"Feature","properties":{"OBJECTID":49,"NAME":"Empowerment Enterprise II, Inc.","ADDRESS":"1610 T STREET SE","PHONE":"703-478-4525","SPONSORING":"DC Department of Parks and Recreation","DATE_OPEN":"2016-06-20T00:00:00.000Z","DATE_CLOSE":"2016-08-14T00:00:00.000Z","DAYS_OPEN":"M,T,W,TH, F","HOURS_OPEN":"10:00 -12:00","LUNCH_TIME":"10:00 - 12:00","SNACK_TIME":null,"DINNER_SUP":null,"MEAL_TYPES":"L ","X":401566.66,"Y":133295.01,"WARD":"Ward 8","ADDRID":295127,"CONTACT_FI_NAME":"Julius  ","CONTACT_LAS_NAME":"Green","STATUS":"Open","ADDRESS2":null,"BREAKFEAST_TIME":null,"CONTACT_PHONE":"703-478-4525","ZIPCODE":"20020","STATE_REFERENCE":null},"geometry":{"type":"Point","coordinates":[-76.98194974806341,38.86748349401281]}},{"type":"Feature","properties":{"OBJECTID":50,"NAME":"Ethiopian Community Center","ADDRESS":"7603 GEORGIA AVENUE NW","PHONE":"202-726-0800","SPONSORING":"DC Department of Parks and Recreation","DATE_OPEN":"2016-06-20T00:00:00.000Z","DATE_CLOSE":"2016-08-16T00:00:00.000Z","DAYS_OPEN":"M,T,W,TH, F","HOURS_OPEN":"9:00 -1:30","LUNCH_TIME":"12:30 - 1:30","SNACK_TIME":null,"DINNER_SUP":null,"MEAL_TYPES":"B , L","X":397732.25,"Y":146000.74,"WARD":"Ward 4","ADDRID":253714,"CONTACT_FI_NAME":"Hermela ","CONTACT_LAS_NAME":"Kebede","STATUS":"Open","ADDRESS2":null,"BREAKFEAST_TIME":"9:00 - 10:00","CONTACT_PHONE":"202-726-0800","ZIPCODE":"20012","STATE_REFERENCE":null},"geometry":{"type":"Point","coordinates":[-77.02617541774163,38.98193921662554]}},{"type":"Feature","properties":{"OBJECTID":51,"NAME":"Faith Tabernacle/ Faith 4 the City","ADDRESS":"300 A STREET NE","PHONE":"202-549-0900","SPONSORING":"DC Department of Parks and Recreation","DATE_OPEN":"2016-06-20T00:00:00.000Z","DATE_CLOSE":"2016-08-19T00:00:00.000Z","DAYS_OPEN":"M,T,W,TH, F","HOURS_OPEN":"8:00 -2:00","LUNCH_TIME":"12:00 - 2:00","SNACK_TIME":null,"DINNER_SUP":null,"MEAL_TYPES":"B , L","X":399844.14,"Y":135921.77,"WARD":"Ward 6","ADDRID":42712,"CONTACT_FI_NAME":"Danette","CONTACT_LAS_NAME":"Whitaker-White","STATUS":"Open","ADDRESS2":null,"BREAKFEAST_TIME":"8:00 - 9:00","CONTACT_PHONE":"202-549-0900","ZIPCODE":"20002","STATE_REFERENCE":null},"geometry":{"type":"Point","coordinates":[-77.00179884455322,38.89114776134155]}},{"type":"Feature","properties":{"OBJECTID":52,"NAME":"The Arc","ADDRESS":"1901 MISSISSIPPI AVENUE SE","PHONE":"202-610-9707              202-678-1113","SPONSORING":"DC Department of Parks and Recreation","DATE_OPEN":"2016-06-20T00:00:00.000Z","DATE_CLOSE":"2016-08-19T00:00:00.000Z","DAYS_OPEN":"M,T,W,TH, F","HOURS_OPEN":"8:30 -2:00                       8:30 -12:30","LUNCH_TIME":"12:00 - 2:00                      11:30-12:30","SNACK_TIME":null,"DINNER_SUP":null,"MEAL_TYPES":"B , L","X":402142.37,"Y":130640.01,"WARD":"Ward 8","ADDRID":295845,"CONTACT_FI_NAME":"Myra                  ","CONTACT_LAS_NAME":"Allen            ","STATUS":"Open","ADDRESS2":null,"BREAKFEAST_TIME":"8:30 - 9:30                     8:30 -9:30","CONTACT_PHONE":"202-610-9707              202-678-1113","ZIPCODE":"20020","STATE_REFERENCE":null},"geometry":{"type":"Point","coordinates":[-76.9753241438703,38.84356490138586]}},{"type":"Feature","properties":{"OBJECTID":53,"NAME":"Ferebee Hope Rec. Center","ADDRESS":"3999 8TH STREET SE","PHONE":"202-673-7647","SPONSORING":"DC Department of Parks and Recreation","DATE_OPEN":"2016-06-20T00:00:00.000Z","DATE_CLOSE":"2016-07-29T00:00:00.000Z","DAYS_OPEN":"M,T,W,TH, F","HOURS_OPEN":"9:00 -2:00","LUNCH_TIME":"12:00 - 2:00","SNACK_TIME":null,"DINNER_SUP":null,"MEAL_TYPES":"B , L","X":400419.94,"Y":129394.95,"WARD":"Ward 8","ADDRID":294588,"CONTACT_FI_NAME":"Marcus ","CONTACT_LAS_NAME":"Coates","STATUS":"Open","ADDRESS2":null,"BREAKFEAST_TIME":"9:00 - 10:00","CONTACT_PHONE":"202-673-7647","ZIPCODE":"20032","STATE_REFERENCE":null},"geometry":{"type":"Point","coordinates":[-76.99516571575832,38.83235134195328]}},{"type":"Feature","properties":{"OBJECTID":54,"NAME":"FH Faunteroy--Rockson Community Development ","ADDRESS":"4800 NANNIE HELEN BURROUGHS AVENUE NE","PHONE":"202-397-5454","SPONSORING":"DC Department of Parks and Recreation","DATE_OPEN":"2016-06-20T00:00:00.000Z","DATE_CLOSE":"2016-08-19T00:00:00.000Z","DAYS_OPEN":"M,T,W,TH, F","HOURS_OPEN":"9:00 - 2:00","LUNCH_TIME":"12:00 - 2:00","SNACK_TIME":null,"DINNER_SUP":null,"MEAL_TYPES":"B , L","X":405773.28,"Y":136808.74,"WARD":"Ward 7","ADDRID":302568,"CONTACT_FI_NAME":"Vanena","CONTACT_LAS_NAME":"Wilmot","STATUS":"Open","ADDRESS2":null,"BREAKFEAST_TIME":"9:00  - 10:00","CONTACT_PHONE":"202-397-5454","ZIPCODE":"20019","STATE_REFERENCE":null},"geometry":{"type":"Point","coordinates":[-76.93344760097125,38.899118971581714]}},{"type":"Feature","properties":{"OBJECTID":55,"NAME":"Fort Stanton","ADDRESS":"1812 ERIE STREET SE","PHONE":"202-671-1040","SPONSORING":"DC Department of Parks and Recreation","DATE_OPEN":"2016-06-20T00:00:00.000Z","DATE_CLOSE":"2016-08-19T00:00:00.000Z","DAYS_OPEN":"M,T,W,TH, F","HOURS_OPEN":"9:00 -2:00","LUNCH_TIME":"12:00 - 2:00","SNACK_TIME":null,"DINNER_SUP":null,"MEAL_TYPES":"B , L","X":401846.28,"Y":132196.87,"WARD":"Ward 8","ADDRID":296165,"CONTACT_FI_NAME":"Greg ","CONTACT_LAS_NAME":"Poag","STATUS":"Open","ADDRESS2":null,"BREAKFEAST_TIME":"9:00 - 10:00","CONTACT_PHONE":"202-671-1040","ZIPCODE":"20020","STATE_REFERENCE":null},"geometry":{"type":"Point","coordinates":[-76.97873065084771,38.857590446802234]}},{"type":"Feature","properties":{"OBJECTID":56,"NAME":"Fort Stevens Rec. Center","ADDRESS":"1327 VAN BUREN STREET NW","PHONE":"202-541-3754","SPONSORING":"DC Department of Parks and Recreation","DATE_OPEN":"2016-06-20T00:00:00.000Z","DATE_CLOSE":"2016-08-19T00:00:00.000Z","DAYS_OPEN":"M,T,W,TH, F","HOURS_OPEN":"9:00 - 2:00","LUNCH_TIME":"12:00 - 2:00","SNACK_TIME":null,"DINNER_SUP":null,"MEAL_TYPES":"B , L","X":397305.72,"Y":144706.25,"WARD":"Ward 4","ADDRID":290152,"CONTACT_FI_NAME":"Larry ","CONTACT_LAS_NAME":"Kinney","STATUS":"Open","ADDRESS2":null,"BREAKFEAST_TIME":"9:00  - 10:00","CONTACT_PHONE":"202-541-3754","ZIPCODE":"20012","STATE_REFERENCE":null},"geometry":{"type":"Point","coordinates":[-77.03109310413618,38.97027694886603]}},{"type":"Feature","properties":{"OBJECTID":57,"NAME":"Francis Gregory Neighborhood Library","ADDRESS":"3660 ALABAMA AVENUE SE","PHONE":"202-698-3870","SPONSORING":"DC Department of Parks and Recreation","DATE_OPEN":"2016-06-20T00:00:00.000Z","DATE_CLOSE":"2016-08-19T00:00:00.000Z","DAYS_OPEN":"M,T,W,TH, F","HOURS_OPEN":"1:00 -3:00","LUNCH_TIME":"1:00 - 3:00","SNACK_TIME":null,"DINNER_SUP":null,"MEAL_TYPES":"L ","X":403974.72,"Y":133006.74,"WARD":"Ward 7","ADDRID":290019,"CONTACT_FI_NAME":"Joslyn","CONTACT_LAS_NAME":"Jones","STATUS":"Open","ADDRESS2":null,"BREAKFEAST_TIME":null,"CONTACT_PHONE":"202-698-3870","ZIPCODE":"20020","STATE_REFERENCE":null},"geometry":{"type":"Point","coordinates":[-76.95420348010896,38.8648790534116]}},{"type":"Feature","properties":{"OBJECTID":58,"NAME":"Garfield Terrace Family Center (HA)","ADDRESS":"2371 11TH STREET NW","PHONE":"202-986-0406","SPONSORING":"DC Department of Parks and Recreation","DATE_OPEN":"2016-06-20T00:00:00.000Z","DATE_CLOSE":"2016-08-19T00:00:00.000Z","DAYS_OPEN":"M,T,W,TH, F","HOURS_OPEN":"9:00 -1:00","LUNCH_TIME":"12:00 - 1:00","SNACK_TIME":null,"DINNER_SUP":null,"MEAL_TYPES":"B , L","X":397715.31,"Y":139373.98,"WARD":"Ward 1","ADDRID":290647,"CONTACT_FI_NAME":"Lethia ","CONTACT_LAS_NAME":"Summers","STATUS":"Open","ADDRESS2":null,"BREAKFEAST_TIME":"9:00 - 10:00","CONTACT_PHONE":"202-986-0406","ZIPCODE":"20001","STATE_REFERENCE":null},"geometry":{"type":"Point","coordinates":[-77.02634885286552,38.92224351788171]}},{"type":"Feature","properties":{"OBJECTID":59,"NAME":"Girls Inc. DC","ADDRESS":"2401 4TH STREET NW","PHONE":"202-806-7938","SPONSORING":"DC Department of Parks and Recreation","DATE_OPEN":"2016-06-20T00:00:00.000Z","DATE_CLOSE":"2016-08-12T00:00:00.000Z","DAYS_OPEN":"M,T,W,TH, F","HOURS_OPEN":"9:00 -1:30","LUNCH_TIME":"12:30 - 1:30","SNACK_TIME":null,"DINNER_SUP":null,"MEAL_TYPES":"B , L","X":398445.1,"Y":139341.15,"WARD":"Ward 1","ADDRID":302629,"CONTACT_FI_NAME":"Christina ","CONTACT_LAS_NAME":"Parrish","STATUS":"Open","ADDRESS2":null,"BREAKFEAST_TIME":"9:00  - 10:00","CONTACT_PHONE":"202-806-7938","ZIPCODE":"20059","STATE_REFERENCE":null},"geometry":{"type":"Point","coordinates":[-77.01793299287475,38.92194936925213]}},{"type":"Feature","properties":{"OBJECTID":60,"NAME":"Good Success Church","ADDRESS":"4401 SHERIFF ROAD NE","PHONE":"202-3/661-5442","SPONSORING":"DC Department of Parks and Recreation","DATE_OPEN":"2016-06-20T00:00:00.000Z","DATE_CLOSE":"2016-08-19T00:00:00.000Z","DAYS_OPEN":"M,T,W,TH, F","HOURS_OPEN":"11:00 - 1:00","LUNCH_TIME":"11:00 - 1:00","SNACK_TIME":null,"DINNER_SUP":null,"MEAL_TYPES":"L ","X":405293.34,"Y":137189.53,"WARD":"Ward 7","ADDRID":22345,"CONTACT_FI_NAME":"Joseph","CONTACT_LAS_NAME":" Johnson","STATUS":"Open","ADDRESS2":null,"BREAKFEAST_TIME":null,"CONTACT_PHONE":"202-3/661-5442","ZIPCODE":"20019","STATE_REFERENCE":null},"geometry":{"type":"Point","coordinates":[-76.93897743911897,38.902552284657965]}},{"type":"Feature","properties":{"OBJECTID":61,"NAME":"Grace Memorial Baptist Church","ADDRESS":"2407 MINNESOTA AVENUE SE","PHONE":"202-702-4430","SPONSORING":"DC Department of Parks and Recreation","DATE_OPEN":"2016-06-20T00:00:00.000Z","DATE_CLOSE":"2016-08-19T00:00:00.000Z","DAYS_OPEN":"M,T,W,TH, F","HOURS_OPEN":"11:00 - 1:00","LUNCH_TIME":"11:00 - 1:00","SNACK_TIME":null,"DINNER_SUP":null,"MEAL_TYPES":"B , L","X":402450.52,"Y":133869.89,"WARD":"Ward 8","ADDRID":47763,"CONTACT_FI_NAME":"Carla ","CONTACT_LAS_NAME":"Settle","STATUS":"Open","ADDRESS2":null,"BREAKFEAST_TIME":null,"CONTACT_PHONE":"202-702-4430","ZIPCODE":"20020","STATE_REFERENCE":null},"geometry":{"type":"Point","coordinates":[-76.97176303156209,38.872660228668266]}},{"type":"Feature","properties":{"OBJECTID":62,"NAME":"Growth Spurts at Adams Street","ADDRESS":"3101 ADAMS STREET NE","PHONE":"202-506-6966","SPONSORING":"DC Department of Parks and Recreation","DATE_OPEN":"2016-06-20T00:00:00.000Z","DATE_CLOSE":"2016-08-19T00:00:00.000Z","DAYS_OPEN":"M,T,W,TH, F","HOURS_OPEN":"8:00 -12:00","LUNCH_TIME":"11:00 - 12:00","SNACK_TIME":null,"DINNER_SUP":null,"MEAL_TYPES":"B, L","X":403166.04,"Y":139242.59,"WARD":"Ward 5","ADDRID":40730,"CONTACT_FI_NAME":"Rochelle","CONTACT_LAS_NAME":" Johnson","STATUS":"Open","ADDRESS2":null,"BREAKFEAST_TIME":"8:00 - 8:30","CONTACT_PHONE":"202-506-6966","ZIPCODE":"20018","STATE_REFERENCE":null},"geometry":{"type":"Point","coordinates":[-76.96349277960236,38.921057183169644]}},{"type":"Feature","properties":{"OBJECTID":63,"NAME":"Growth Spurts at Bethel","ADDRESS":"60 I STREET SW","PHONE":"202-484-0028","SPONSORING":"DC Department of Parks and Recreation","DATE_OPEN":"2016-06-20T00:00:00.000Z","DATE_CLOSE":"2016-08-19T00:00:00.000Z","DAYS_OPEN":"M,T,W,TH, F","HOURS_OPEN":"8:00 -12:00","LUNCH_TIME":"11:30 - 12:00","SNACK_TIME":null,"DINNER_SUP":null,"MEAL_TYPES":"B , L","X":399026.13,"Y":134575.9,"WARD":"Ward 6","ADDRID":276677,"CONTACT_FI_NAME":"Comecha ","CONTACT_LAS_NAME":"Lewis","STATUS":"Open","ADDRESS2":null,"BREAKFEAST_TIME":"8:00- 8:30","CONTACT_PHONE":"202-484-0028","ZIPCODE":"20024","STATE_REFERENCE":null},"geometry":{"type":"Point","coordinates":[-77.01122594525876,38.87902312167882]}},{"type":"Feature","properties":{"OBJECTID":64,"NAME":"Growth Spurts at D Street","ADDRESS":"1802 D STREET NE","PHONE":"202-544-2731","SPONSORING":"DC Department of Parks and Recreation","DATE_OPEN":"2016-06-20T00:00:00.000Z","DATE_CLOSE":"2016-08-19T00:00:00.000Z","DAYS_OPEN":"M,T,W,TH, F","HOURS_OPEN":"8:00 -12:00","LUNCH_TIME":"11:00 - 12:00","SNACK_TIME":null,"DINNER_SUP":null,"MEAL_TYPES":"B , L","X":401841.25,"Y":136348.72,"WARD":"Ward 6","ADDRID":55997,"CONTACT_FI_NAME":"Maria ","CONTACT_LAS_NAME":"Pangilian","STATUS":"Open","ADDRESS2":null,"BREAKFEAST_TIME":"8:00 - 8:30","CONTACT_PHONE":"202-544-2731","ZIPCODE":"20002","STATE_REFERENCE":null},"geometry":{"type":"Point","coordinates":[-76.97877748376469,38.89499197196741]}},{"type":"Feature","properties":{"OBJECTID":65,"NAME":"Growth Spurts at Judah","ADDRESS":"1715 RHODE ISLAND AVENUE NE","PHONE":"202-258-5220","SPONSORING":"DC Department of Parks and Recreation","DATE_OPEN":"2016-06-20T00:00:00.000Z","DATE_CLOSE":"2016-08-19T00:00:00.000Z","DAYS_OPEN":"M,T,W,TH, F","HOURS_OPEN":"8:00 -12:00","LUNCH_TIME":"11:30 - 12:00","SNACK_TIME":null,"DINNER_SUP":null,"MEAL_TYPES":"B , L","X":401725.81,"Y":139887.73,"WARD":"Ward 5","ADDRID":57426,"CONTACT_FI_NAME":"Elyria ","CONTACT_LAS_NAME":"Clark","STATUS":"Open","ADDRESS2":null,"BREAKFEAST_TIME":"8:00 - 8:30","CONTACT_PHONE":"202-258-5220","ZIPCODE":"20018","STATE_REFERENCE":null},"geometry":{"type":"Point","coordinates":[-76.98009931275327,38.926872819111445]}},{"type":"Feature","properties":{"OBJECTID":66,"NAME":"Hamilton Rec. Center","ADDRESS":"1340 HAMILTON STREET NW","PHONE":"202-576-6855","SPONSORING":"DC Department of Parks and Recreation","DATE_OPEN":"2016-06-20T00:00:00.000Z","DATE_CLOSE":"2016-08-19T00:00:00.000Z","DAYS_OPEN":"M,T,W,TH, F","HOURS_OPEN":"9:00 -2:00","LUNCH_TIME":"12:00 - 2:00","SNACK_TIME":null,"DINNER_SUP":null,"MEAL_TYPES":"B , L","X":397283.77,"Y":142746.35,"WARD":"Ward 4","ADDRID":255042,"CONTACT_FI_NAME":"Nadine","CONTACT_LAS_NAME":"Bell","STATUS":"Open","ADDRESS2":null,"BREAKFEAST_TIME":"9:00 - 10:00","CONTACT_PHONE":"202-576-6855","ZIPCODE":"20011","STATE_REFERENCE":null},"geometry":{"type":"Point","coordinates":[-77.03133863300002,38.9526216014861]}},{"type":"Feature","properties":{"OBJECTID":67,"NAME":"Harrison Recreation Center","ADDRESS":"1330 V STREET NW","PHONE":"202-673-7760","SPONSORING":"DC Department of Parks and Recreation","DATE_OPEN":"2016-06-20T00:00:00.000Z","DATE_CLOSE":"2016-08-19T00:00:00.000Z","DAYS_OPEN":"M,T,W,TH, F","HOURS_OPEN":"9:00 -2:00","LUNCH_TIME":"12:00 - 2:00","SNACK_TIME":null,"DINNER_SUP":null,"MEAL_TYPES":"B , L","X":397373.31,"Y":138898.94,"WARD":"Ward 1","ADDRID":283986,"CONTACT_FI_NAME":"Karena ","CONTACT_LAS_NAME":"Hall","STATUS":"Open","ADDRESS2":null,"BREAKFEAST_TIME":"9:00 - 10:00","CONTACT_PHONE":"202-673-7760","ZIPCODE":"20009","STATE_REFERENCE":null},"geometry":{"type":"Point","coordinates":[-77.03029090734725,38.91796324646327]}},{"type":"Feature","properties":{"OBJECTID":68,"NAME":"Harry Thomas","ADDRESS":"1743 LINCOLN ROAD NE","PHONE":"202-576-5642","SPONSORING":"DC Department of Parks and Recreation","DATE_OPEN":"2016-06-20T00:00:00.000Z","DATE_CLOSE":"2016-08-19T00:00:00.000Z","DAYS_OPEN":"M,T,W,TH,F,SA","HOURS_OPEN":"9:00 -2:00","LUNCH_TIME":"12:00 - 2:00","SNACK_TIME":null,"DINNER_SUP":null,"MEAL_TYPES":"B , L","X":399317.62,"Y":138457.86,"WARD":"Ward 5","ADDRID":296786,"CONTACT_FI_NAME":"Avalon ","CONTACT_LAS_NAME":"George","STATUS":"Open","ADDRESS2":null,"BREAKFEAST_TIME":"9:00 - 10:00","CONTACT_PHONE":"202-576-5642","ZIPCODE":"20002","STATE_REFERENCE":null},"geometry":{"type":"Point","coordinates":[-77.0078704376956,38.913993511783154]}},{"type":"Feature","properties":{"OBJECTID":69,"NAME":"High Road Primary Programs","ADDRESS":"3400 NEW YORK AVENUE NE","PHONE":"202-479-0089","SPONSORING":"DC Department of Parks and Recreation","DATE_OPEN":"2016-06-20T00:00:00.000Z","DATE_CLOSE":"2016-08-19T00:00:00.000Z","DAYS_OPEN":"M,T,W,TH, F","HOURS_OPEN":"8:30 -12:30","LUNCH_TIME":"11:30 - 12:30","SNACK_TIME":null,"DINNER_SUP":null,"MEAL_TYPES":"B , L","X":403639.78,"Y":138825.27,"WARD":"Ward 5","ADDRID":300371,"CONTACT_FI_NAME":"Ronald","CONTACT_LAS_NAME":"Sykes","STATUS":"Open","ADDRESS2":null,"BREAKFEAST_TIME":"8:30 - 9:30","CONTACT_PHONE":"202-479-0089","ZIPCODE":"20002","STATE_REFERENCE":null},"geometry":{"type":"Point","coordinates":[-76.95803201265949,38.91729599351667]}},{"type":"Feature","properties":{"OBJECTID":70,"NAME":"Higher Achievement @ Achievement Prep","ADDRESS":"908 WAHLER PLACE SE","PHONE":"202-239-9421","SPONSORING":"DC Department of Parks and Recreation","DATE_OPEN":"2016-06-20T00:00:00.000Z","DATE_CLOSE":"2016-08-12T00:00:00.000Z","DAYS_OPEN":"M,T,W,TH, F (B only on F)","HOURS_OPEN":"8:30 - 1:00","LUNCH_TIME":"12:00 - 1:00","SNACK_TIME":null,"DINNER_SUP":null,"MEAL_TYPES":"B , L","X":400671.25,"Y":129615.24,"WARD":"Ward 8","ADDRID":294502,"CONTACT_FI_NAME":"Tawana","CONTACT_LAS_NAME":"Bostic","STATUS":"Open","ADDRESS2":null,"BREAKFEAST_TIME":"8:30 - 9:30","CONTACT_PHONE":"202-239-9421","ZIPCODE":"20032","STATE_REFERENCE":null},"geometry":{"type":"Point","coordinates":[-76.99227109512186,38.834335660255796]}},{"type":"Feature","properties":{"OBJECTID":71,"NAME":"Hillcrest Recreation Center","ADDRESS":"3100 DENVER STREET SE","PHONE":"202-645-9200","SPONSORING":"DC Department of Parks and Recreation","DATE_OPEN":"2016-06-20T00:00:00.000Z","DATE_CLOSE":"2016-08-19T00:00:00.000Z","DAYS_OPEN":"M,T,W,TH, F","HOURS_OPEN":"9:00 -2:00","LUNCH_TIME":"12:00 - 2:00","SNACK_TIME":null,"DINNER_SUP":null,"MEAL_TYPES":"B , L","X":403243.37,"Y":132310.93,"WARD":"Ward 7","ADDRID":296174,"CONTACT_FI_NAME":"Henry ","CONTACT_LAS_NAME":"Moton","STATUS":"Open","ADDRESS2":null,"BREAKFEAST_TIME":"9:00  - 10:00","CONTACT_PHONE":"202-645-9200","ZIPCODE":"20020","STATE_REFERENCE":null},"geometry":{"type":"Point","coordinates":[-76.96263375755142,38.85861390612158]}},{"type":"Feature","properties":{"OBJECTID":72,"NAME":"Hung Tao Choy Mei Leadership Institute","ADDRESS":"1351 U STREET NW","PHONE":"202-232-2387","SPONSORING":"DC Department of Parks and Recreation","DATE_OPEN":"2016-06-20T00:00:00.000Z","DATE_CLOSE":"2016-08-12T00:00:00.000Z","DAYS_OPEN":"M,T,W,TH, F","HOURS_OPEN":"8:30 -1:30","LUNCH_TIME":"12:30 - 1:30","SNACK_TIME":null,"DINNER_SUP":null,"MEAL_TYPES":"B , L","X":397301.5,"Y":138828.69,"WARD":"Ward 1","ADDRID":240340,"CONTACT_FI_NAME":"Abdur-Rahim ","CONTACT_LAS_NAME":"Muhammad","STATUS":"Open","ADDRESS2":null,"BREAKFEAST_TIME":"8:30 - 9:30","CONTACT_PHONE":"202-232-2387","ZIPCODE":"20009","STATE_REFERENCE":null},"geometry":{"type":"Point","coordinates":[-77.03111867935708,38.917330193623826]}},{"type":"Feature","properties":{"OBJECTID":73,"NAME":"I Care CDC","ADDRESS":"3737 12TH STREET NE","PHONE":"202-957-2045            202-832-0905","SPONSORING":"DC Department of Parks and Recreation","DATE_OPEN":"2016-06-20T00:00:00.000Z","DATE_CLOSE":"2016-08-19T00:00:00.000Z","DAYS_OPEN":"M,T,W,TH, F","HOURS_OPEN":"9:00 -1:00","LUNCH_TIME":"11:45 - 1:00","SNACK_TIME":null,"DINNER_SUP":null,"MEAL_TYPES":"B , L","X":400787.3,"Y":140873.49,"WARD":"Ward 5","ADDRID":31063,"CONTACT_FI_NAME":"Keenia ","CONTACT_LAS_NAME":"Adams","STATUS":"Open","ADDRESS2":null,"BREAKFEAST_TIME":"9:00 - 10:00","CONTACT_PHONE":"202-957-2045       202-832-0905","ZIPCODE":"20017","STATE_REFERENCE":null},"geometry":{"type":"Point","coordinates":[-76.99092158622757,38.935754190829584]}},{"type":"Feature","properties":{"OBJECTID":74,"NAME":"Idea Public Charter School","ADDRESS":"1027 45TH STREET NE","PHONE":"202-399-4750","SPONSORING":"DC Department of Parks and Recreation","DATE_OPEN":"2016-06-20T00:00:00.000Z","DATE_CLOSE":"2016-08-19T00:00:00.000Z","DAYS_OPEN":"M,T,W,TH, F","HOURS_OPEN":"8:00 - 1:00","LUNCH_TIME":"12:00 - 1:00","SNACK_TIME":null,"DINNER_SUP":null,"MEAL_TYPES":"B , L","X":405455.53,"Y":137412.11,"WARD":"Ward 7","ADDRID":75296,"CONTACT_FI_NAME":"Nicole ","CONTACT_LAS_NAME":"Seward","STATUS":"Open","ADDRESS2":null,"BREAKFEAST_TIME":"8:00 - 9:00","CONTACT_PHONE":"202-399-4750","ZIPCODE":"20019","STATE_REFERENCE":null},"geometry":{"type":"Point","coordinates":[-76.93710584684808,38.904556372144945]}},{"type":"Feature","properties":{"OBJECTID":75,"NAME":"Ideal Academy Public Charter School","ADDRESS":"6130 NORTH CAPITOL STREET NW","PHONE":"202-729-6660","SPONSORING":"DC Department of Parks and Recreation","DATE_OPEN":"2016-06-20T00:00:00.000Z","DATE_CLOSE":"2016-08-19T00:00:00.000Z","DAYS_OPEN":"M,T,W,TH, F","HOURS_OPEN":"8:00 -12:00","LUNCH_TIME":"11:00 - 12:00","SNACK_TIME":null,"DINNER_SUP":null,"MEAL_TYPES":"B , L","X":399139.13,"Y":144111.98,"WARD":"Ward 4","ADDRID":285311,"CONTACT_FI_NAME":"Charles ","CONTACT_LAS_NAME":"Epps","STATUS":"Open","ADDRESS2":null,"BREAKFEAST_TIME":"8:00 - 9:00","CONTACT_PHONE":"202-729-6660","ZIPCODE":"20011","STATE_REFERENCE":null},"geometry":{"type":"Point","coordinates":[-77.00993560605762,38.96492733105077]}},{"type":"Feature","properties":{"OBJECTID":76,"NAME":"James Creek (HA)","ADDRESS":"100 N STREET SW","PHONE":null,"SPONSORING":"DC Department of Parks and Recreation","DATE_OPEN":"2016-06-20T00:00:00.000Z","DATE_CLOSE":"2016-08-19T00:00:00.000Z","DAYS_OPEN":"M,T,W,TH, F","HOURS_OPEN":"9:00 -2:00","LUNCH_TIME":"12:00 - 2:00","SNACK_TIME":null,"DINNER_SUP":null,"MEAL_TYPES":"B , L","X":398927.07,"Y":134071.33,"WARD":"Ward 6","ADDRID":289108,"CONTACT_FI_NAME":"Christine ","CONTACT_LAS_NAME":"Spencer","STATUS":"Open","ADDRESS2":null,"BREAKFEAST_TIME":"9:00 - 10:00","CONTACT_PHONE":null,"ZIPCODE":"20024","STATE_REFERENCE":null},"geometry":{"type":"Point","coordinates":[-77.01236680465017,38.874477639478975]}},{"type":"Feature","properties":{"OBJECTID":77,"NAME":"Jan's Tutoring House","ADDRESS":"1529 PENNSYLVANIA AVENUE SE","PHONE":"202-547-1345","SPONSORING":"DC Department of Parks and Recreation","DATE_OPEN":"2016-06-20T00:00:00.000Z","DATE_CLOSE":"2016-08-19T00:00:00.000Z","DAYS_OPEN":"M,T,W,TH, F","HOURS_OPEN":"8:30 -1:30","LUNCH_TIME":"12:30 - 1:30","SNACK_TIME":null,"DINNER_SUP":null,"MEAL_TYPES":"B , L","X":401502.32,"Y":134555.14,"WARD":"Ward 6","ADDRID":61206,"CONTACT_FI_NAME":"Tonya ","CONTACT_LAS_NAME":"Woods","STATUS":"Open","ADDRESS2":null,"BREAKFEAST_TIME":"8:30 - 9:30","CONTACT_PHONE":"202-547-1345","ZIPCODE":"20003","STATE_REFERENCE":null},"geometry":{"type":"Point","coordinates":[-76.98268838091404,38.87883536440677]}},{"type":"Feature","properties":{"OBJECTID":78,"NAME":"Jelleff Recreation Center","ADDRESS":"3265 S STREET NW","PHONE":"202-462-1317","SPONSORING":"DC Department of Parks and Recreation","DATE_OPEN":"2016-06-20T00:00:00.000Z","DATE_CLOSE":"2016-08-19T00:00:00.000Z","DAYS_OPEN":"M,T,W,TH, F","HOURS_OPEN":"9:00 -2:00","LUNCH_TIME":"12:00 - 2:00","SNACK_TIME":null,"DINNER_SUP":null,"MEAL_TYPES":"B , L","X":394201.67,"Y":138652.15,"WARD":"Ward 2","ADDRID":273636,"CONTACT_FI_NAME":"Yolanda ","CONTACT_LAS_NAME":"Gales","STATUS":"Open","ADDRESS2":null,"BREAKFEAST_TIME":"9:00 - 10:00","CONTACT_PHONE":"202-462-1317","ZIPCODE":"20007","STATE_REFERENCE":null},"geometry":{"type":"Point","coordinates":[-77.06686130866552,38.91572487645692]}},{"type":"Feature","properties":{"OBJECTID":79,"NAME":"Jewels New Beginning Learning Center","ADDRESS":"4309 3RD STREET SE","PHONE":"202-506-3124","SPONSORING":"DC Department of Parks and Recreation","DATE_OPEN":"2016-06-20T00:00:00.000Z","DATE_CLOSE":"2016-08-19T00:00:00.000Z","DAYS_OPEN":"M,T,W,TH, F","HOURS_OPEN":"8:30 -12:30","LUNCH_TIME":"11:30 - 12:30","SNACK_TIME":null,"DINNER_SUP":null,"MEAL_TYPES":"B, L","X":399802.29,"Y":129045.07,"WARD":"Ward 8","ADDRID":295828,"CONTACT_FI_NAME":"Jewel ","CONTACT_LAS_NAME":"Parker","STATUS":"Open","ADDRESS2":null,"BREAKFEAST_TIME":"8:30 - 9:30","CONTACT_PHONE":"202-506-3124","ZIPCODE":"20032","STATE_REFERENCE":null},"geometry":{"type":"Point","coordinates":[-77.0022792587788,38.82919953781507]}},{"type":"Feature","properties":{"OBJECTID":80,"NAME":"Joseph Cole Rec. Center","ADDRESS":"1299 NEAL STREET NE","PHONE":"202-442-9262","SPONSORING":"DC Department of Parks and Recreation","DATE_OPEN":"2016-06-20T00:00:00.000Z","DATE_CLOSE":"2016-08-19T00:00:00.000Z","DAYS_OPEN":"M,T,W,TH, F","HOURS_OPEN":"9:00 -2:00","LUNCH_TIME":"12:00 - 2:00","SNACK_TIME":null,"DINNER_SUP":null,"MEAL_TYPES":"B , L","X":400997.43,"Y":137362.43,"WARD":"Ward 5","ADDRID":294512,"CONTACT_FI_NAME":"Zanobia ","CONTACT_LAS_NAME":"Moton","STATUS":"Open","ADDRESS2":null,"BREAKFEAST_TIME":"9:00 - 10:00","CONTACT_PHONE":"202-442-9262","ZIPCODE":"20002","STATE_REFERENCE":null},"geometry":{"type":"Point","coordinates":[-76.9885030510634,38.90412519953248]}},{"type":"Feature","properties":{"OBJECTID":81,"NAME":"Joy of Motion Dance Center ","ADDRESS":"1333 H STREET NE","PHONE":"202-321-1479","SPONSORING":"DC Department of Parks and Recreation","DATE_OPEN":"2016-06-20T00:00:00.000Z","DATE_CLOSE":"2016-08-19T00:00:00.000Z","DAYS_OPEN":"M,T,W,TH, F","HOURS_OPEN":"9:00 - 2:00","LUNCH_TIME":"1:00 - 2:00","SNACK_TIME":null,"DINNER_SUP":null,"MEAL_TYPES":"B , L","X":401108.85,"Y":136902.33,"WARD":"Ward 6","ADDRID":286066,"CONTACT_FI_NAME":"Ayanna ","CONTACT_LAS_NAME":"Williams","STATUS":"Open","ADDRESS2":null,"BREAKFEAST_TIME":"9:00  - 10:00","CONTACT_PHONE":"202-321-1479","ZIPCODE":"20002","STATE_REFERENCE":null},"geometry":{"type":"Point","coordinates":[-76.98721924780708,38.899980321082474]}},{"type":"Feature","properties":{"OBJECTID":82,"NAME":"Kalorama Rec Center","ADDRESS":"1875 COLUMBIA ROAD NW","PHONE":"202-285-2897","SPONSORING":"DC Department of Parks and Recreation","DATE_OPEN":"2016-06-20T00:00:00.000Z","DATE_CLOSE":"2016-08-05T00:00:00.000Z","DAYS_OPEN":"M,T,W,TH, F","HOURS_OPEN":"9:00 -2:00","LUNCH_TIME":"12:00 - 2:00","SNACK_TIME":null,"DINNER_SUP":null,"MEAL_TYPES":"B , L","X":396153.39,"Y":139206.86,"WARD":"Ward 1","ADDRID":284143,"CONTACT_FI_NAME":"Stephania","CONTACT_LAS_NAME":"Foster","STATUS":"Open","ADDRESS2":null,"BREAKFEAST_TIME":"9:00 - 10:00","CONTACT_PHONE":"202-285-2897","ZIPCODE":"20009","STATE_REFERENCE":null},"geometry":{"type":"Point","coordinates":[-77.0443596493498,38.92073259725133]}},{"type":"Feature","properties":{"OBJECTID":83,"NAME":"Kenilworth Courts (HA)","ADDRESS":"4500 QUARLES STREET NE","PHONE":"202-558-9446","SPONSORING":"DC Department of Parks and Recreation","DATE_OPEN":"2016-06-20T00:00:00.000Z","DATE_CLOSE":"2016-08-19T00:00:00.000Z","DAYS_OPEN":"M,T,W,TH, F","HOURS_OPEN":"9:00 -2:00","LUNCH_TIME":"12:00 - 2:00","SNACK_TIME":null,"DINNER_SUP":null,"MEAL_TYPES":"B , L","X":405504.87,"Y":138265.71,"WARD":"Ward 7","ADDRID":20614,"CONTACT_FI_NAME":"Denise ","CONTACT_LAS_NAME":"Stanley","STATUS":"Open","ADDRESS2":null,"BREAKFEAST_TIME":"9:00 - 10:00","CONTACT_PHONE":"202-558-9446","ZIPCODE":"20019","STATE_REFERENCE":null},"geometry":{"type":"Point","coordinates":[-76.93653016754342,38.912245587376795]}},{"type":"Feature","properties":{"OBJECTID":84,"NAME":"Kennedy Recreation Center","ADDRESS":"1401 7TH STREET NW","PHONE":"202-671-4794","SPONSORING":"DC Department of Parks and Recreation","DATE_OPEN":"2016-06-20T00:00:00.000Z","DATE_CLOSE":"2016-07-01T00:00:00.000Z","DAYS_OPEN":"M,T,W,TH, F","HOURS_OPEN":"9:00 -2:00","LUNCH_TIME":"12:00 - 2:00","SNACK_TIME":null,"DINNER_SUP":null,"MEAL_TYPES":"B , L","X":398132.08,"Y":137903.46,"WARD":"Ward 6","ADDRID":279127,"CONTACT_FI_NAME":"Rochelle ","CONTACT_LAS_NAME":"Bradshaw","STATUS":"Open","ADDRESS2":null,"BREAKFEAST_TIME":"9:00 - 10:00","CONTACT_PHONE":"202-671-4794","ZIPCODE":"20001","STATE_REFERENCE":null},"geometry":{"type":"Point","coordinates":[-77.02153874704132,38.90899756675505]}},{"type":"Feature","properties":{"OBJECTID":85,"NAME":"King Greenleaf Rec. Center","ADDRESS":"201 N STREET SW","PHONE":"202-645-7454","SPONSORING":"DC Department of Parks and Recreation","DATE_OPEN":"2016-06-20T00:00:00.000Z","DATE_CLOSE":"2016-08-19T00:00:00.000Z","DAYS_OPEN":"M,T,W,TH, F,SA","HOURS_OPEN":"9:00 - 2:00","LUNCH_TIME":"12:00 - 2:00","SNACK_TIME":null,"DINNER_SUP":null,"MEAL_TYPES":"B , L","X":398889.94,"Y":134131.94,"WARD":"Ward 6","ADDRID":52917,"CONTACT_FI_NAME":"Paul ","CONTACT_LAS_NAME":"Taylor","STATUS":"Open","ADDRESS2":null,"BREAKFEAST_TIME":"9:00 - 10:00","CONTACT_PHONE":"202-645-7454","ZIPCODE":"20024","STATE_REFERENCE":null},"geometry":{"type":"Point","coordinates":[-77.01279479135377,38.875023592503524]}},{"type":"Feature","properties":{"OBJECTID":86,"NAME":"Lamond Rec. Center","ADDRESS":"20 TUCKERMAN STREET NE","PHONE":"202-576-9541","SPONSORING":"DC Department of Parks and Recreation","DATE_OPEN":"2016-06-20T00:00:00.000Z","DATE_CLOSE":"2016-08-19T00:00:00.000Z","DAYS_OPEN":"M,T,W,TH, F,SA","HOURS_OPEN":"9:00 - 2:00","LUNCH_TIME":"12:00 - 2:00","SNACK_TIME":null,"DINNER_SUP":null,"MEAL_TYPES":"B , L","X":399286.43,"Y":144429.41,"WARD":"Ward 4","ADDRID":296166,"CONTACT_FI_NAME":"Duwayne ","CONTACT_LAS_NAME":"Glover","STATUS":"Open","ADDRESS2":null,"BREAKFEAST_TIME":"9:00 - 10:00","CONTACT_PHONE":"202-576-9541","ZIPCODE":"20011","STATE_REFERENCE":null},"geometry":{"type":"Point","coordinates":[-77.00823628646452,38.96778695103824]}},{"type":"Feature","properties":{"OBJECTID":87,"NAME":"Lamond Riggs Library","ADDRESS":"5401 SOUTH DAKOTA AVENUE NE","PHONE":"202-541-6265","SPONSORING":"DC Department of Parks and Recreation","DATE_OPEN":"2016-06-20T00:00:00.000Z","DATE_CLOSE":"2016-08-19T00:00:00.000Z","DAYS_OPEN":"M,T,W,TH, F","HOURS_OPEN":"1:00 -2:30","LUNCH_TIME":"1:00 - 2:30","SNACK_TIME":null,"DINNER_SUP":null,"MEAL_TYPES":"L ","X":400036.03,"Y":143024.96,"WARD":"Ward 5","ADDRID":288645,"CONTACT_FI_NAME":"Robin ","CONTACT_LAS_NAME":"Imperial","STATUS":"Open","ADDRESS2":null,"BREAKFEAST_TIME":null,"CONTACT_PHONE":"202-541-6265","ZIPCODE":"20011","STATE_REFERENCE":null},"geometry":{"type":"Point","coordinates":[-76.99958660474677,38.95513559548461]}},{"type":"Feature","properties":{"OBJECTID":88,"NAME":"Langdon Park Rec. Center","ADDRESS":"2901 20TH STREET NE","PHONE":"202-576-6596","SPONSORING":"DC Department of Parks and Recreation","DATE_OPEN":"2016-06-20T00:00:00.000Z","DATE_CLOSE":"2016-08-19T00:00:00.000Z","DAYS_OPEN":"M,T,W,TH, F","HOURS_OPEN":"9:00 -2:00","LUNCH_TIME":"12:00 - 2:00","SNACK_TIME":null,"DINNER_SUP":null,"MEAL_TYPES":"B , L","X":402099.41,"Y":139883.09,"WARD":"Ward 5","ADDRID":287283,"CONTACT_FI_NAME":"Donniel","CONTACT_LAS_NAME":"Bush","STATUS":"Open","ADDRESS2":null,"BREAKFEAST_TIME":"9:00 - 10:00","CONTACT_PHONE":"202-576-6596","ZIPCODE":"20018","STATE_REFERENCE":null},"geometry":{"type":"Point","coordinates":[-76.97579077027649,38.926830207509276]}},{"type":"Feature","properties":{"OBJECTID":89,"NAME":"Langston Dwellings - Uniting Our Youth(HA)","ADDRESS":"701 24TH STREET NW","PHONE":"202-440-9418","SPONSORING":"DC Department of Parks and Recreation","DATE_OPEN":"2016-06-20T00:00:00.000Z","DATE_CLOSE":"2016-08-19T00:00:00.000Z","DAYS_OPEN":"M,T,W,TH, F","HOURS_OPEN":"9:00 -2:00","LUNCH_TIME":"12:00 - 2:00","SNACK_TIME":null,"DINNER_SUP":null,"MEAL_TYPES":"B , L","X":395558.86,"Y":136740.93,"WARD":"Ward 2","ADDRID":274049,"CONTACT_FI_NAME":"Clarence ","CONTACT_LAS_NAME":"Miles","STATUS":"Open","ADDRESS2":null,"BREAKFEAST_TIME":"9:00 - 10:00","CONTACT_PHONE":"202-440-9418","ZIPCODE":"20037","STATE_REFERENCE":null},"geometry":{"type":"Point","coordinates":[-77.05119954964194,38.89851584986295]}},{"type":"Feature","properties":{"OBJECTID":90,"NAME":"Langston Golf Course","ADDRESS":"2600 BENNING ROAD NE","PHONE":"202-253-3995","SPONSORING":"DC Department of Parks and Recreation","DATE_OPEN":"2016-06-20T00:00:00.000Z","DATE_CLOSE":"2016-08-19T00:00:00.000Z","DAYS_OPEN":"M,T,W,TH, F","HOURS_OPEN":"11:30 - 12:30","LUNCH_TIME":"11:30 - 12:30","SNACK_TIME":null,"DINNER_SUP":null,"MEAL_TYPES":"L","X":402555.92,"Y":136694.83,"WARD":"Ward 5","ADDRID":295161,"CONTACT_FI_NAME":"Ray ","CONTACT_LAS_NAME":"Savoy","STATUS":"Open","ADDRESS2":null,"BREAKFEAST_TIME":null,"CONTACT_PHONE":"202-253-3995","ZIPCODE":"20002","STATE_REFERENCE":null},"geometry":{"type":"Point","coordinates":[-76.97053791976303,38.898108070263945]}},{"type":"Feature","properties":{"OBJECTID":91,"NAME":"Latin American Youth Center","ADDRESS":"1419 COLUMBIA ROAD NW","PHONE":"202-319-2237","SPONSORING":"DC Department of Parks and Recreation","DATE_OPEN":"2016-06-20T00:00:00.000Z","DATE_CLOSE":"2016-08-19T00:00:00.000Z","DAYS_OPEN":"M,T,W,TH, F","HOURS_OPEN":"9:30 - 1:00","LUNCH_TIME":"12:00 - 1:00","SNACK_TIME":null,"DINNER_SUP":null,"MEAL_TYPES":"B , L","X":397107.54,"Y":139988.13,"WARD":"Ward 1","ADDRID":234363,"CONTACT_FI_NAME":"Jose","CONTACT_LAS_NAME":"Cruz","STATUS":"Open","ADDRESS2":null,"BREAKFEAST_TIME":"9:30 - 10:30","CONTACT_PHONE":"202-319-2237","ZIPCODE":"20009","STATE_REFERENCE":null},"geometry":{"type":"Point","coordinates":[-77.03336011729702,38.92777418612019]}},{"type":"Feature","properties":{"OBJECTID":92,"NAME":"Ledroit Park- Kelly Miller - Uniting Our Youth (HA)","ADDRESS":"238 W STREET NW","PHONE":"202-440-9418","SPONSORING":"DC Department of Parks and Recreation","DATE_OPEN":"2016-06-20T00:00:00.000Z","DATE_CLOSE":"2016-08-19T00:00:00.000Z","DAYS_OPEN":"M,T,W,TH, F","HOURS_OPEN":"9:00 -2:00","LUNCH_TIME":"12:00 - 2:00","SNACK_TIME":null,"DINNER_SUP":null,"MEAL_TYPES":"B , L","X":398587.11,"Y":139037.32,"WARD":"Ward 1","ADDRID":290650,"CONTACT_FI_NAME":"Clarence","CONTACT_LAS_NAME":"Miles","STATUS":"Open","ADDRESS2":null,"BREAKFEAST_TIME":"9:00 - 10:00","CONTACT_PHONE":"202-440-9418","ZIPCODE":"20001","STATE_REFERENCE":null},"geometry":{"type":"Point","coordinates":[-77.01629474453594,38.919212609312666]}},{"type":"Feature","properties":{"OBJECTID":93,"NAME":"Lincoln Heights (HA)","ADDRESS":"400 50TH STREET NE","PHONE":"202-315-9813","SPONSORING":"DC Department of Parks and Recreation","DATE_OPEN":"2016-06-20T00:00:00.000Z","DATE_CLOSE":"2016-08-19T00:00:00.000Z","DAYS_OPEN":"M,T,W,TH, F","HOURS_OPEN":"9:00 -2:00","LUNCH_TIME":"12:00 - 2:00","SNACK_TIME":null,"DINNER_SUP":null,"MEAL_TYPES":"B , L","X":406071.74,"Y":136385.53,"WARD":"Ward 7","ADDRID":28532,"CONTACT_FI_NAME":"Taniesha","CONTACT_LAS_NAME":"Dozier","STATUS":"Open","ADDRESS2":null,"BREAKFEAST_TIME":"9:00 - 10:00","CONTACT_PHONE":"202-315-9813","ZIPCODE":"20019","STATE_REFERENCE":null},"geometry":{"type":"Point","coordinates":[-76.93001067971592,38.895304531931025]}},{"type":"Feature","properties":{"OBJECTID":94,"NAME":"Living Classrooms","ADDRESS":"515 M STREET SE","PHONE":"240-646-4472","SPONSORING":"DC Department of Parks and Recreation","DATE_OPEN":"2016-06-20T00:00:00.000Z","DATE_CLOSE":null,"DAYS_OPEN":"M,T,W,TH, F","HOURS_OPEN":"8:30 -2:00","LUNCH_TIME":"12:00 - 2:00","SNACK_TIME":null,"DINNER_SUP":null,"MEAL_TYPES":"B , L","X":400116.92,"Y":134225.06,"WARD":"Ward 6","ADDRID":306683,"CONTACT_FI_NAME":"Travis ","CONTACT_LAS_NAME":"Ellis","STATUS":"Open","ADDRESS2":null,"BREAKFEAST_TIME":"8:30 - 9:30","CONTACT_PHONE":"240-646-4472","ZIPCODE":"20003","STATE_REFERENCE":null},"geometry":{"type":"Point","coordinates":[-76.99865486139959,38.87586314803379]}},{"type":"Feature","properties":{"OBJECTID":95,"NAME":"Mary's Center","ADDRESS":"3912 GEORGIA AVENUE NW","PHONE":"202-420-7108","SPONSORING":"DC Department of Parks and Recreation","DATE_OPEN":"2016-06-20T00:00:00.000Z","DATE_CLOSE":null,"DAYS_OPEN":"M,T,W,TH, F","HOURS_OPEN":"8:30 -2:00","LUNCH_TIME":"12:00 - 2:00","SNACK_TIME":null,"DINNER_SUP":null,"MEAL_TYPES":"B , L","X":397823.06,"Y":141262.62,"WARD":"Ward 4","ADDRID":224825,"CONTACT_FI_NAME":"Walter ","CONTACT_LAS_NAME":"Castillo","STATUS":"Open","ADDRESS2":null,"BREAKFEAST_TIME":"8:30 - 9:30","CONTACT_PHONE":"202-420-7108","ZIPCODE":"20011","STATE_REFERENCE":null},"geometry":{"type":"Point","coordinates":[-77.02511229415842,38.939257244181114]}},{"type":"Feature","properties":{"OBJECTID":96,"NAME":"Maya Angelou PCS","ADDRESS":"5600 EAST CAPITOL STREET NE","PHONE":"202-792-5655","SPONSORING":"DC Department of Parks and Recreation","DATE_OPEN":"2016-06-20T00:00:00.000Z","DATE_CLOSE":null,"DAYS_OPEN":"M,T,W,TH, F","HOURS_OPEN":"8:45 - 1:30","LUNCH_TIME":"12:30 - 1:30","SNACK_TIME":null,"DINNER_SUP":null,"MEAL_TYPES":"B , L","X":406885.34,"Y":135830.53,"WARD":"Ward 7","ADDRID":289793,"CONTACT_FI_NAME":"Heather ","CONTACT_LAS_NAME":"Hesslink","STATUS":"Open","ADDRESS2":null,"BREAKFEAST_TIME":"8:45 - 9:15","CONTACT_PHONE":"202-792-5655","ZIPCODE":"20019","STATE_REFERENCE":null},"geometry":{"type":"Point","coordinates":[-76.92063752276401,38.89029889194943]}},{"type":"Feature","properties":{"OBJECTID":97,"NAME":"Mayfair Mansion","ADDRESS":"3744 1/2 HAYES STREET NE","PHONE":"202-450-6684/202-440-2339","SPONSORING":"DC Department of Parks and Recreation","DATE_OPEN":"2016-06-20T00:00:00.000Z","DATE_CLOSE":"2016-08-19T00:00:00.000Z","DAYS_OPEN":"M,T,W,TH, F","HOURS_OPEN":"9:30 - 1:30","LUNCH_TIME":"12:30 - 1:30","SNACK_TIME":null,"DINNER_SUP":null,"MEAL_TYPES":"B , L","X":404447.82,"Y":137297.24,"WARD":"Ward 7","ADDRID":307816,"CONTACT_FI_NAME":"John ","CONTACT_LAS_NAME":"Pinkney","STATUS":"Open","ADDRESS2":null,"BREAKFEAST_TIME":"9:30 - 10:30","CONTACT_PHONE":"202-450-6684/202-440-2339","ZIPCODE":"20019","STATE_REFERENCE":null},"geometry":{"type":"Point","coordinates":[-76.94872440849758,38.90352725911224]}},{"type":"Feature","properties":{"OBJECTID":98,"NAME":"Meadowbrook Run","ADDRESS":"3635 6TH STREET SE","PHONE":"202-506-3031","SPONSORING":"DC Department of Parks and Recreation","DATE_OPEN":"2016-06-20T00:00:00.000Z","DATE_CLOSE":"2016-08-19T00:00:00.000Z","DAYS_OPEN":"M,T,W,TH, F","HOURS_OPEN":"9:00 - 2:00","LUNCH_TIME":"12:00 - 2:00","SNACK_TIME":null,"DINNER_SUP":null,"MEAL_TYPES":"B , L","X":400073.27,"Y":130116.42,"WARD":"Ward 8","ADDRID":295893,"CONTACT_FI_NAME":"Nicole ","CONTACT_LAS_NAME":"Johnson","STATUS":"Open","ADDRESS2":null,"BREAKFEAST_TIME":"9:00 - 10:00","CONTACT_PHONE":"202-506-3031","ZIPCODE":"20032","STATE_REFERENCE":null},"geometry":{"type":"Point","coordinates":[-76.99915833239422,38.8388507715214]}},{"type":"Feature","properties":{"OBJECTID":99,"NAME":"Michigan Park Christian Church","ADDRESS":"1600 TAYLOR STREET NE","PHONE":"202-413-6845","SPONSORING":"DC Department of Parks and Recreation","DATE_OPEN":"2016-06-20T00:00:00.000Z","DATE_CLOSE":"2016-08-05T00:00:00.000Z","DAYS_OPEN":"M,T,W,TH, F","HOURS_OPEN":"9:00 -1:00","LUNCH_TIME":"12:00 - 1:00","SNACK_TIME":null,"DINNER_SUP":null,"MEAL_TYPES":"B , L","X":401542.99,"Y":141454.77,"WARD":"Ward 5","ADDRID":286330,"CONTACT_FI_NAME":"Kenneth ","CONTACT_LAS_NAME":"James, Sr.","STATUS":"Open","ADDRESS2":null,"BREAKFEAST_TIME":"9:00  - 10:00","CONTACT_PHONE":"202-413-6845","ZIPCODE":"20017","STATE_REFERENCE":null},"geometry":{"type":"Point","coordinates":[-76.98220416906881,38.94098953142058]}},{"type":"Feature","properties":{"OBJECTID":100,"NAME":"Montana Terrace (HA)","ADDRESS":"1625 MONTANA AVENUE NE","PHONE":"202-271-1962","SPONSORING":"DC Department of Parks and Recreation","DATE_OPEN":"2016-06-20T00:00:00.000Z","DATE_CLOSE":"2016-08-19T00:00:00.000Z","DAYS_OPEN":"M,T,W,TH, F","HOURS_OPEN":"9:00 -1:00","LUNCH_TIME":"12:00 - 1:00","SNACK_TIME":null,"DINNER_SUP":null,"MEAL_TYPES":"B , L","X":401643.84,"Y":139236.62,"WARD":"Ward 5","ADDRID":290552,"CONTACT_FI_NAME":"Tanora ","CONTACT_LAS_NAME":"Gibbs","STATUS":"Open","ADDRESS2":null,"BREAKFEAST_TIME":"9:00 - 10:00","CONTACT_PHONE":"202-271-1962","ZIPCODE":"20018","STATE_REFERENCE":null},"geometry":{"type":"Point","coordinates":[-76.98104619388664,38.92100756856397]}},{"type":"Feature","properties":{"OBJECTID":101,"NAME":"MPD Summer Youth Academy","ADDRESS":"5601 EAST CAPITOL STREET SE","PHONE":"202-870-9952","SPONSORING":"DC Department of Parks and Recreation","DATE_OPEN":"2016-06-20T00:00:00.000Z","DATE_CLOSE":"2016-08-19T00:00:00.000Z","DAYS_OPEN":"M,T,W,TH, F","HOURS_OPEN":"8:00 -2:00","LUNCH_TIME":"12:00 - 2:00","SNACK_TIME":null,"DINNER_SUP":null,"MEAL_TYPES":"B , L","X":406789.33,"Y":135740.32,"WARD":"Ward 7","ADDRID":294610,"CONTACT_FI_NAME":"Michael ","CONTACT_LAS_NAME":"Jones","STATUS":"Open","ADDRESS2":null,"BREAKFEAST_TIME":"8:00 - 9:00","CONTACT_PHONE":"202-870-9952","ZIPCODE":"20019","STATE_REFERENCE":null},"geometry":{"type":"Point","coordinates":[-76.92174508520976,38.889486993248774]}},{"type":"Feature","properties":{"OBJECTID":102,"NAME":"Mt. Pleasant Neighborhood Library","ADDRESS":"3160 16TH STREET NW","PHONE":"202-671-3126","SPONSORING":"DC Department of Parks and Recreation","DATE_OPEN":"2016-06-20T00:00:00.000Z","DATE_CLOSE":"2016-08-19T00:00:00.000Z","DAYS_OPEN":"M,T,W,TH, F","HOURS_OPEN":"1:00- 2:30","LUNCH_TIME":"1:00 - 2:30","SNACK_TIME":null,"DINNER_SUP":null,"MEAL_TYPES":"L ","X":396779.31,"Y":140288.09,"WARD":"Ward 1","ADDRID":295138,"CONTACT_FI_NAME":"Tracy ","CONTACT_LAS_NAME":"Sumler","STATUS":"Open","ADDRESS2":null,"BREAKFEAST_TIME":null,"CONTACT_PHONE":"202-671-3126","ZIPCODE":"20010","STATE_REFERENCE":null},"geometry":{"type":"Point","coordinates":[-77.03714689807214,38.930475177313745]}},{"type":"Feature","properties":{"OBJECTID":103,"NAME":"National Conservatory of Arts","ADDRESS":"900 4TH STREET SW","PHONE":"202-581-1043 ext. 709","SPONSORING":"DC Department of Parks and Recreation","DATE_OPEN":"2016-06-20T00:00:00.000Z","DATE_CLOSE":"2016-07-15T00:00:00.000Z","DAYS_OPEN":"M,T,W,TH, F","HOURS_OPEN":"8:00 - 1:00","LUNCH_TIME":"12:00 - 1:00","SNACK_TIME":null,"DINNER_SUP":null,"MEAL_TYPES":"B , L","X":398548.63,"Y":134561.46,"WARD":"Ward 6","ADDRID":276853,"CONTACT_FI_NAME":"Jacqueline","CONTACT_LAS_NAME":"Banks","STATUS":"Open","ADDRESS2":null,"BREAKFEAST_TIME":"8:00 - 9:00","CONTACT_PHONE":"202-581-1043 ext. 709","ZIPCODE":"20024","STATE_REFERENCE":null},"geometry":{"type":"Point","coordinates":[-77.01672900960912,38.87889238176118]}},{"type":"Feature","properties":{"OBJECTID":104,"NAME":"New Bethel Baptist Church","ADDRESS":"1739 9TH STREET NW","PHONE":"202-387-9100","SPONSORING":"DC Department of Parks and Recreation","DATE_OPEN":"2016-06-20T00:00:00.000Z","DATE_CLOSE":"2016-07-29T00:00:00.000Z","DAYS_OPEN":"M,T,W,TH, F","HOURS_OPEN":"8:00 - 1:00","LUNCH_TIME":"12:00 - 1:00","SNACK_TIME":null,"DINNER_SUP":null,"MEAL_TYPES":"B, L","X":397956.61,"Y":138441.29,"WARD":"Ward 6","ADDRID":239902,"CONTACT_FI_NAME":"Angelique","CONTACT_LAS_NAME":"Mitchell","STATUS":"Open","ADDRESS2":null,"BREAKFEAST_TIME":"8:00 - 9:00","CONTACT_PHONE":"202-387-9100","ZIPCODE":"20001","STATE_REFERENCE":null},"geometry":{"type":"Point","coordinates":[-77.02356345530357,38.913842132500065]}},{"type":"Feature","properties":{"OBJECTID":105,"NAME":"New Parkchester Housing Coop.","ADDRESS":"2906 POMEROY ROAD SE","PHONE":"202-889-3712","SPONSORING":"DC Department of Parks and Recreation","DATE_OPEN":"2016-06-20T00:00:00.000Z","DATE_CLOSE":"2016-08-12T00:00:00.000Z","DAYS_OPEN":"M,T,W,TH, F","HOURS_OPEN":"9:00- 2:00","LUNCH_TIME":"12:00 - 2:00","SNACK_TIME":null,"DINNER_SUP":null,"MEAL_TYPES":"B , L","X":400275.77,"Y":132091.04,"WARD":"Ward 8","ADDRID":289450,"CONTACT_FI_NAME":"Darnese ","CONTACT_LAS_NAME":"Baker","STATUS":"Open","ADDRESS2":null,"BREAKFEAST_TIME":"9:00 - 10:00","CONTACT_PHONE":"202-889-3712","ZIPCODE":"20020","STATE_REFERENCE":null},"geometry":{"type":"Point","coordinates":[-76.99682508177654,38.85663897883795]}},{"type":"Feature","properties":{"OBJECTID":106,"NAME":"New York Avenue Playground","ADDRESS":"NEW YORK AVENUE NW AND 1ST STREET NW","PHONE":null,"SPONSORING":"DC Department of Parks and Recreation","DATE_OPEN":"2016-06-20T00:00:00.000Z","DATE_CLOSE":"2016-07-31T00:00:00.000Z","DAYS_OPEN":"SA","HOURS_OPEN":null,"LUNCH_TIME":null,"SNACK_TIME":null,"DINNER_SUP":null,"MEAL_TYPES":null,"X":398945.26,"Y":137601.24,"WARD":null,"ADDRID":18769,"CONTACT_FI_NAME":null,"CONTACT_LAS_NAME":null,"STATUS":"Open","ADDRESS2":null,"BREAKFEAST_TIME":null,"CONTACT_PHONE":null,"ZIPCODE":null,"STATE_REFERENCE":null},"geometry":{"type":"Point","coordinates":[-77.01216260246166,38.906276416239876]}},{"type":"Feature","properties":{"OBJECTID":107,"NAME":"North Michigan Park Rec. Center","ADDRESS":"1333 EMERSON STREET NE","PHONE":"202-541-3526","SPONSORING":"DC Department of Parks and Recreation","DATE_OPEN":"2016-06-20T00:00:00.000Z","DATE_CLOSE":"2016-08-12T00:00:00.000Z","DAYS_OPEN":"M,T,W,TH, F","HOURS_OPEN":"9:00 -2:00","LUNCH_TIME":"12:00 - 2:00","SNACK_TIME":null,"DINNER_SUP":null,"MEAL_TYPES":"B , L","X":401180.45,"Y":142451.51,"WARD":"Ward 5","ADDRID":296163,"CONTACT_FI_NAME":"Joseph ","CONTACT_LAS_NAME":"Clark","STATUS":"Open","ADDRESS2":null,"BREAKFEAST_TIME":"9:00 - 10:00","CONTACT_PHONE":"202-541-3526","ZIPCODE":"20017","STATE_REFERENCE":null},"geometry":{"type":"Point","coordinates":[-76.98638428927671,38.9499690101533]}},{"type":"Feature","properties":{"OBJECTID":108,"NAME":"Northeast Perfroming Arts Group","ADDRESS":"3431 BENNING ROAD NE","PHONE":"202-388-1274/202-704-8653","SPONSORING":"DC Department of Parks and Recreation","DATE_OPEN":"2016-06-20T00:00:00.000Z","DATE_CLOSE":"2016-08-25T00:00:00.000Z","DAYS_OPEN":"M,T,W,TH, F","HOURS_OPEN":"7:00 -1:00","LUNCH_TIME":"12:00 - 1:00","SNACK_TIME":null,"DINNER_SUP":null,"MEAL_TYPES":"B , L","X":403771.79,"Y":136461.81,"WARD":"Ward 7","ADDRID":287893,"CONTACT_FI_NAME":"Carrington ","CONTACT_LAS_NAME":"Lassiter","STATUS":"Open","ADDRESS2":null,"BREAKFEAST_TIME":"7:00 - 8:00","CONTACT_PHONE":"202-388-1274/202-704-8653","ZIPCODE":"20019","STATE_REFERENCE":null},"geometry":{"type":"Point","coordinates":[-76.9565227856647,38.896004565744235]}},{"type":"Feature","properties":{"OBJECTID":109,"NAME":"Park Morton (HA)","ADDRESS":"615 MORTON STREET NW","PHONE":"202-607-0108","SPONSORING":"DC Department of Parks and Recreation","DATE_OPEN":"2016-06-20T00:00:00.000Z","DATE_CLOSE":"2016-07-28T00:00:00.000Z","DAYS_OPEN":"M,T,W,TH, F","HOURS_OPEN":"8:00 -1:00","LUNCH_TIME":"12:00 - 2:00","SNACK_TIME":null,"DINNER_SUP":null,"MEAL_TYPES":"L ","X":398096.9,"Y":140497.7,"WARD":"Ward 1","ADDRID":285316,"CONTACT_FI_NAME":"Tamika","CONTACT_LAS_NAME":"White","STATUS":"Open","ADDRESS2":null,"BREAKFEAST_TIME":null,"CONTACT_PHONE":"202-607-0108","ZIPCODE":"20010","STATE_REFERENCE":null},"geometry":{"type":"Point","coordinates":[-77.0219515532005,38.932367250946974]}},{"type":"Feature","properties":{"OBJECTID":110,"NAME":"Park Southern","ADDRESS":"800 SOUTHERN AVENUE SE","PHONE":"202-561-4600","SPONSORING":"DC Department of Parks and Recreation","DATE_OPEN":"2016-06-20T00:00:00.000Z","DATE_CLOSE":"2016-08-01T00:00:00.000Z","DAYS_OPEN":"M,T,W,TH, F","HOURS_OPEN":"9:00 -2:00","LUNCH_TIME":"1:00 - 2:00","SNACK_TIME":null,"DINNER_SUP":null,"MEAL_TYPES":"B , L","X":400467.3,"Y":128840.97,"WARD":"Ward 8","ADDRID":79579,"CONTACT_FI_NAME":"Robin ","CONTACT_LAS_NAME":"Lee","STATUS":"Open","ADDRESS2":null,"BREAKFEAST_TIME":"9:00  - 10:00","CONTACT_PHONE":"202-561-4600","ZIPCODE":"20032","STATE_REFERENCE":null},"geometry":{"type":"Point","coordinates":[-76.99462063353704,38.82736080771573]}},{"type":"Feature","properties":{"OBJECTID":111,"NAME":"Parkview Rec. Center","ADDRESS":"693 OTIS PLACE NW","PHONE":"202-671-2186","SPONSORING":"DC Department of Parks and Recreation","DATE_OPEN":"2016-06-21T00:00:00.000Z","DATE_CLOSE":"2016-07-22T00:00:00.000Z","DAYS_OPEN":"M,T,W,TH, F","HOURS_OPEN":"9:00 -2:00","LUNCH_TIME":"12:00 - 2:00","SNACK_TIME":null,"DINNER_SUP":null,"MEAL_TYPES":"B , L","X":398148.9,"Y":140791.13,"WARD":"Ward 1","ADDRID":295160,"CONTACT_FI_NAME":"Craig ","CONTACT_LAS_NAME":"Hughes","STATUS":"Open","ADDRESS2":null,"BREAKFEAST_TIME":"9:00 - 10:00","CONTACT_PHONE":"202-671-2186","ZIPCODE":"20010","STATE_REFERENCE":null},"geometry":{"type":"Point","coordinates":[-77.02135260660532,38.93501066874128]}},{"type":"Feature","properties":{"OBJECTID":112,"NAME":"Petworth Library","ADDRESS":"4200 KANSAS AVENUE NW","PHONE":"202-243-1189","SPONSORING":"DC Department of Parks and Recreation","DATE_OPEN":"2016-06-22T00:00:00.000Z","DATE_CLOSE":"2016-07-22T00:00:00.000Z","DAYS_OPEN":"M,T,W,TH, F","HOURS_OPEN":"1:00 -2:30","LUNCH_TIME":"1:00 - 2:30","SNACK_TIME":null,"DINNER_SUP":null,"MEAL_TYPES":"L ","X":397734.08,"Y":141590.17,"WARD":"Ward 4","ADDRID":295146,"CONTACT_FI_NAME":"Jeffrey ","CONTACT_LAS_NAME":"Neher","STATUS":"Open","ADDRESS2":null,"BREAKFEAST_TIME":null,"CONTACT_PHONE":"202-243-1189","ZIPCODE":"20011","STATE_REFERENCE":null},"geometry":{"type":"Point","coordinates":[-77.02613971967232,38.942207685179035]}},{"type":"Feature","properties":{"OBJECTID":113,"NAME":"Petworth Rec. Center","ADDRESS":"801 TAYLOR STREET NW","PHONE":"202-576-6850","SPONSORING":"DC Department of Parks and Recreation","DATE_OPEN":"2016-06-22T00:00:00.000Z","DATE_CLOSE":"2016-08-10T00:00:00.000Z","DAYS_OPEN":"M,T,W,TH, F,SA","HOURS_OPEN":"9:00 -2:00","LUNCH_TIME":"12:00 - 2:00","SNACK_TIME":null,"DINNER_SUP":null,"MEAL_TYPES":"B , L","X":397919.04,"Y":141457.96,"WARD":"Ward 4","ADDRID":296169,"CONTACT_FI_NAME":"Anthony ","CONTACT_LAS_NAME":"Wallace","STATUS":"Open","ADDRESS2":null,"BREAKFEAST_TIME":"9:00 - 10:00","CONTACT_PHONE":"202-576-6850","ZIPCODE":"20011","STATE_REFERENCE":null},"geometry":{"type":"Point","coordinates":[-77.0240058013211,38.94101715675945]}},{"type":"Feature","properties":{"OBJECTID":114,"NAME":"Richard Wright PCS","ADDRESS":"770 M STREET SE","PHONE":"202-547-3870               202-388-1011 ext. 123     202-246-5749","SPONSORING":"DC Department of Parks and Recreation","DATE_OPEN":"2016-06-22T00:00:00.000Z","DATE_CLOSE":"2016-08-10T00:00:00.000Z","DAYS_OPEN":"M,T,W,TH, F","HOURS_OPEN":"8:00 - 1:00","LUNCH_TIME":"11:00 - 1:00","SNACK_TIME":null,"DINNER_SUP":null,"MEAL_TYPES":"B , L","X":400383.82,"Y":134351.84,"WARD":"Ward 6","ADDRID":288946,"CONTACT_FI_NAME":"Yvonne           Alisha                Adriane","CONTACT_LAS_NAME":"Ali              Roberts        Alfred","STATUS":"Open","ADDRESS2":null,"BREAKFEAST_TIME":"8:00 - 9:00","CONTACT_PHONE":"202-547-3870           202-388-1011 ext. 123     202-246-5749","ZIPCODE":"20003","STATE_REFERENCE":null},"geometry":{"type":"Point","coordinates":[-76.99557895612689,38.877005156795114]}},{"type":"Feature","properties":{"OBJECTID":115,"NAME":"Raymond Rec Center","ADDRESS":"3725 10TH STREET NW","PHONE":"202-671-2181","SPONSORING":"DC Department of Parks and Recreation","DATE_OPEN":"2016-06-23T00:00:00.000Z","DATE_CLOSE":"2016-08-11T00:00:00.000Z","DAYS_OPEN":"M,T,W,TH, F","HOURS_OPEN":"9:00 -2:00","LUNCH_TIME":"12:00 - 2:00","SNACK_TIME":null,"DINNER_SUP":null,"MEAL_TYPES":"B , L","X":397662.94,"Y":140952.42,"WARD":"Ward 4","ADDRID":310493,"CONTACT_FI_NAME":"Cecily ","CONTACT_LAS_NAME":"Mendie","STATUS":"Open","ADDRESS2":null,"BREAKFEAST_TIME":"9:00 - 10:00","CONTACT_PHONE":"202-671-2181","ZIPCODE":"20010","STATE_REFERENCE":null},"geometry":{"type":"Point","coordinates":[-77.02695814839882,38.936462459087316]}},{"type":"Feature","properties":{"OBJECTID":116,"NAME":"RH Terrell/Walker Jones Recreation Center","ADDRESS":"155 L STREET NW","PHONE":"202-997-4772/ 202-698-2247","SPONSORING":"DC Department of Parks and Recreation","DATE_OPEN":"2016-06-23T00:00:00.000Z","DATE_CLOSE":"2016-08-11T00:00:00.000Z","DAYS_OPEN":"M,T,W,TH, F","HOURS_OPEN":"9:00 -2:00","LUNCH_TIME":"12:00 - 2:00","SNACK_TIME":null,"DINNER_SUP":null,"MEAL_TYPES":"B , L","X":398818.89,"Y":137349.69,"WARD":"Ward 6","ADDRID":307736,"CONTACT_FI_NAME":"Cecilia ","CONTACT_LAS_NAME":"Thomas","STATUS":"Open","ADDRESS2":null,"BREAKFEAST_TIME":"9:00 - 10:00","CONTACT_PHONE":"202-997-4772/ 202-698-2247","ZIPCODE":"20001","STATE_REFERENCE":null},"geometry":{"type":"Point","coordinates":[-77.01361911592363,38.90401020455017]}},{"type":"Feature","properties":{"OBJECTID":117,"NAME":"Ridge Road Rec Center","ADDRESS":"800 RIDGE ROAD SE","PHONE":"202-360-6769","SPONSORING":"DC Department of Parks and Recreation","DATE_OPEN":"2016-06-24T00:00:00.000Z","DATE_CLOSE":null,"DAYS_OPEN":"M,T,W,TH, F","HOURS_OPEN":"9:00 - 2:00","LUNCH_TIME":"12:00 - 2:00","SNACK_TIME":null,"DINNER_SUP":null,"MEAL_TYPES":null,"X":404923.72,"Y":134434.84,"WARD":"Ward 7","ADDRID":289024,"CONTACT_FI_NAME":"Sonny","CONTACT_LAS_NAME":"Hicks","STATUS":"Open","ADDRESS2":null,"BREAKFEAST_TIME":"9:00  - 10:00","CONTACT_PHONE":"202-360-6769","ZIPCODE":"20019","STATE_REFERENCE":null},"geometry":{"type":"Point","coordinates":[-76.9432583809927,38.87773915416169]}},{"type":"Feature","properties":{"OBJECTID":118,"NAME":"Rita Bright Family Youth Center","ADDRESS":"2500 14TH STREET NW","PHONE":"202-578-7838","SPONSORING":"DC Department of Parks and Recreation","DATE_OPEN":"2016-06-26T00:00:00.000Z","DATE_CLOSE":null,"DAYS_OPEN":"M,T,W,TH, F","HOURS_OPEN":"9:00 - 2:00","LUNCH_TIME":"12:00 - 2:00","SNACK_TIME":null,"DINNER_SUP":null,"MEAL_TYPES":"B , L","X":397193.65,"Y":139347.84,"WARD":"Ward 1","ADDRID":234200,"CONTACT_FI_NAME":"Manni ","CONTACT_LAS_NAME":"Hayes","STATUS":"Open","ADDRESS2":null,"BREAKFEAST_TIME":"9:00 - 10:00","CONTACT_PHONE":"202-578-7838","ZIPCODE":"20009","STATE_REFERENCE":null},"geometry":{"type":"Point","coordinates":[-77.03236441971391,38.92200652900068]}},{"type":"Feature","properties":{"OBJECTID":119,"NAME":"Rosedale Rec. Center","ADDRESS":"1701 GALES STREET NE","PHONE":"202-727-2591","SPONSORING":"DC Department of Parks and Recreation","DATE_OPEN":"2016-06-27T00:00:00.000Z","DATE_CLOSE":"2016-08-04T00:00:00.000Z","DAYS_OPEN":"M,T,W,TH, F,SA","HOURS_OPEN":"9:00 -2:00","LUNCH_TIME":"12:00 - 2:00","SNACK_TIME":null,"DINNER_SUP":null,"MEAL_TYPES":"B , L","X":401810.05,"Y":136662.58,"WARD":"Ward 6","ADDRID":307101,"CONTACT_FI_NAME":"Brian ","CONTACT_LAS_NAME":"Williams","STATUS":"Open","ADDRESS2":null,"BREAKFEAST_TIME":"9:00 - 10:00","CONTACT_PHONE":"202-727-2591","ZIPCODE":"20002","STATE_REFERENCE":null},"geometry":{"type":"Point","coordinates":[-76.97913631139863,38.897819402449734]}},{"type":"Feature","properties":{"OBJECTID":120,"NAME":"S.E. White House/ DC Dream Center","ADDRESS":"2909 PENNSYLVANIA AVENUE SE","PHONE":"202-575-3337","SPONSORING":"DC Department of Parks and Recreation","DATE_OPEN":"2016-06-27T00:00:00.000Z","DATE_CLOSE":"2016-08-05T00:00:00.000Z","DAYS_OPEN":"M,T,W,TH, F","HOURS_OPEN":"9:00 -2:00","LUNCH_TIME":"12:00 - 2:00","SNACK_TIME":null,"DINNER_SUP":null,"MEAL_TYPES":"B , L","X":402931.43,"Y":133727.08,"WARD":"Ward 7","ADDRID":43412,"CONTACT_FI_NAME":"Christina ","CONTACT_LAS_NAME":"Henderson","STATUS":"Open","ADDRESS2":null,"BREAKFEAST_TIME":"9:00 - 10:00","CONTACT_PHONE":"202-575-3337","ZIPCODE":"20020","STATE_REFERENCE":null},"geometry":{"type":"Point","coordinates":[-76.96622174048944,38.87137226709991]}},{"type":"Feature","properties":{"OBJECTID":121,"NAME":"Sargent Memorial Presbyterian Church (Daybreak Ministries) ","ADDRESS":"5109 NANNIE HELEN BURROUGHS AVENUE NE","PHONE":"202-396-5710","SPONSORING":"DC Department of Parks and Recreation","DATE_OPEN":"2016-06-27T00:00:00.000Z","DATE_CLOSE":"2016-08-05T00:00:00.000Z","DAYS_OPEN":"M,T,W,TH, F","HOURS_OPEN":"8:30 -2:00","LUNCH_TIME":"12:00 - 2:00","SNACK_TIME":null,"DINNER_SUP":null,"MEAL_TYPES":"B , L","X":406344.22,"Y":136694.3,"WARD":"Ward 7","ADDRID":288499,"CONTACT_FI_NAME":"Tiffany ","CONTACT_LAS_NAME":"Dean","STATUS":"Open","ADDRESS2":null,"BREAKFEAST_TIME":"8:30 - 9:30","CONTACT_PHONE":"202-396-5710","ZIPCODE":"20019","STATE_REFERENCE":null},"geometry":{"type":"Point","coordinates":[-76.9268668334822,38.89808412001723]}},{"type":"Feature","properties":{"OBJECTID":122,"NAME":"Sasha Bruce Youthwork--Bruce House","ADDRESS":"1022 MARYLAND AVENUE NE","PHONE":"202-546-4900","SPONSORING":"DC Department of Parks and Recreation","DATE_OPEN":"2016-06-27T00:00:00.000Z","DATE_CLOSE":"2016-08-05T00:00:00.000Z","DAYS_OPEN":"M,T,W,TH, F","HOURS_OPEN":"9:00 -1:30","LUNCH_TIME":"12:00 - 1:30","SNACK_TIME":null,"DINNER_SUP":null,"MEAL_TYPES":"B , L","X":400708.48,"Y":136575.97,"WARD":"Ward 6","ADDRID":75415,"CONTACT_FI_NAME":"Lashalle ","CONTACT_LAS_NAME":"Richmond","STATUS":"Open","ADDRESS2":null,"BREAKFEAST_TIME":"9:00  - 10:00","CONTACT_PHONE":"202-546-4900","ZIPCODE":"20002","STATE_REFERENCE":null},"geometry":{"type":"Point","coordinates":[-76.99183512643705,38.89704076553673]}},{"type":"Feature","properties":{"OBJECTID":123,"NAME":"Sasha Bruce Youthwork--Randall Community Center","ADDRESS":"820 SOUTH CAPITOL STREET SW","PHONE":"719-248-6436","SPONSORING":"DC Department of Parks and Recreation","DATE_OPEN":"2016-06-27T00:00:00.000Z","DATE_CLOSE":"2016-08-05T00:00:00.000Z","DAYS_OPEN":"M,T,W,TH, F","HOURS_OPEN":"12:00 - 2:00","LUNCH_TIME":"12:00 - 2:00","SNACK_TIME":null,"DINNER_SUP":null,"MEAL_TYPES":"L ","X":399183.44,"Y":134636.86,"WARD":"Ward 6","ADDRID":276842,"CONTACT_FI_NAME":"Brett","CONTACT_LAS_NAME":"Ford","STATUS":"Open","ADDRESS2":null,"BREAKFEAST_TIME":null,"CONTACT_PHONE":"719-248-6436","ZIPCODE":"20024","STATE_REFERENCE":null},"geometry":{"type":"Point","coordinates":[-77.00941305047004,38.87957243354509]}},{"type":"Feature","properties":{"OBJECTID":124,"NAME":"Sasha Bruce Youthwork--Richardson Youth Center","ADDRESS":"260 54TH STREET NE","PHONE":"202-487-5295","SPONSORING":"DC Department of Parks and Recreation","DATE_OPEN":"2016-06-27T00:00:00.000Z","DATE_CLOSE":"2016-07-15T00:00:00.000Z","DAYS_OPEN":"M,T,W,TH, F","HOURS_OPEN":"12:00 - 2:00","LUNCH_TIME":"12:00 - 2:00","SNACK_TIME":null,"DINNER_SUP":null,"MEAL_TYPES":"L ","X":406622.17,"Y":136122.41,"WARD":"Ward 7","ADDRID":150458,"CONTACT_FI_NAME":"Dan ","CONTACT_LAS_NAME":"Davis","STATUS":"Open","ADDRESS2":null,"BREAKFEAST_TIME":null,"CONTACT_PHONE":"202-487-5295","ZIPCODE":"20019","STATE_REFERENCE":null},"geometry":{"type":"Point","coordinates":[-76.92366817119951,38.89293027672868]}},{"type":"Feature","properties":{"OBJECTID":125,"NAME":"Shepard Park/ Juanita Thorton Library ","ADDRESS":"7420 GEORGIA AVENUE NW","PHONE":null,"SPONSORING":"DC Department of Parks and Recreation","DATE_OPEN":"2016-06-27T00:00:00.000Z","DATE_CLOSE":"2016-07-29T00:00:00.000Z","DAYS_OPEN":"M,T,W,TH, F","HOURS_OPEN":"1:00 - 2:30","LUNCH_TIME":"1:00 - 2:30","SNACK_TIME":null,"DINNER_SUP":null,"MEAL_TYPES":"L ","X":397657.48,"Y":145817.5,"WARD":"Ward 4","ADDRID":253522,"CONTACT_FI_NAME":"Katie","CONTACT_LAS_NAME":"Nye","STATUS":"Open","ADDRESS2":null,"BREAKFEAST_TIME":null,"CONTACT_PHONE":null,"ZIPCODE":"20012","STATE_REFERENCE":null},"geometry":{"type":"Point","coordinates":[-77.02703774568067,38.98028835406811]}},{"type":"Feature","properties":{"OBJECTID":126,"NAME":"Sherwood Rec. Center","ADDRESS":"640 10TH STREET NE","PHONE":"202-698-3075","SPONSORING":"DC Department of Parks and Recreation","DATE_OPEN":"2016-06-27T00:00:00.000Z","DATE_CLOSE":"2016-08-12T00:00:00.000Z","DAYS_OPEN":"M,T,W,TH, F","HOURS_OPEN":"9:00 - 2:00","LUNCH_TIME":"12:00 - 2:00","SNACK_TIME":null,"DINNER_SUP":null,"MEAL_TYPES":"B , L","X":400605.76,"Y":136743.84,"WARD":"Ward 6","ADDRID":301075,"CONTACT_FI_NAME":"Raphael","CONTACT_LAS_NAME":"Marshall","STATUS":"Open","ADDRESS2":null,"BREAKFEAST_TIME":"9:00 - 10:00","CONTACT_PHONE":"202-698-3075","ZIPCODE":"20002","STATE_REFERENCE":null},"geometry":{"type":"Point","coordinates":[-76.99301910558036,38.89855307631047]}},{"type":"Feature","properties":{"OBJECTID":127,"NAME":"Southeast Tennis and Learning Center","ADDRESS":"701 MISSISSIPPI AVENUE SE","PHONE":"202-645-6221/202-645-6242","SPONSORING":"DC Department of Parks and Recreation","DATE_OPEN":"2016-06-27T00:00:00.000Z","DATE_CLOSE":"2016-08-05T00:00:00.000Z","DAYS_OPEN":"M,T,W,TH, F,SA","HOURS_OPEN":"9:00 -2:00","LUNCH_TIME":"12:00 - 2:00","SNACK_TIME":null,"DINNER_SUP":null,"MEAL_TYPES":"B , L","X":400473.4,"Y":130079.58,"WARD":"Ward 8","ADDRID":295830,"CONTACT_FI_NAME":"Damlisa ","CONTACT_LAS_NAME":"Robinson","STATUS":"Open","ADDRESS2":null,"BREAKFEAST_TIME":"9:00 - 10:00","CONTACT_PHONE":"202-645-6221/202-645-6242","ZIPCODE":"20032","STATE_REFERENCE":null},"geometry":{"type":"Point","coordinates":[-76.99454953173286,38.83851877593187]}},{"type":"Feature","properties":{"OBJECTID":128,"NAME":"Southwest Public Library","ADDRESS":"900 WESLEY PLACE SW","PHONE":"202-724-4752","SPONSORING":"DC Department of Parks and Recreation","DATE_OPEN":"2016-06-27T00:00:00.000Z","DATE_CLOSE":"2016-07-22T00:00:00.000Z","DAYS_OPEN":"M,T,W,TH, F","HOURS_OPEN":"1:00 -2:30","LUNCH_TIME":"1:00 - 2:30","SNACK_TIME":null,"DINNER_SUP":null,"MEAL_TYPES":"L ","X":398626.28,"Y":134540.69,"WARD":"Ward 6","ADDRID":295165,"CONTACT_FI_NAME":"Karen ","CONTACT_LAS_NAME":"Quash","STATUS":"Open","ADDRESS2":null,"BREAKFEAST_TIME":null,"CONTACT_PHONE":"202-724-4752","ZIPCODE":"20024","STATE_REFERENCE":null},"geometry":{"type":"Point","coordinates":[-77.01583406853985,38.878705402197]}},{"type":"Feature","properties":{"OBJECTID":129,"NAME":"St. Mary's Baptist Church ","ADDRESS":"8008 EASTERN AVENUE NW","PHONE":null,"SPONSORING":"DC Department of Parks and Recreation","DATE_OPEN":"2016-06-27T00:00:00.000Z","DATE_CLOSE":"2016-07-19T00:00:00.000Z","DAYS_OPEN":"M,T,W,TH, F","HOURS_OPEN":"8:30 -1:30","LUNCH_TIME":"11:30 - 1:30","SNACK_TIME":null,"DINNER_SUP":null,"MEAL_TYPES":"B , L","X":397369.91,"Y":146564.37,"WARD":"Ward 4","ADDRID":256945,"CONTACT_FI_NAME":"Norma ","CONTACT_LAS_NAME":"Bryant","STATUS":"Open","ADDRESS2":null,"BREAKFEAST_TIME":"8:00 - 9:00","CONTACT_PHONE":null,"ZIPCODE":"20012","STATE_REFERENCE":null},"geometry":{"type":"Point","coordinates":[-77.030359510929,38.987015505366145]}},{"type":"Feature","properties":{"OBJECTID":130,"NAME":"Stead Rec. Center","ADDRESS":"1625 P STREET NW","PHONE":"202-673-4465","SPONSORING":"DC Department of Parks and Recreation","DATE_OPEN":"2016-06-27T00:00:00.000Z","DATE_CLOSE":"2016-08-05T00:00:00.000Z","DAYS_OPEN":"M,T,W,TH, F","HOURS_OPEN":"9:00 -2:00","LUNCH_TIME":"12:00 - 2:00","SNACK_TIME":null,"DINNER_SUP":null,"MEAL_TYPES":"B , L","X":396737.09,"Y":138018.79,"WARD":"Ward 2","ADDRID":295822,"CONTACT_FI_NAME":"Vincent","CONTACT_LAS_NAME":" Hill","STATUS":"Open","ADDRESS2":null,"BREAKFEAST_TIME":"9:00 - 10:00","CONTACT_PHONE":"202-673-4465","ZIPCODE":"20036","STATE_REFERENCE":null},"geometry":{"type":"Point","coordinates":[-77.03762303945996,38.910032426794764]}},{"type":"Feature","properties":{"OBJECTID":131,"NAME":"Stoddert Terrace/Ft. Dupont (HA)","ADDRESS":"155 RIDGE ROAD SE","PHONE":"202-575-3601","SPONSORING":"DC Department of Parks and Recreation","DATE_OPEN":"2016-06-27T00:00:00.000Z","DATE_CLOSE":"2016-07-28T00:00:00.000Z","DAYS_OPEN":"M,T,W,TH, F","HOURS_OPEN":"9:00- 2:00","LUNCH_TIME":"12:00 - 2:00","SNACK_TIME":null,"DINNER_SUP":null,"MEAL_TYPES":"B , L","X":404363.17,"Y":135355.38,"WARD":"Ward 7","ADDRID":286318,"CONTACT_FI_NAME":"Kenneth/ Frieda","CONTACT_LAS_NAME":"Council/Edwards","STATUS":"Open","ADDRESS2":null,"BREAKFEAST_TIME":"9:00 - 10:00","CONTACT_PHONE":"202-575-3601","ZIPCODE":"20019","STATE_REFERENCE":null},"geometry":{"type":"Point","coordinates":[-76.94971265009634,38.8860346952625]}},{"type":"Feature","properties":{"OBJECTID":132,"NAME":"Sursum Corda (HA)","ADDRESS":"49 K STREET NW","PHONE":"202-270-2740","SPONSORING":"DC Department of Parks and Recreation","DATE_OPEN":"2016-06-27T00:00:00.000Z","DATE_CLOSE":"2016-08-05T00:00:00.000Z","DAYS_OPEN":"M,T,W,TH, F","HOURS_OPEN":"9:30 - 1:30","LUNCH_TIME":"12:30 - 1:30","SNACK_TIME":null,"DINNER_SUP":null,"MEAL_TYPES":"B , L","X":399070.48,"Y":137286.51,"WARD":"Ward 6","ADDRID":290937,"CONTACT_FI_NAME":"Davida ","CONTACT_LAS_NAME":"Dolberry","STATUS":"Open","ADDRESS2":null,"BREAKFEAST_TIME":"9:30 - 10:30","CONTACT_PHONE":"202-270-2740","ZIPCODE":"20001","STATE_REFERENCE":null},"geometry":{"type":"Point","coordinates":[-77.01071848872192,38.90344135889804]}},{"type":"Feature","properties":{"OBJECTID":133,"NAME":"Syphax Garden Resident Council (HA)","ADDRESS":"1501 HALF STREET SW","PHONE":"301-237-5752","SPONSORING":"DC Department of Parks and Recreation","DATE_OPEN":"2016-06-27T00:00:00.000Z","DATE_CLOSE":"2016-07-29T00:00:00.000Z","DAYS_OPEN":"M,T,W,TH, F","HOURS_OPEN":"11:30 - 1:30","LUNCH_TIME":"11:30 - 1:30","SNACK_TIME":null,"DINNER_SUP":null,"MEAL_TYPES":"L ","X":399059.34,"Y":133773.07,"WARD":"Ward 6","ADDRID":276554,"CONTACT_FI_NAME":"Tasheika ","CONTACT_LAS_NAME":"Wester","STATUS":"Open","ADDRESS2":null,"BREAKFEAST_TIME":null,"CONTACT_PHONE":"301-237-5752","ZIPCODE":"20024","STATE_REFERENCE":null},"geometry":{"type":"Point","coordinates":[-77.01084210734817,38.87179094482099]}},{"type":"Feature","properties":{"OBJECTID":134,"NAME":"Takoma Community Center","ADDRESS":"300 VAN BUREN STREET NW","PHONE":"202-576-7068","SPONSORING":"DC Department of Parks and Recreation","DATE_OPEN":"2016-06-27T00:00:00.000Z","DATE_CLOSE":"2016-07-29T00:00:00.000Z","DAYS_OPEN":"M,T,W,TH, F","HOURS_OPEN":"9:00 - 2:00","LUNCH_TIME":"12:00 - 2:00","SNACK_TIME":null,"DINNER_SUP":null,"MEAL_TYPES":"B , L","X":398435.64,"Y":144552.48,"WARD":"Ward 4","ADDRID":296168,"CONTACT_FI_NAME":"Barbara ","CONTACT_LAS_NAME":"Jones","STATUS":"Open","ADDRESS2":null,"BREAKFEAST_TIME":"9:00 - 10:00","CONTACT_PHONE":"202-576-7068","ZIPCODE":"20012","STATE_REFERENCE":null},"geometry":{"type":"Point","coordinates":[-77.0180539695569,38.96889449179711]}},{"type":"Feature","properties":{"OBJECTID":135,"NAME":"The Children's Center","ADDRESS":"2512 SHERIDAN ROAD SE","PHONE":"202-610-5443/ 202-905-5763","SPONSORING":"DC Department of Parks and Recreation","DATE_OPEN":"2016-06-27T00:00:00.000Z","DATE_CLOSE":"2016-08-19T00:00:00.000Z","DAYS_OPEN":"M,T,W,TH, F","HOURS_OPEN":"9:00 - 2:00","LUNCH_TIME":"12:00 - 2:00","SNACK_TIME":null,"DINNER_SUP":null,"MEAL_TYPES":"B , L","X":400571.21,"Y":132563.98,"WARD":"Ward 8","ADDRID":287088,"CONTACT_FI_NAME":"Myrtle ","CONTACT_LAS_NAME":"Loughry","STATUS":"Open","ADDRESS2":null,"BREAKFEAST_TIME":"9:00 - 10:00","CONTACT_PHONE":"202-610-5443/ 202-905-5763","ZIPCODE":"20020","STATE_REFERENCE":null},"geometry":{"type":"Point","coordinates":[-76.99342086824811,38.86089928098058]}},{"type":"Feature","properties":{"OBJECTID":136,"NAME":"The Davis Center","ADDRESS":"6218 3RD STREET NW","PHONE":"202-277-6110","SPONSORING":"DC Department of Parks and Recreation","DATE_OPEN":"2016-06-27T00:00:00.000Z","DATE_CLOSE":"2016-08-12T00:00:00.000Z","DAYS_OPEN":"M,T,W,TH, F","HOURS_OPEN":"8:00 - 1:00","LUNCH_TIME":"12:00 - 1:00","SNACK_TIME":null,"DINNER_SUP":null,"MEAL_TYPES":"B , L","X":398577.63,"Y":144186.19,"WARD":"Ward 4","ADDRID":285325,"CONTACT_FI_NAME":"Beatrice","CONTACT_LAS_NAME":"Davis Willims","STATUS":"Open","ADDRESS2":null,"BREAKFEAST_TIME":"8:00 - 9:00","CONTACT_PHONE":"202-277-6110","ZIPCODE":"20011","STATE_REFERENCE":null},"geometry":{"type":"Point","coordinates":[-77.01641473860369,38.96559510308605]}},{"type":"Feature","properties":{"OBJECTID":137,"NAME":"The Greater First Baptist Church","ADDRESS":"2701 13TH STREET NW","PHONE":"202-291-0758/202-641-5612","SPONSORING":"DC Department of Parks and Recreation","DATE_OPEN":"2016-06-27T00:00:00.000Z","DATE_CLOSE":"2016-08-05T00:00:00.000Z","DAYS_OPEN":"M,T,W,TH, F","HOURS_OPEN":"9:00 - 2:00","LUNCH_TIME":"12:00 - 2:00","SNACK_TIME":null,"DINNER_SUP":null,"MEAL_TYPES":"B , L","X":397462.11,"Y":139682.51,"WARD":"Ward 1","ADDRID":231841,"CONTACT_FI_NAME":"Patricia ","CONTACT_LAS_NAME":"Fitcheard","STATUS":"Open","ADDRESS2":null,"BREAKFEAST_TIME":"9:00 - 10:00","CONTACT_PHONE":"202-291-0758/202-641-5612","ZIPCODE":"20009","STATE_REFERENCE":null},"geometry":{"type":"Point","coordinates":[-77.02926984305138,38.92502216026552]}},{"type":"Feature","properties":{"OBJECTID":138,"NAME":"The Holy Temple Church of Christ","ADDRESS":"439 12TH STREET SE","PHONE":"202-547-8364","SPONSORING":"DC Department of Parks and Recreation","DATE_OPEN":"2016-06-27T00:00:00.000Z","DATE_CLOSE":"2016-08-05T00:00:00.000Z","DAYS_OPEN":"M,T,W,TH, F","HOURS_OPEN":"7:30 - 1:00","LUNCH_TIME":"12:00 - 1:00","SNACK_TIME":null,"DINNER_SUP":null,"MEAL_TYPES":"B , L","X":400825.34,"Y":135042.51,"WARD":"Ward 6","ADDRID":152297,"CONTACT_FI_NAME":"David ","CONTACT_LAS_NAME":"Myrick","STATUS":"Open","ADDRESS2":null,"BREAKFEAST_TIME":"7:30 - 8:30","CONTACT_PHONE":"202-547-8364","ZIPCODE":"20003","STATE_REFERENCE":null},"geometry":{"type":"Point","coordinates":[-76.9904898386072,38.88322667936578]}},{"type":"Feature","properties":{"OBJECTID":139,"NAME":"The Preparatory School","ADDRESS":"4501 16TH STREET NW","PHONE":"202-722-5080","SPONSORING":"DC Department of Parks and Recreation","DATE_OPEN":"2016-06-27T00:00:00.000Z","DATE_CLOSE":"2016-08-12T00:00:00.000Z","DAYS_OPEN":"M,T,W,TH, F","HOURS_OPEN":"7:30 -1: 30","LUNCH_TIME":"11:30 - 1:30","SNACK_TIME":null,"DINNER_SUP":null,"MEAL_TYPES":"B , L","X":396900.21,"Y":141952.32,"WARD":"Ward 4","ADDRID":255485,"CONTACT_FI_NAME":"Betty ","CONTACT_LAS_NAME":"North","STATUS":"Open","ADDRESS2":null,"BREAKFEAST_TIME":"7:30 - 9:00","CONTACT_PHONE":"202-722-5080","ZIPCODE":"20011","STATE_REFERENCE":null},"geometry":{"type":"Point","coordinates":[-77.03576006282275,38.94546748920123]}},{"type":"Feature","properties":{"OBJECTID":140,"NAME":"Therapeutic Rec. Center","ADDRESS":"3030 G STREET SE","PHONE":"202-698-1797","SPONSORING":"DC Department of Parks and Recreation","DATE_OPEN":"2016-06-27T00:00:00.000Z","DATE_CLOSE":"2016-08-04T00:00:00.000Z","DAYS_OPEN":"M,T,W,TH, F","HOURS_OPEN":"9:00 -2:00","LUNCH_TIME":"12:00 - 2:00","SNACK_TIME":null,"DINNER_SUP":null,"MEAL_TYPES":"B , L","X":403192.75,"Y":134782.54,"WARD":"Ward 7","ADDRID":288770,"CONTACT_FI_NAME":"Priscilla ","CONTACT_LAS_NAME":"Jones","STATUS":"Open","ADDRESS2":null,"BREAKFEAST_TIME":"9:00 - 10:00","CONTACT_PHONE":"202-698-1797","ZIPCODE":"20019","STATE_REFERENCE":null},"geometry":{"type":"Point","coordinates":[-76.96320549929074,38.88087936028152]}},{"type":"Feature","properties":{"OBJECTID":141,"NAME":"Total Family Care Coalition (HA)","ADDRESS":"1214 I STREET SE","PHONE":"202-758-3281/ 202-747-8878","SPONSORING":"DC Department of Parks and Recreation","DATE_OPEN":"2016-06-27T00:00:00.000Z","DATE_CLOSE":"2016-08-05T00:00:00.000Z","DAYS_OPEN":"M,T,W,TH, F","HOURS_OPEN":"8:15 -12:30","LUNCH_TIME":"11:45 - 12:45","SNACK_TIME":null,"DINNER_SUP":null,"MEAL_TYPES":"B , L","X":400933.71,"Y":134676.91,"WARD":"Ward 6","ADDRID":290338,"CONTACT_FI_NAME":"Gail ","CONTACT_LAS_NAME":"Avent","STATUS":"Open","ADDRESS2":null,"BREAKFEAST_TIME":"8:15 - 9:00","CONTACT_PHONE":"202-758-3281/ 202-747-8878","ZIPCODE":"20003","STATE_REFERENCE":null},"geometry":{"type":"Point","coordinates":[-76.9892413182997,38.87993310381277]}},{"type":"Feature","properties":{"OBJECTID":142,"NAME":"Townhomes on Capital Hill","ADDRESS":"750 6TH STREET SE","PHONE":"202-544-4487","SPONSORING":"DC Department of Parks and Recreation","DATE_OPEN":"2016-06-27T00:00:00.000Z","DATE_CLOSE":"2016-07-29T00:00:00.000Z","DAYS_OPEN":"M,T,W,TH, F","HOURS_OPEN":"9:00 - 2:00","LUNCH_TIME":"12:30 - 2:00 ","SNACK_TIME":null,"DINNER_SUP":null,"MEAL_TYPES":"B , L","X":400151.1,"Y":134686.92,"WARD":"Ward 6","ADDRID":297663,"CONTACT_FI_NAME":"Juanita ","CONTACT_LAS_NAME":"Smith","STATUS":"Open","ADDRESS2":null,"BREAKFEAST_TIME":"9:00  - 10:00","CONTACT_PHONE":"202-544-4487","ZIPCODE":"20003","STATE_REFERENCE":null},"geometry":{"type":"Point","coordinates":[-76.9982608596882,38.880023760250296]}},{"type":"Feature","properties":{"OBJECTID":143,"NAME":"Trinidad Rec. Center","ADDRESS":"1310 CHILDRESS STREET NE","PHONE":"202-727-1294","SPONSORING":"DC Department of Parks and Recreation","DATE_OPEN":"2016-06-27T00:00:00.000Z","DATE_CLOSE":"2016-07-22T00:00:00.000Z","DAYS_OPEN":"M,T,W,TH, F","HOURS_OPEN":"9:00 -2:00","LUNCH_TIME":"12:00 - 2:00","SNACK_TIME":null,"DINNER_SUP":null,"MEAL_TYPES":"B , L","X":401496.88,"Y":137620.38,"WARD":"Ward 5","ADDRID":68509,"CONTACT_FI_NAME":"Kiara ","CONTACT_LAS_NAME":"Stevenson","STATUS":"Open","ADDRESS2":null,"BREAKFEAST_TIME":"9:00 - 10:00","CONTACT_PHONE":"202-727-1294","ZIPCODE":"20002","STATE_REFERENCE":null},"geometry":{"type":"Point","coordinates":[-76.98274439903977,38.90644819538894]}},{"type":"Feature","properties":{"OBJECTID":144,"NAME":"Trinity Episcopal Church","ADDRESS":"7005 PINEY BRANCH ROAD NW","PHONE":"301-928-0376","SPONSORING":"DC Department of Parks and Recreation","DATE_OPEN":"2016-06-27T00:00:00.000Z","DATE_CLOSE":"2016-08-05T00:00:00.000Z","DAYS_OPEN":"M,T,W,TH, F","HOURS_OPEN":"8:00 -1:00","LUNCH_TIME":"12:00 - 1:00","SNACK_TIME":null,"DINNER_SUP":null,"MEAL_TYPES":"B , L","X":398201.48,"Y":145287.97,"WARD":"Ward 4","ADDRID":251254,"CONTACT_FI_NAME":"Lillian ","CONTACT_LAS_NAME":"Wilkerson","STATUS":"Open","ADDRESS2":null,"BREAKFEAST_TIME":"8:00 - 9:00","CONTACT_PHONE":"301-928-0376","ZIPCODE":"20012","STATE_REFERENCE":null},"geometry":{"type":"Point","coordinates":[-77.02075795136145,38.97551951115139]}},{"type":"Feature","properties":{"OBJECTID":145,"NAME":"Turkey Thicket","ADDRESS":"1100 MICHIGAN AVENUE NE","PHONE":"202-576-9238","SPONSORING":"DC Department of Parks and Recreation","DATE_OPEN":"2016-06-27T00:00:00.000Z","DATE_CLOSE":"2016-08-05T00:00:00.000Z","DAYS_OPEN":"M,T,W,TH, F,SA","HOURS_OPEN":"9:00 - 2:00","LUNCH_TIME":"12:00 - 2:00","SNACK_TIME":null,"DINNER_SUP":null,"MEAL_TYPES":"B , L","X":400641.56,"Y":141130.75,"WARD":"Ward 5","ADDRID":74603,"CONTACT_FI_NAME":"Lorenzo ","CONTACT_LAS_NAME":"Carter","STATUS":"Open","ADDRESS2":null,"BREAKFEAST_TIME":"8:00 - 10:00","CONTACT_PHONE":"202-576-9238","ZIPCODE":"20017","STATE_REFERENCE":null},"geometry":{"type":"Point","coordinates":[-76.99260230753028,38.93807178423246]}},{"type":"Feature","properties":{"OBJECTID":146,"NAME":"Upshur Rec. Center","ADDRESS":"4300 ARKANSAS AVENUE NW","PHONE":"202-576-6842","SPONSORING":"DC Department of Parks and Recreation","DATE_OPEN":"2016-06-27T00:00:00.000Z","DATE_CLOSE":"2016-08-05T00:00:00.000Z","DAYS_OPEN":"M,T,W,TH, F","HOURS_OPEN":"9:00 - 2:00","LUNCH_TIME":"12:00 - 2:00","SNACK_TIME":null,"DINNER_SUP":null,"MEAL_TYPES":"B , L","X":397198.6,"Y":141713.95,"WARD":"Ward 4","ADDRID":295147,"CONTACT_FI_NAME":"Deyanne ","CONTACT_LAS_NAME":"Nicholas","STATUS":"Open","ADDRESS2":null,"BREAKFEAST_TIME":"9:00 - 10:00","CONTACT_PHONE":"202-576-6842","ZIPCODE":"20011","STATE_REFERENCE":null},"geometry":{"type":"Point","coordinates":[-77.03231699744904,38.94332118654869]}},{"type":"Feature","properties":{"OBJECTID":147,"NAME":"Urban Ed, Inc.","ADDRESS":"2041 MARTIN LUTHER KING JR AVENUE SE","PHONE":"202-610-2344","SPONSORING":"DC Department of Parks and Recreation","DATE_OPEN":"2016-06-27T00:00:00.000Z","DATE_CLOSE":"2016-08-05T00:00:00.000Z","DAYS_OPEN":"M,T,W,TH, F","HOURS_OPEN":"8:00 -1:30","LUNCH_TIME":"12:00 - 1:30","SNACK_TIME":null,"DINNER_SUP":null,"MEAL_TYPES":"B , L","X":400882.92,"Y":133122.47,"WARD":"Ward 8","ADDRID":278056,"CONTACT_FI_NAME":"Violet ","CONTACT_LAS_NAME":"Browne","STATUS":"Open","ADDRESS2":null,"BREAKFEAST_TIME":"8:00 - 9:00","CONTACT_PHONE":"202-610-2344","ZIPCODE":"20020","STATE_REFERENCE":null},"geometry":{"type":"Point","coordinates":[-76.98982866632619,38.86593013448234]}},{"type":"Feature","properties":{"OBJECTID":148,"NAME":"Vee's Early Education Center","ADDRESS":"2130 MINNESOTA AVENUE SE","PHONE":"202-889-6918","SPONSORING":"DC Department of Parks and Recreation","DATE_OPEN":"2016-06-27T00:00:00.000Z","DATE_CLOSE":"2016-07-29T00:00:00.000Z","DAYS_OPEN":"M,T,W,TH, F","HOURS_OPEN":"7:30 -1: 30","LUNCH_TIME":"11:30 - 1:30","SNACK_TIME":null,"DINNER_SUP":null,"MEAL_TYPES":"B , L","X":402136.16,"Y":133731.5,"WARD":"Ward 8","ADDRID":51303,"CONTACT_FI_NAME":"Cherrrealle ","CONTACT_LAS_NAME":"Moore","STATUS":"Open","ADDRESS2":null,"BREAKFEAST_TIME":"7:30 - 8:30","CONTACT_PHONE":"202-889-6918","ZIPCODE":"20020","STATE_REFERENCE":null},"geometry":{"type":"Point","coordinates":[-76.97538607642215,38.871414375329984]}},{"type":"Feature","properties":{"OBJECTID":149,"NAME":"Washington School for Girls - The View","ADDRESS":"1604 MORRIS ROAD SE","PHONE":"202-678-1714","SPONSORING":"DC Department of Parks and Recreation","DATE_OPEN":"2016-06-27T00:00:00.000Z","DATE_CLOSE":"2016-08-05T00:00:00.000Z","DAYS_OPEN":"M,T,W,TH, F","HOURS_OPEN":"7:30 -1: 30","LUNCH_TIME":"11:30 - 1:30","SNACK_TIME":null,"DINNER_SUP":null,"MEAL_TYPES":"B , L","X":401552.27,"Y":132255.86,"WARD":"Ward 8","ADDRID":295126,"CONTACT_FI_NAME":"Brianna ","CONTACT_LAS_NAME":"Wetzel","STATUS":"Open","ADDRESS2":null,"BREAKFEAST_TIME":"7:30 - 8:30","CONTACT_PHONE":"202-678-1714","ZIPCODE":"20020","STATE_REFERENCE":null},"geometry":{"type":"Point","coordinates":[-76.98211790847971,38.85812242172445]}},{"type":"Feature","properties":{"OBJECTID":150,"NAME":"Washington Tennis and Education Foundation","ADDRESS":"200 STODDERT PLACE SE","PHONE":"202-660-0132","SPONSORING":"DC Department of Parks and Recreation","DATE_OPEN":"2016-06-27T00:00:00.000Z","DATE_CLOSE":"2016-08-05T00:00:00.000Z","DAYS_OPEN":"M,T,W,TH, F","HOURS_OPEN":"8:00 -1:00","LUNCH_TIME":"12:00 - 1:00","SNACK_TIME":null,"DINNER_SUP":null,"MEAL_TYPES":"B , L","X":404584.03,"Y":135632.08,"WARD":"Ward 7","ADDRID":309622,"CONTACT_FI_NAME":"Mike ","CONTACT_LAS_NAME":"Ragland","STATUS":"Open","ADDRESS2":null,"BREAKFEAST_TIME":"8:00 - 9:00","CONTACT_PHONE":"202-660-0132","ZIPCODE":"20019","STATE_REFERENCE":null},"geometry":{"type":"Point","coordinates":[-76.94716518594821,38.88852619007039]}},{"type":"Feature","properties":{"OBJECTID":151,"NAME":"Watha T. Daniel/Shaw Neighborhood Library","ADDRESS":"1630 7TH STREET NW","PHONE":"202-727-0971","SPONSORING":"DC Department of Parks and Recreation","DATE_OPEN":"2016-06-27T00:00:00.000Z","DATE_CLOSE":"2016-07-29T00:00:00.000Z","DAYS_OPEN":"M,T,W,TH, F","HOURS_OPEN":"1:00 - 2:30","LUNCH_TIME":"1:00 - 2;30 ","SNACK_TIME":null,"DINNER_SUP":null,"MEAL_TYPES":"L ","X":398073.03,"Y":138286.68,"WARD":"Ward 6","ADDRID":308201,"CONTACT_FI_NAME":"Anina ","CONTACT_LAS_NAME":"Ertel","STATUS":"Open","ADDRESS2":null,"BREAKFEAST_TIME":null,"CONTACT_PHONE":"202-727-0971","ZIPCODE":"20001","STATE_REFERENCE":null},"geometry":{"type":"Point","coordinates":[-77.02222064840612,38.91244961628974]}},{"type":"Feature","properties":{"OBJECTID":152,"NAME":"William C. Smith/ Training Ground--Manor Village","ADDRESS":"3310 18TH STREET SE","PHONE":"202-678-8201","SPONSORING":"DC Department of Parks and Recreation","DATE_OPEN":"2016-06-27T00:00:00.000Z","DATE_CLOSE":"2016-08-05T00:00:00.000Z","DAYS_OPEN":"M,T,W,TH, F","HOURS_OPEN":"8:30 -12:30","LUNCH_TIME":"12:30 - 1:30","SNACK_TIME":null,"DINNER_SUP":null,"MEAL_TYPES":"B , L","X":401860.34,"Y":131017.87,"WARD":"Ward 8","ADDRID":36756,"CONTACT_FI_NAME":"Lori ","CONTACT_LAS_NAME":"Jones ","STATUS":"Open","ADDRESS2":null,"BREAKFEAST_TIME":"8:30 - 9:30","CONTACT_PHONE":"202-678-8201","ZIPCODE":"20020","STATE_REFERENCE":null},"geometry":{"type":"Point","coordinates":[-76.97857184892001,38.846969473615154]}},{"type":"Feature","properties":{"OBJECTID":153,"NAME":"William C. Smith/ Training Ground--Orchard Park Center ","ADDRESS":"3630 22ND STREET SE","PHONE":"202-678-8201","SPONSORING":"DC Department of Parks and Recreation","DATE_OPEN":"2016-06-27T00:00:00.000Z","DATE_CLOSE":"2016-08-05T00:00:00.000Z","DAYS_OPEN":"M,T,W,TH, F","HOURS_OPEN":"9:00 - 2:00","LUNCH_TIME":"12:30 - 1:30","SNACK_TIME":null,"DINNER_SUP":null,"MEAL_TYPES":"B , L","X":402420.79,"Y":130797.74,"WARD":"Ward 8","ADDRID":289181,"CONTACT_FI_NAME":"Lori ","CONTACT_LAS_NAME":"Jones","STATUS":"Open","ADDRESS2":null,"BREAKFEAST_TIME":"9:00  - 10:00","CONTACT_PHONE":"202-678-8201","ZIPCODE":"20020","STATE_REFERENCE":null},"geometry":{"type":"Point","coordinates":[-76.97211644625744,38.84498508153283]}},{"type":"Feature","properties":{"OBJECTID":154,"NAME":"William O. Lockridge/Bellevue Library","ADDRESS":"115 ATLANTIC STREET SW","PHONE":"202-520-7446","SPONSORING":"DC Department of Parks and Recreation","DATE_OPEN":"2016-06-27T00:00:00.000Z","DATE_CLOSE":"2016-08-05T00:00:00.000Z","DAYS_OPEN":"M,T,W,TH, F,SA","HOURS_OPEN":"1:00 -2:30","LUNCH_TIME":"1:00 - 2:30 ","SNACK_TIME":null,"DINNER_SUP":null,"MEAL_TYPES":"L ","X":399186.87,"Y":129281.97,"WARD":"Ward 8","ADDRID":302935,"CONTACT_FI_NAME":"Maria ","CONTACT_LAS_NAME":"Perry","STATUS":"Open","ADDRESS2":null,"BREAKFEAST_TIME":null,"CONTACT_PHONE":"202-520-7446","ZIPCODE":"20032","STATE_REFERENCE":null},"geometry":{"type":"Point","coordinates":[-77.0093671861083,38.83133328966637]}},{"type":"Feature","properties":{"OBJECTID":155,"NAME":"Wisconsin Avenue Baptist Church ","ADDRESS":"3920 ALTON PLACE NW","PHONE":"202-237-1791","SPONSORING":"DC Department of Parks and Recreation","DATE_OPEN":"2016-06-27T00:00:00.000Z","DATE_CLOSE":"2016-07-15T00:00:00.000Z","DAYS_OPEN":"M,T,W,TH, F","HOURS_OPEN":"12:30 - 1:30","LUNCH_TIME":"12:30 - 1:30","SNACK_TIME":null,"DINNER_SUP":null,"MEAL_TYPES":"L ","X":393270.43,"Y":142108.9,"WARD":"Ward 3","ADDRID":222948,"CONTACT_FI_NAME":"Lopa ","CONTACT_LAS_NAME":"Shah","STATUS":"Open","ADDRESS2":null,"BREAKFEAST_TIME":null,"CONTACT_PHONE":"202-237-1791","ZIPCODE":"20016","STATE_REFERENCE":null},"geometry":{"type":"Point","coordinates":[-77.07763308578808,38.94685769735277]}},{"type":"Feature","properties":{"OBJECTID":156,"NAME":"Woodland Terrace (HA)","ADDRESS":"2310 AINGER PLACE SE","PHONE":"202-423-7375","SPONSORING":"DC Department of Parks and Recreation","DATE_OPEN":"2016-06-27T00:00:00.000Z","DATE_CLOSE":"2016-08-05T00:00:00.000Z","DAYS_OPEN":"M,T,W,TH, F","HOURS_OPEN":"8:00 -2:00","LUNCH_TIME":"11:30 - 1:00","SNACK_TIME":null,"DINNER_SUP":null,"MEAL_TYPES":"B , L","X":402359.03,"Y":132221.86,"WARD":"Ward 8","ADDRID":290622,"CONTACT_FI_NAME":"Davon","CONTACT_LAS_NAME":"Johnson","STATUS":"Open","ADDRESS2":null,"BREAKFEAST_TIME":"8:00am - 10:00","CONTACT_PHONE":"202-423-7375","ZIPCODE":"20020","STATE_REFERENCE":null},"geometry":{"type":"Point","coordinates":[-76.97282299545233,38.857814341807945]}},{"type":"Feature","properties":{"OBJECTID":157,"NAME":"YMCA @ Avalon Vesta","ADDRESS":"818 SOUTHERN AVENUE SE","PHONE":"202-889-0643","SPONSORING":"DC Department of Parks and Recreation","DATE_OPEN":"2016-06-27T00:00:00.000Z","DATE_CLOSE":"2016-08-12T00:00:00.000Z","DAYS_OPEN":"M,T,W,TH, F","HOURS_OPEN":"9:00 - 2:00","LUNCH_TIME":"12:00 - 2:00","SNACK_TIME":null,"DINNER_SUP":null,"MEAL_TYPES":"B , L","X":400540.35,"Y":128922.93,"WARD":"Ward 8","ADDRID":288990,"CONTACT_FI_NAME":"Derrick","CONTACT_LAS_NAME":"Glenn","STATUS":"Open","ADDRESS2":null,"BREAKFEAST_TIME":"9:00 - 10:00","CONTACT_PHONE":"202-889-0643","ZIPCODE":"20032","STATE_REFERENCE":null},"geometry":{"type":"Point","coordinates":[-76.99377929124083,38.828099100097425]}},{"type":"Feature","properties":{"OBJECTID":158,"NAME":"YMCA @ Highland Terrace","ADDRESS":"852 BARNABY STREET SE","PHONE":"202-889-0643","SPONSORING":"DC Department of Parks and Recreation","DATE_OPEN":"2016-06-27T00:00:00.000Z","DATE_CLOSE":"2016-08-12T00:00:00.000Z","DAYS_OPEN":"M,T,W,TH, F","HOURS_OPEN":"8:00 -1:30","LUNCH_TIME":"12:00 - 1:30","SNACK_TIME":null,"DINNER_SUP":null,"MEAL_TYPES":"B , L","X":400754.89,"Y":129390.56,"WARD":"Ward 8","ADDRID":295928,"CONTACT_FI_NAME":"Adrianne ","CONTACT_LAS_NAME":"Thompson","STATUS":"Open","ADDRESS2":null,"BREAKFEAST_TIME":"8:00 - 9:00","CONTACT_PHONE":"202-889-0643","ZIPCODE":"20032","STATE_REFERENCE":null},"geometry":{"type":"Point","coordinates":[-76.99130800996956,38.832311571324226]}},{"type":"Feature","properties":{"OBJECTID":159,"NAME":"YMCA @ Ingenuity Prep","ADDRESS":"4600 LIVINGSTON ROAD SE","PHONE":"202-889-0643","SPONSORING":"DC Department of Parks and Recreation","DATE_OPEN":"2016-06-27T00:00:00.000Z","DATE_CLOSE":"2016-08-05T00:00:00.000Z","DAYS_OPEN":"M,T,W,TH, F","HOURS_OPEN":"8:00 -1:30","LUNCH_TIME":"12:00 - 1:30","SNACK_TIME":null,"DINNER_SUP":null,"MEAL_TYPES":"B , L","X":399731.95,"Y":128458.05,"WARD":"Ward 8","ADDRID":294600,"CONTACT_FI_NAME":"Tiffany","CONTACT_LAS_NAME":"Bryant","STATUS":"Open","ADDRESS2":null,"BREAKFEAST_TIME":"8:00 - 9:00","CONTACT_PHONE":"202-889-0643","ZIPCODE":"20032","STATE_REFERENCE":null},"geometry":{"type":"Point","coordinates":[-77.00308911908458,38.823911366299264]}},{"type":"Feature","properties":{"OBJECTID":160,"NAME":"YMCA Calomiris 1","ADDRESS":"1906 ALLISON STREET NE","PHONE":"202-526-4233","SPONSORING":"DC Department of Parks and Recreation","DATE_OPEN":"2016-06-27T00:00:00.000Z","DATE_CLOSE":"2016-07-29T00:00:00.000Z","DAYS_OPEN":"M,T,W,TH, F","HOURS_OPEN":"7:00 - 1:00","LUNCH_TIME":"12:00 - 1:00","SNACK_TIME":null,"DINNER_SUP":null,"MEAL_TYPES":"B , L","X":401912,"Y":141946.47,"WARD":"Ward 5","ADDRID":302514,"CONTACT_FI_NAME":"Darrell ","CONTACT_LAS_NAME":"Wilkins","STATUS":"Open","ADDRESS2":null,"BREAKFEAST_TIME":"7:00 - 9:00","CONTACT_PHONE":"202-526-4233","ZIPCODE":"20018","STATE_REFERENCE":null},"geometry":{"type":"Point","coordinates":[-76.97794633403457,38.945418181079425]}},{"type":"Feature","properties":{"OBJECTID":161,"NAME":"YMCA Calomiris 2","ADDRESS":"1918 ALLISON STREET NE","PHONE":"202-526-4233","SPONSORING":"DC Department of Parks and Recreation","DATE_OPEN":"2016-06-27T00:00:00.000Z","DATE_CLOSE":"2016-08-05T00:00:00.000Z","DAYS_OPEN":"M,T,W,TH, F","HOURS_OPEN":"7:00 -1:00","LUNCH_TIME":"12:00 - 1:00","SNACK_TIME":null,"DINNER_SUP":null,"MEAL_TYPES":"B , L","X":401943.71,"Y":141949.27,"WARD":"Ward 5","ADDRID":310297,"CONTACT_FI_NAME":"Darrell ","CONTACT_LAS_NAME":"Wilkins","STATUS":"Open","ADDRESS2":null,"BREAKFEAST_TIME":"7:00 - 9:00","CONTACT_PHONE":"202-526-4233","ZIPCODE":"20018","STATE_REFERENCE":null},"geometry":{"type":"Point","coordinates":[-76.97758053414742,38.945443334699945]}},{"type":"Feature","properties":{"OBJECTID":162,"NAME":"Your Community Center","ADDRESS":"4913 14TH STREET NW","PHONE":"202-291-3034","SPONSORING":"DC Department of Parks and Recreation","DATE_OPEN":"2016-06-27T00:00:00.000Z","DATE_CLOSE":null,"DAYS_OPEN":"M,T,W,TH, F","HOURS_OPEN":"8:30 -12:30","LUNCH_TIME":"11:30 - 12:30","SNACK_TIME":null,"DINNER_SUP":null,"MEAL_TYPES":"B , L","X":397127.79,"Y":142526.39,"WARD":"Ward 4","ADDRID":255105,"CONTACT_FI_NAME":"Joyce","CONTACT_LAS_NAME":"Madyun","STATUS":"Open","ADDRESS2":null,"BREAKFEAST_TIME":"8:30 - 9:30","CONTACT_PHONE":"202-291-3034","ZIPCODE":"20011","STATE_REFERENCE":null},"geometry":{"type":"Point","coordinates":[-77.03313720701149,38.950639645570725]}},{"type":"Feature","properties":{"OBJECTID":163,"NAME":"Aiton","ADDRESS":"533 48TH PLACE NE","PHONE":"(202) 671-6060","SPONSORING":"DC Public Schools","DATE_OPEN":"2016-06-27T00:00:00.000Z","DATE_CLOSE":null,"DAYS_OPEN":"M,T,W,TH,F","HOURS_OPEN":"09:00 AM - 5:00 PM","LUNCH_TIME":"11:30AM - 1:00 PM","SNACK_TIME":null,"DINNER_SUP":null,"MEAL_TYPES":"B, L","X":405751.28,"Y":136574.53,"WARD":"Ward 7","ADDRID":294490,"CONTACT_FI_NAME":"Kristen ","CONTACT_LAS_NAME":"Rowe","STATUS":"Open","ADDRESS2":null,"BREAKFEAST_TIME":"8:00 AM - 9:30 AM","CONTACT_PHONE":"202-384-6738","ZIPCODE":"20019","STATE_REFERENCE":null},"geometry":{"type":"Point","coordinates":[-76.9337031788254,38.89700926754652]}},{"type":"Feature","properties":{"OBJECTID":164,"NAME":"Amidon-Bowen ES","ADDRESS":"401 I STREET SW","PHONE":"(202) 724-4867","SPONSORING":"DC Public Schools","DATE_OPEN":"2016-06-27T00:00:00.000Z","DATE_CLOSE":null,"DAYS_OPEN":"M,T,W,TH,F","HOURS_OPEN":"08:00 AM - 5:30 PM","LUNCH_TIME":"11:30AM - 1:00 PM","SNACK_TIME":null,"DINNER_SUP":null,"MEAL_TYPES":"B , L","X":398427.29,"Y":134631.47,"WARD":"Ward 6","ADDRID":294482,"CONTACT_FI_NAME":"Kristen ","CONTACT_LAS_NAME":"Rowe","STATUS":"Open","ADDRESS2":null,"BREAKFEAST_TIME":"8:00 AM - 9:30 AM","CONTACT_PHONE":"202-384-6738","ZIPCODE":"20024","STATE_REFERENCE":null},"geometry":{"type":"Point","coordinates":[-77.01812758723682,38.87952285065163]}},{"type":"Feature","properties":{"OBJECTID":165,"NAME":"Anacostia HS","ADDRESS":"1601 16TH STREET SE","PHONE":"(202) 698-2155","SPONSORING":"DC Public Schools","DATE_OPEN":"2016-06-27T00:00:00.000Z","DATE_CLOSE":null,"DAYS_OPEN":"M,T,W,TH,F","HOURS_OPEN":"08:00 AM - 1:00 PM","LUNCH_TIME":"11:30AM - 1:00 PM","SNACK_TIME":null,"DINNER_SUP":null,"MEAL_TYPES":"B , L","X":401468.56,"Y":133584.5,"WARD":"Ward 8","ADDRID":155922,"CONTACT_FI_NAME":"Kristen ","CONTACT_LAS_NAME":"Rowe","STATUS":"Open","ADDRESS2":null,"BREAKFEAST_TIME":"8:00 AM - 9:30 AM","CONTACT_PHONE":"202-384-6738","ZIPCODE":"20020","STATE_REFERENCE":null},"geometry":{"type":"Point","coordinates":[-76.98307953050461,38.87009150762566]}},{"type":"Feature","properties":{"OBJECTID":166,"NAME":"Ballou HS","ADDRESS":"3401 4TH STREET SE","PHONE":"(202) 645-3400","SPONSORING":"DC Public Schools","DATE_OPEN":"2016-06-27T00:00:00.000Z","DATE_CLOSE":null,"DAYS_OPEN":"M,T,W,TH,F","HOURS_OPEN":"08:00 AM - 03:00PM","LUNCH_TIME":"11:30AM - 1:00 PM","SNACK_TIME":null,"DINNER_SUP":null,"MEAL_TYPES":"B , L","X":399881.71,"Y":130079.64,"WARD":"Ward 8","ADDRID":294567,"CONTACT_FI_NAME":"Kristen ","CONTACT_LAS_NAME":"Rowe","STATUS":"Open","ADDRESS2":null,"BREAKFEAST_TIME":"8:00 AM - 9:30 AM","CONTACT_PHONE":"202-384-6738","ZIPCODE":"20032","STATE_REFERENCE":null},"geometry":{"type":"Point","coordinates":[-77.0013647757232,38.83851943559782]}},{"type":"Feature","properties":{"OBJECTID":167,"NAME":"Benjamin Banneker HS","ADDRESS":"800 EUCLID STREET NW","PHONE":"(202) 671-6320","SPONSORING":"DC Public Schools","DATE_OPEN":"2016-06-27T00:00:00.000Z","DATE_CLOSE":null,"DAYS_OPEN":"M,T,W,TH,F","HOURS_OPEN":"8:30AM - 12:30PM","LUNCH_TIME":"11:30AM - 1:00 PM","SNACK_TIME":null,"DINNER_SUP":null,"MEAL_TYPES":"B , L","X":397920.84,"Y":139551.17,"WARD":"Ward 1","ADDRID":294496,"CONTACT_FI_NAME":"Kristen ","CONTACT_LAS_NAME":"Rowe","STATUS":"Open","ADDRESS2":null,"BREAKFEAST_TIME":"8:00 AM - 9:30 AM","CONTACT_PHONE":"202-384-6738","ZIPCODE":"20001","STATE_REFERENCE":null},"geometry":{"type":"Point","coordinates":[-77.0239792607167,38.92384021287527]}},{"type":"Feature","properties":{"OBJECTID":168,"NAME":"Brightwood EC","ADDRESS":"1300 NICHOLSON STREET NW","PHONE":"(202) 722-5670","SPONSORING":"DC Public Schools","DATE_OPEN":"2016-06-27T00:00:00.000Z","DATE_CLOSE":null,"DAYS_OPEN":"M,T,W,TH,F","HOURS_OPEN":"08:00AM - 4:00PM","LUNCH_TIME":"11:30AM - 1:00 PM","SNACK_TIME":null,"DINNER_SUP":null,"MEAL_TYPES":"L","X":397340.19,"Y":143625.7,"WARD":"Ward 4","ADDRID":294515,"CONTACT_FI_NAME":"Kristen ","CONTACT_LAS_NAME":"Rowe","STATUS":"Open","ADDRESS2":null,"BREAKFEAST_TIME":"8:00 AM - 9:30 AM","CONTACT_PHONE":"202-384-6738","ZIPCODE":"20011","STATE_REFERENCE":null},"geometry":{"type":"Point","coordinates":[-77.03069114301844,38.96054319118933]}},{"type":"Feature","properties":{"OBJECTID":169,"NAME":"Brookland EC @ Bunker Hill","ADDRESS":"1150 MICHIGAN AVENUE NE","PHONE":"(202) 759-1999","SPONSORING":"DC Public Schools","DATE_OPEN":"2016-06-27T00:00:00.000Z","DATE_CLOSE":null,"DAYS_OPEN":"M,T,W,TH,F","HOURS_OPEN":"08:00AM - 2:00PM","LUNCH_TIME":"11:30AM - 1:00 PM","SNACK_TIME":null,"DINNER_SUP":null,"MEAL_TYPES":"B , L","X":400767.54,"Y":141206.38,"WARD":"Ward 5","ADDRID":294507,"CONTACT_FI_NAME":"Kristen ","CONTACT_LAS_NAME":"Rowe","STATUS":"Open","ADDRESS2":null,"BREAKFEAST_TIME":"8:00 AM - 9:30 AM","CONTACT_PHONE":"202-384-6738","ZIPCODE":"20017","STATE_REFERENCE":null},"geometry":{"type":"Point","coordinates":[-76.99114912542088,38.93875298070599]}},{"type":"Feature","properties":{"OBJECTID":170,"NAME":"Browne EC","ADDRESS":"850 26TH STREET NE","PHONE":"(202) 671-6210","SPONSORING":"DC Public Schools","DATE_OPEN":"2016-06-27T00:00:00.000Z","DATE_CLOSE":null,"DAYS_OPEN":"M,T,W,TH,F","HOURS_OPEN":"12:30 PM - 4:30 PM","LUNCH_TIME":"11:30 AM - 1:00 PM","SNACK_TIME":null,"DINNER_SUP":null,"MEAL_TYPES":"L","X":402544.36,"Y":137194.17,"WARD":"Ward 5","ADDRID":294501,"CONTACT_FI_NAME":"Kristen ","CONTACT_LAS_NAME":"Rowe","STATUS":"Open","ADDRESS2":null,"BREAKFEAST_TIME":null,"CONTACT_PHONE":"202-384-6738","ZIPCODE":"20002","STATE_REFERENCE":null},"geometry":{"type":"Point","coordinates":[-76.97066933279865,38.90260633790191]}},{"type":"Feature","properties":{"OBJECTID":171,"NAME":"Bunker Hill ES","ADDRESS":"1401 MICHIGAN AVENUE NE","PHONE":"(202) 576-6095","SPONSORING":"DC Public Schools","DATE_OPEN":"2016-06-27T00:00:00.000Z","DATE_CLOSE":null,"DAYS_OPEN":"M,T,W,TH,F","HOURS_OPEN":"08:00AM - 5:30PM","LUNCH_TIME":"11:30AM - 1:00 PM","SNACK_TIME":null,"DINNER_SUP":null,"MEAL_TYPES":"L","X":401300.77,"Y":141569.11,"WARD":"Ward 5","ADDRID":286131,"CONTACT_FI_NAME":"Kristen ","CONTACT_LAS_NAME":"Rowe","STATUS":"Open","ADDRESS2":null,"BREAKFEAST_TIME":null,"CONTACT_PHONE":"202-384-6738","ZIPCODE":"20017","STATE_REFERENCE":null},"geometry":{"type":"Point","coordinates":[-76.98499791719597,38.94201993131289]}},{"type":"Feature","properties":{"OBJECTID":172,"NAME":"Burroughs ES","ADDRESS":"1820 MONROE STREET NE","PHONE":"(202) 576-6150","SPONSORING":"DC Public Schools","DATE_OPEN":"2016-06-27T00:00:00.000Z","DATE_CLOSE":null,"DAYS_OPEN":"M,T,W,TH,F","HOURS_OPEN":"08:30AM - 3:30PM","LUNCH_TIME":"11:30 AM - 1:00 PM","SNACK_TIME":null,"DINNER_SUP":null,"MEAL_TYPES":"B , L","X":401867.9,"Y":140624.56,"WARD":"Ward 5","ADDRID":294530,"CONTACT_FI_NAME":"Kristen ","CONTACT_LAS_NAME":"Rowe","STATUS":"Open","ADDRESS2":null,"BREAKFEAST_TIME":"8:00 AM - 9:30 AM","CONTACT_PHONE":"202-384-6738","ZIPCODE":"20018","STATE_REFERENCE":null},"geometry":{"type":"Point","coordinates":[-76.97845864927179,38.93351012172938]}},{"type":"Feature","properties":{"OBJECTID":173,"NAME":"Burrville ES","ADDRESS":"801 DIVISION AVENUE NE","PHONE":"(202)671-6020","SPONSORING":"DC Public Schools","DATE_OPEN":"2016-06-27T00:00:00.000Z","DATE_CLOSE":null,"DAYS_OPEN":"M,T,W,TH,F","HOURS_OPEN":"08:00AM - 2:00PM","LUNCH_TIME":"11:30AM - 1:00 PM","SNACK_TIME":null,"DINNER_SUP":null,"MEAL_TYPES":"B , L","X":406552.65,"Y":136970.78,"WARD":"Ward 7","ADDRID":289787,"CONTACT_FI_NAME":"Kristen ","CONTACT_LAS_NAME":"Rowe","STATUS":"Open","ADDRESS2":null,"BREAKFEAST_TIME":"8:00 AM - 9:30 AM","CONTACT_PHONE":"202-384-6738","ZIPCODE":"20019","STATE_REFERENCE":null},"geometry":{"type":"Point","coordinates":[-76.92446143985119,38.90057322205526]}},{"type":"Feature","properties":{"OBJECTID":174,"NAME":"Cardozo EC","ADDRESS":"1200 CLIFTON STREET NW","PHONE":"(202)673 - 7385","SPONSORING":"DC Public Schools","DATE_OPEN":"2016-06-27T00:00:00.000Z","DATE_CLOSE":null,"DAYS_OPEN":"M,T,W,TH,F","HOURS_OPEN":"8:30AM - 3:30PM","LUNCH_TIME":"11:30AM - 1:00 PM","SNACK_TIME":null,"DINNER_SUP":null,"MEAL_TYPES":"B , L","X":397531.11,"Y":139367.02,"WARD":"Ward 1","ADDRID":294513,"CONTACT_FI_NAME":"Kristen ","CONTACT_LAS_NAME":"Rowe","STATUS":"Open","ADDRESS2":null,"BREAKFEAST_TIME":"8:00 AM - 9:30 AM","CONTACT_PHONE":"202-384-6738","ZIPCODE":"20009","STATE_REFERENCE":null},"geometry":{"type":"Point","coordinates":[-77.02847298363115,38.92218032167056]}},{"type":"Feature","properties":{"OBJECTID":175,"NAME":"Cleveland","ADDRESS":"1825 8TH STREET NW","PHONE":"202) 939-4380","SPONSORING":"DC Public Schools","DATE_OPEN":"2016-06-27T00:00:00.000Z","DATE_CLOSE":null,"DAYS_OPEN":"M,T,W,TH,F","HOURS_OPEN":"08:00AM - 5:00PM","LUNCH_TIME":"11:30AM - 1:00 PM","SNACK_TIME":null,"DINNER_SUP":null,"MEAL_TYPES":"B , L","X":398030.71,"Y":138586.76,"WARD":"Ward 1","ADDRID":294531,"CONTACT_FI_NAME":"Kristen ","CONTACT_LAS_NAME":"Rowe","STATUS":"Open","ADDRESS2":null,"BREAKFEAST_TIME":"8:00 AM - 9:30 AM","CONTACT_PHONE":"202-384-6738","ZIPCODE":"20001","STATE_REFERENCE":null},"geometry":{"type":"Point","coordinates":[-77.02270946757577,38.91515274437822]}},{"type":"Feature","properties":{"OBJECTID":176,"NAME":"Columbia Heights EC (CHEC)","ADDRESS":"3101 16TH STREET NW","PHONE":"(202) 939-7700","SPONSORING":"DC Public Schools","DATE_OPEN":"2016-06-27T00:00:00.000Z","DATE_CLOSE":null,"DAYS_OPEN":"M,T,W,TH,F","HOURS_OPEN":"09:00AM - 2:00PM","LUNCH_TIME":"11:30AM - 1:00 PM","SNACK_TIME":null,"DINNER_SUP":null,"MEAL_TYPES":"B , L","X":396890.8,"Y":140185.59,"WARD":"Ward 1","ADDRID":234375,"CONTACT_FI_NAME":"Kristen ","CONTACT_LAS_NAME":"Rowe","STATUS":"Open","ADDRESS2":null,"BREAKFEAST_TIME":"8:00 AM - 9:30 AM","CONTACT_PHONE":"202-384-6738","ZIPCODE":"20010","STATE_REFERENCE":null},"geometry":{"type":"Point","coordinates":[-77.03586060596112,38.929552227177076]}},{"type":"Feature","properties":{"OBJECTID":177,"NAME":"Coolidge HS","ADDRESS":"6315 5TH STREET NW","PHONE":"(202) 671-6080","SPONSORING":"DC Public Schools","DATE_OPEN":"2016-06-27T00:00:00.000Z","DATE_CLOSE":null,"DAYS_OPEN":"M,T,W,TH,F","HOURS_OPEN":null,"LUNCH_TIME":"11:30AM - 1:00 PM","SNACK_TIME":null,"DINNER_SUP":null,"MEAL_TYPES":"B , L","X":398303.3,"Y":144374.62,"WARD":"Ward 4","ADDRID":294615,"CONTACT_FI_NAME":"Kristen ","CONTACT_LAS_NAME":"Rowe","STATUS":"Open","ADDRESS2":null,"BREAKFEAST_TIME":"8:00 AM - 9:30 AM","CONTACT_PHONE":"202-384-6738","ZIPCODE":"20011","STATE_REFERENCE":null},"geometry":{"type":"Point","coordinates":[-77.01958064549068,38.967292039776865]}},{"type":"Feature","properties":{"OBJECTID":178,"NAME":"Dorothy Height ES","ADDRESS":"1300 ALLISON STREET NW","PHONE":"(202) 723-4100","SPONSORING":"DC Public Schools","DATE_OPEN":"2016-06-27T00:00:00.000Z","DATE_CLOSE":null,"DAYS_OPEN":"M,T,W,TH,F","HOURS_OPEN":"08:00 AM - 06:00PM","LUNCH_TIME":"11:30AM - 1:00 PM","SNACK_TIME":null,"DINNER_SUP":null,"MEAL_TYPES":"B, L","X":397352.45,"Y":141867.84,"WARD":"Ward 4","ADDRID":255251,"CONTACT_FI_NAME":"Kristen ","CONTACT_LAS_NAME":"Rowe","STATUS":"Open","ADDRESS2":null,"BREAKFEAST_TIME":"8:00 AM - 9:30 AM","CONTACT_PHONE":"202-384-6738","ZIPCODE":"20011","STATE_REFERENCE":null},"geometry":{"type":"Point","coordinates":[-77.03054290091909,38.944707948889295]}},{"type":"Feature","properties":{"OBJECTID":179,"NAME":"Drew","ADDRESS":"5600 EADS STREET NE","PHONE":"(202) 671-6040","SPONSORING":"DC Public Schools","DATE_OPEN":"2016-06-27T00:00:00.000Z","DATE_CLOSE":null,"DAYS_OPEN":"M,T,W,TH,F","HOURS_OPEN":"08:00 AM - 04:00 PM","LUNCH_TIME":"11:30AM - 1:00 PM","SNACK_TIME":null,"DINNER_SUP":null,"MEAL_TYPES":"B","X":406946.23,"Y":136463.61,"WARD":"Ward 7","ADDRID":277686,"CONTACT_FI_NAME":"Kristen ","CONTACT_LAS_NAME":"Rowe","STATUS":"Open","ADDRESS2":null,"BREAKFEAST_TIME":"8:00 AM - 9:30 AM","CONTACT_PHONE":"202-384-6738","ZIPCODE":"20019","STATE_REFERENCE":null},"geometry":{"type":"Point","coordinates":[-76.9199292662767,38.896001430487594]}},{"type":"Feature","properties":{"OBJECTID":180,"NAME":"Dunbar HS","ADDRESS":"101 N STREET NW","PHONE":"(202) 698-3762","SPONSORING":"DC Public Schools","DATE_OPEN":"2016-06-27T00:00:00.000Z","DATE_CLOSE":null,"DAYS_OPEN":"M,T,W,TH,F","HOURS_OPEN":null,"LUNCH_TIME":"11:30AM - 1:00 PM","SNACK_TIME":null,"DINNER_SUP":null,"MEAL_TYPES":"B , L","X":398899.21,"Y":137751.95,"WARD":"Ward 5","ADDRID":309947,"CONTACT_FI_NAME":"Kristen ","CONTACT_LAS_NAME":"Rowe","STATUS":"Open","ADDRESS2":null,"BREAKFEAST_TIME":"8:00 AM - 9:30 AM","CONTACT_PHONE":"202-384-6738","ZIPCODE":"20001","STATE_REFERENCE":null},"geometry":{"type":"Point","coordinates":[-77.01269376420728,38.90763400802003]}},{"type":"Feature","properties":{"OBJECTID":181,"NAME":"Eastern HS","ADDRESS":"1700 EAST CAPITOL STREET NE","PHONE":"(202) 698-4500","SPONSORING":"DC Public Schools","DATE_OPEN":"2016-06-27T00:00:00.000Z","DATE_CLOSE":null,"DAYS_OPEN":"M,T,W,TH,F","HOURS_OPEN":"08:00 AM - 02:30PM","LUNCH_TIME":"11:30AM - 1:00 PM","SNACK_TIME":null,"DINNER_SUP":null,"MEAL_TYPES":"B , L","X":401762.5,"Y":135840.08,"WARD":"Ward 6","ADDRID":289529,"CONTACT_FI_NAME":"Kristen ","CONTACT_LAS_NAME":"Rowe","STATUS":"Open","ADDRESS2":null,"BREAKFEAST_TIME":"8:00 AM - 9:30 AM","CONTACT_PHONE":"202-384-6738","ZIPCODE":"20003","STATE_REFERENCE":null},"geometry":{"type":"Point","coordinates":[-76.97968656994185,38.890410115128155]}},{"type":"Feature","properties":{"OBJECTID":182,"NAME":"Eliot-Hine MS","ADDRESS":"1830 CONSTITUTION AVENUE NE","PHONE":"(202) 939-5380","SPONSORING":"DC Public Schools","DATE_OPEN":"2016-06-27T00:00:00.000Z","DATE_CLOSE":null,"DAYS_OPEN":"M,T,W,TH,F","HOURS_OPEN":"08:00 AM - 04:00PM","LUNCH_TIME":"11:30AM - 1:00 PM","SNACK_TIME":null,"DINNER_SUP":null,"MEAL_TYPES":"B , L","X":401823.73,"Y":136065.31,"WARD":"Ward 6","ADDRID":286499,"CONTACT_FI_NAME":"Kristen ","CONTACT_LAS_NAME":"Rowe","STATUS":"Open","ADDRESS2":null,"BREAKFEAST_TIME":"8:00 AM - 9:30 AM","CONTACT_PHONE":"202-384-6738","ZIPCODE":"20002","STATE_REFERENCE":null},"geometry":{"type":"Point","coordinates":[-76.97898019572983,38.892438946299286]}},{"type":"Feature","properties":{"OBJECTID":183,"NAME":"Hardy MS","ADDRESS":"1819 35TH STREET NW","PHONE":"(202) 729-4350","SPONSORING":"DC Public Schools","DATE_OPEN":"2016-06-27T00:00:00.000Z","DATE_CLOSE":null,"DAYS_OPEN":"M,T,W,TH,F","HOURS_OPEN":"08:00 AM - 03:30PM","LUNCH_TIME":"11:30AM - 1:00 PM","SNACK_TIME":null,"DINNER_SUP":null,"MEAL_TYPES":"B , L","X":394049.46,"Y":138629.13,"WARD":"Ward 2","ADDRID":274432,"CONTACT_FI_NAME":"Kristen ","CONTACT_LAS_NAME":"Rowe","STATUS":"Open","ADDRESS2":null,"BREAKFEAST_TIME":"8:00 AM - 9:30 AM","CONTACT_PHONE":"202-384-6738","ZIPCODE":"20007","STATE_REFERENCE":null},"geometry":{"type":"Point","coordinates":[-77.06861620212666,38.91551648717705]}},{"type":"Feature","properties":{"OBJECTID":184,"NAME":"Jefferson Middle School","ADDRESS":"801 7TH STREET SW","PHONE":" (202) 729-3270","SPONSORING":"DC Public Schools","DATE_OPEN":"2016-06-27T00:00:00.000Z","DATE_CLOSE":null,"DAYS_OPEN":"M,T,W,TH,F","HOURS_OPEN":"09:30 AM - 4:00 PM","LUNCH_TIME":"11:30AM - 1:00 PM","SNACK_TIME":null,"DINNER_SUP":null,"MEAL_TYPES":"B , L","X":398012.08,"Y":134671.03,"WARD":"Ward 6","ADDRID":276812,"CONTACT_FI_NAME":"Kristen ","CONTACT_LAS_NAME":"Rowe","STATUS":"Open","ADDRESS2":null,"BREAKFEAST_TIME":"8:00 AM - 9:30 AM","CONTACT_PHONE":"202-384-6738","ZIPCODE":"20024","STATE_REFERENCE":null},"geometry":{"type":"Point","coordinates":[-77.02291294981048,38.879878381785296]}},{"type":"Feature","properties":{"OBJECTID":185,"NAME":"JO Wilson","ADDRESS":"660 K STREET NE","PHONE":"(202) 698-4733","SPONSORING":"DC Public Schools","DATE_OPEN":"2016-06-27T00:00:00.000Z","DATE_CLOSE":null,"DAYS_OPEN":"M,T,W,TH,F","HOURS_OPEN":"08:00 AM - 06:00PM","LUNCH_TIME":"11:30AM - 1:00 PM","SNACK_TIME":null,"DINNER_SUP":null,"MEAL_TYPES":"B , L","X":400295.87,"Y":137211.43,"WARD":"Ward 6","ADDRID":288841,"CONTACT_FI_NAME":"Kristen ","CONTACT_LAS_NAME":"Rowe","STATUS":"Open","ADDRESS2":null,"BREAKFEAST_TIME":"8:00 AM - 9:30 AM","CONTACT_PHONE":"202-384-6738","ZIPCODE":"20002","STATE_REFERENCE":null},"geometry":{"type":"Point","coordinates":[-76.99659130436592,38.902765453788696]}},{"type":"Feature","properties":{"OBJECTID":186,"NAME":"Johnson, John Hayden MS","ADDRESS":"1400 BRUCE PLACE SE","PHONE":"(202) 939-3140","SPONSORING":"DC Public Schools","DATE_OPEN":"2016-06-27T00:00:00.000Z","DATE_CLOSE":null,"DAYS_OPEN":"M,T,W,TH,F","HOURS_OPEN":"08:00 AM - 01:00PM","LUNCH_TIME":"11:30AM - 1:00 PM","SNACK_TIME":null,"DINNER_SUP":null,"MEAL_TYPES":"B, L","X":401414.57,"Y":131503.42,"WARD":"Ward 8","ADDRID":294520,"CONTACT_FI_NAME":"Kristen ","CONTACT_LAS_NAME":"Rowe","STATUS":"Open","ADDRESS2":null,"BREAKFEAST_TIME":"8:00 AM - 9:30 AM","CONTACT_PHONE":"202-384-6738","ZIPCODE":"20020","STATE_REFERENCE":null},"geometry":{"type":"Point","coordinates":[-76.98370595672756,38.85134435056086]}},{"type":"Feature","properties":{"OBJECTID":187,"NAME":"Kelly Miller MS","ADDRESS":"301 49TH STREET NE","PHONE":"(202) 698-1122","SPONSORING":"DC Public Schools","DATE_OPEN":"2016-06-27T00:00:00.000Z","DATE_CLOSE":null,"DAYS_OPEN":"M,T,W,TH,F","HOURS_OPEN":"07:00AM-05:00PM","LUNCH_TIME":"11:30AM - 1:00 PM","SNACK_TIME":null,"DINNER_SUP":null,"MEAL_TYPES":"B , L","X":405859.65,"Y":136165.39,"WARD":"Ward 7","ADDRID":294476,"CONTACT_FI_NAME":"Kristen ","CONTACT_LAS_NAME":"Rowe","STATUS":"Open","ADDRESS2":null,"BREAKFEAST_TIME":"8:00 AM - 9:30 AM","CONTACT_PHONE":"202-384-6738","ZIPCODE":"20019","STATE_REFERENCE":null},"geometry":{"type":"Point","coordinates":[-76.93245741053285,38.89332286921369]}},{"type":"Feature","properties":{"OBJECTID":188,"NAME":"Kramer MS","ADDRESS":"1700 Q STREET SE","PHONE":"(202) 939-2150","SPONSORING":"DC Public Schools","DATE_OPEN":"2016-06-27T00:00:00.000Z","DATE_CLOSE":null,"DAYS_OPEN":"M,T,W,TH,F","HOURS_OPEN":"08:00AM-05:00PM","LUNCH_TIME":"11:30AM - 1:00 PM","SNACK_TIME":null,"DINNER_SUP":null,"MEAL_TYPES":"B , L","X":401720.71,"Y":133718.02,"WARD":"Ward 8","ADDRID":289467,"CONTACT_FI_NAME":"Kristen ","CONTACT_LAS_NAME":"Rowe","STATUS":"Open","ADDRESS2":null,"BREAKFEAST_TIME":"8:00 AM - 9:30 AM","CONTACT_PHONE":"202-384-6738","ZIPCODE":"20020","STATE_REFERENCE":null},"geometry":{"type":"Point","coordinates":[-76.98017358027091,38.87129385290139]}},{"type":"Feature","properties":{"OBJECTID":189,"NAME":"LaSalle-Backus EC","ADDRESS":"501 RIGGS ROAD NE","PHONE":"(202) 671-6340","SPONSORING":"DC Public Schools","DATE_OPEN":"2016-06-27T00:00:00.000Z","DATE_CLOSE":null,"DAYS_OPEN":"M,T,W,TH,F","HOURS_OPEN":"08:00 AM - 04:00PM","LUNCH_TIME":"11:30AM - 1:00 PM","SNACK_TIME":null,"DINNER_SUP":null,"MEAL_TYPES":"B , L","X":400010.18,"Y":143562.69,"WARD":"Ward 4","ADDRID":294489,"CONTACT_FI_NAME":"Kristen ","CONTACT_LAS_NAME":"Rowe","STATUS":"Open","ADDRESS2":null,"BREAKFEAST_TIME":"8:00 AM - 9:30 AM","CONTACT_PHONE":"202-384-6738","ZIPCODE":"20011","STATE_REFERENCE":null},"geometry":{"type":"Point","coordinates":[-76.99988483141722,38.95997960935011]}},{"type":"Feature","properties":{"OBJECTID":190,"NAME":"Luke Moore Alternative HS","ADDRESS":"1001 MONROE STREET NE","PHONE":"(202) 281-3600","SPONSORING":"DC Public Schools","DATE_OPEN":"2016-06-27T00:00:00.000Z","DATE_CLOSE":null,"DAYS_OPEN":"M,T,W,TH,F","HOURS_OPEN":"08:00 AM - 04:00PM","LUNCH_TIME":"11:30AM - 1:00 PM","SNACK_TIME":null,"DINNER_SUP":null,"MEAL_TYPES":"B , L","X":400666.21,"Y":140488.24,"WARD":"Ward 5","ADDRID":294504,"CONTACT_FI_NAME":"Kristen ","CONTACT_LAS_NAME":"Rowe","STATUS":"Open","ADDRESS2":null,"BREAKFEAST_TIME":"8:00 AM - 9:30 AM","CONTACT_PHONE":"202-384-6738","ZIPCODE":"20017","STATE_REFERENCE":null},"geometry":{"type":"Point","coordinates":[-76.99231860919365,38.932283841906624]}},{"type":"Feature","properties":{"OBJECTID":191,"NAME":"Ludlow-Taylor ES","ADDRESS":"659 G STREET NE","PHONE":" (202) 698-3244","SPONSORING":"DC Public Schools","DATE_OPEN":"2016-06-27T00:00:00.000Z","DATE_CLOSE":null,"DAYS_OPEN":"M,T,W,TH,F","HOURS_OPEN":"09:00 AM - 5:00 PM","LUNCH_TIME":"11:30AM - 1:00 PM","SNACK_TIME":null,"DINNER_SUP":null,"MEAL_TYPES":"L","X":400304.26,"Y":136765.86,"WARD":"Ward 6","ADDRID":294494,"CONTACT_FI_NAME":"Kristen ","CONTACT_LAS_NAME":"Rowe","STATUS":"Open","ADDRESS2":null,"BREAKFEAST_TIME":"8:00 AM - 9:30 AM","CONTACT_PHONE":"202-384-6738","ZIPCODE":"20002","STATE_REFERENCE":null},"geometry":{"type":"Point","coordinates":[-76.99649477618172,38.898751596381906]}},{"type":"Feature","properties":{"OBJECTID":192,"NAME":"Malcolm X ES @ Green","ADDRESS":"1500 MISSISSIPPI AVENUE SE","PHONE":"(202) 645-3409","SPONSORING":"DC Public Schools","DATE_OPEN":"2016-06-27T00:00:00.000Z","DATE_CLOSE":null,"DAYS_OPEN":"M,T,W,TH,F","HOURS_OPEN":"08:00 AM - 05:30PM","LUNCH_TIME":"11:30AM - 1:00 PM","SNACK_TIME":null,"DINNER_SUP":null,"MEAL_TYPES":"B , L","X":401441.25,"Y":130427.6,"WARD":"Ward 8","ADDRID":294523,"CONTACT_FI_NAME":"Kristen ","CONTACT_LAS_NAME":"Rowe","STATUS":"Open","ADDRESS2":null,"BREAKFEAST_TIME":"8:00 AM - 9:30 AM","CONTACT_PHONE":"202-384-6738","ZIPCODE":"20032","STATE_REFERENCE":null},"geometry":{"type":"Point","coordinates":[-76.9834008474376,38.841652844624846]}},{"type":"Feature","properties":{"OBJECTID":193,"NAME":"Maury ES","ADDRESS":"1250 CONSTITUTION AVENUE NE","PHONE":"(202)698-3838","SPONSORING":"DC Public Schools","DATE_OPEN":"2016-06-27T00:00:00.000Z","DATE_CLOSE":null,"DAYS_OPEN":"M,T,W,TH,F","HOURS_OPEN":"08:00 AM - 06:00PM","LUNCH_TIME":"11:30AM - 1:00 PM","SNACK_TIME":null,"DINNER_SUP":null,"MEAL_TYPES":"B , L","X":400984,"Y":136037.82,"WARD":"Ward 6","ADDRID":294511,"CONTACT_FI_NAME":"Kristen ","CONTACT_LAS_NAME":"Rowe","STATUS":"Open","ADDRESS2":null,"BREAKFEAST_TIME":"8:00 AM - 9:30 AM","CONTACT_PHONE":"202-384-6738","ZIPCODE":"20002","STATE_REFERENCE":null},"geometry":{"type":"Point","coordinates":[-76.98865978038536,38.89219264672113]}},{"type":"Feature","properties":{"OBJECTID":194,"NAME":"McKinley Technology HS","ADDRESS":"151 T STREET NE","PHONE":"(202) 281-2580","SPONSORING":"DC Public Schools","DATE_OPEN":"2016-06-27T00:00:00.000Z","DATE_CLOSE":null,"DAYS_OPEN":"M,T,W,TH,F","HOURS_OPEN":"08:45 AM - 03:15PM","LUNCH_TIME":"11:30AM - 1:00 PM","SNACK_TIME":null,"DINNER_SUP":null,"MEAL_TYPES":"B , L","X":399642.48,"Y":138594.83,"WARD":"Ward 5","ADDRID":296345,"CONTACT_FI_NAME":"Kristen ","CONTACT_LAS_NAME":"Rowe","STATUS":"Open","ADDRESS2":null,"BREAKFEAST_TIME":"8:00 AM - 9:30 AM","CONTACT_PHONE":"202-384-6738","ZIPCODE":"20002","STATE_REFERENCE":null},"geometry":{"type":"Point","coordinates":[-77.00412472481034,38.91522757595278]}},{"type":"Feature","properties":{"OBJECTID":195,"NAME":"Miner ES","ADDRESS":"601 15TH STREET NE","PHONE":"(202) 397-3960","SPONSORING":"DC Public Schools","DATE_OPEN":"2016-06-27T00:00:00.000Z","DATE_CLOSE":null,"DAYS_OPEN":"M,T,W,TH,F","HOURS_OPEN":"08:00AM - 5:00PM    ","LUNCH_TIME":"11:30AM - 1:00 PM","SNACK_TIME":null,"DINNER_SUP":null,"MEAL_TYPES":"B , L","X":401483,"Y":136614.12,"WARD":"Ward 6","ADDRID":289548,"CONTACT_FI_NAME":"Kristen ","CONTACT_LAS_NAME":"Rowe","STATUS":"Open","ADDRESS2":null,"BREAKFEAST_TIME":"8:00 AM - 9:30 AM","CONTACT_PHONE":"202-384-6738","ZIPCODE":"20002","STATE_REFERENCE":null},"geometry":{"type":"Point","coordinates":[-76.9829065969051,38.89738346956647]}},{"type":"Feature","properties":{"OBJECTID":196,"NAME":"Moten ES","ADDRESS":"1565 MORRIS ROAD SE","PHONE":"(202) 698-1111","SPONSORING":"DC Public Schools","DATE_OPEN":"2016-06-27T00:00:00.000Z","DATE_CLOSE":null,"DAYS_OPEN":"M,T,W,TH,F","HOURS_OPEN":"08:00AM - 05:00PM","LUNCH_TIME":"11:30AM - 1:00 PM","SNACK_TIME":null,"DINNER_SUP":null,"MEAL_TYPES":"B , L","X":401480.43,"Y":132093.89,"WARD":"Ward 8","ADDRID":294524,"CONTACT_FI_NAME":"Kristen ","CONTACT_LAS_NAME":"Rowe","STATUS":"Open","ADDRESS2":null,"BREAKFEAST_TIME":"8:00 AM - 9:30 AM","CONTACT_PHONE":"202-384-6738","ZIPCODE":"20020","STATE_REFERENCE":null},"geometry":{"type":"Point","coordinates":[-76.98294595667818,38.85666345072425]}},{"type":"Feature","properties":{"OBJECTID":197,"NAME":"Noyes EC","ADDRESS":"2725 10TH STREET NE","PHONE":"(202) 698-3277","SPONSORING":"DC Public Schools","DATE_OPEN":"2016-06-27T00:00:00.000Z","DATE_CLOSE":null,"DAYS_OPEN":"M,T,W,TH,F","HOURS_OPEN":"08:00 AM - 01:00PM","LUNCH_TIME":"11:30AM - 1:00 PM","SNACK_TIME":null,"DINNER_SUP":null,"MEAL_TYPES":"B , L","X":400707.33,"Y":139700.26,"WARD":"Ward 5","ADDRID":289594,"CONTACT_FI_NAME":"Kristen ","CONTACT_LAS_NAME":"Rowe","STATUS":"Open","ADDRESS2":null,"BREAKFEAST_TIME":"8:00 AM - 9:30 AM","CONTACT_PHONE":"202-384-6738","ZIPCODE":"20018","STATE_REFERENCE":null},"geometry":{"type":"Point","coordinates":[-76.99184516681355,38.92518543949811]}},{"type":"Feature","properties":{"OBJECTID":198,"NAME":"Patterson ES","ADDRESS":"4399 SOUTH CAPITOL TERRACE SW","PHONE":"(202)939-5280","SPONSORING":"DC Public Schools","DATE_OPEN":"2016-06-27T00:00:00.000Z","DATE_CLOSE":"2016-07-08T00:00:00.000Z","DAYS_OPEN":"M,T,W,TH,F","HOURS_OPEN":"8:00 AM - 5:30 PM","LUNCH_TIME":"11:30AM - 1:00 PM","SNACK_TIME":null,"DINNER_SUP":null,"MEAL_TYPES":"B , L","X":399263.25,"Y":128798.03,"WARD":"Ward 8","ADDRID":301073,"CONTACT_FI_NAME":"Kristen ","CONTACT_LAS_NAME":"Rowe","STATUS":"Open","ADDRESS2":null,"BREAKFEAST_TIME":"8:00 AM - 9:30 AM","CONTACT_PHONE":"202-384-6738","ZIPCODE":"20032","STATE_REFERENCE":null},"geometry":{"type":"Point","coordinates":[-77.00848699104039,38.82697379912605]}},{"type":"Feature","properties":{"OBJECTID":199,"NAME":"Peabody ES (Capitol Hill Cluster)","ADDRESS":"920 F STREET NE","PHONE":"(202) 729-4360","SPONSORING":"DC Public Schools","DATE_OPEN":"2016-06-27T00:00:00.000Z","DATE_CLOSE":null,"DAYS_OPEN":"M,T,W,TH,F","HOURS_OPEN":"08:00 AM - 06:00PM","LUNCH_TIME":"11:30AM - 1:00 PM","SNACK_TIME":null,"DINNER_SUP":null,"MEAL_TYPES":"B , L","X":400591.35,"Y":136634.98,"WARD":"Ward 6","ADDRID":289072,"CONTACT_FI_NAME":"Kristen ","CONTACT_LAS_NAME":"Rowe","STATUS":"Open","ADDRESS2":null,"BREAKFEAST_TIME":"8:00 AM - 9:30 AM","CONTACT_PHONE":"202-384-6738","ZIPCODE":"20002","STATE_REFERENCE":null},"geometry":{"type":"Point","coordinates":[-76.99318531715507,38.8975724356777]}},{"type":"Feature","properties":{"OBJECTID":200,"NAME":"Phelps Architecture, Construction and Engineering HS","ADDRESS":"704 26TH STREET NE","PHONE":"(202) 939-4360","SPONSORING":"DC Public Schools","DATE_OPEN":"2016-06-27T00:00:00.000Z","DATE_CLOSE":null,"DAYS_OPEN":"M,T,W,TH,F","HOURS_OPEN":"09:00 AM - 04:00 PM","LUNCH_TIME":"11:30AM - 1:00 PM","SNACK_TIME":null,"DINNER_SUP":null,"MEAL_TYPES":"B , L","X":402437.64,"Y":137126.77,"WARD":"Ward 5","ADDRID":294495,"CONTACT_FI_NAME":"Kristen ","CONTACT_LAS_NAME":"Rowe","STATUS":"Open","ADDRESS2":null,"BREAKFEAST_TIME":"8:00 AM - 9:30 AM","CONTACT_PHONE":"202-384-6738","ZIPCODE":"20002","STATE_REFERENCE":null},"geometry":{"type":"Point","coordinates":[-76.97189990584583,38.901999477082846]}},{"type":"Feature","properties":{"OBJECTID":201,"NAME":"Plummer ES","ADDRESS":"4601 TEXAS AVENUE SE","PHONE":"(202) 576-6130","SPONSORING":"DC Public Schools","DATE_OPEN":"2016-06-27T00:00:00.000Z","DATE_CLOSE":null,"DAYS_OPEN":"M,T,W,TH,F","HOURS_OPEN":"08:00 AM - 05:30 PM","LUNCH_TIME":"11:30AM - 1:00 PM","SNACK_TIME":null,"DINNER_SUP":null,"MEAL_TYPES":"B , L","X":405211.23,"Y":135490.54,"WARD":"Ward 7","ADDRID":19536,"CONTACT_FI_NAME":"Kristen ","CONTACT_LAS_NAME":"Rowe","STATUS":"Open","ADDRESS2":null,"BREAKFEAST_TIME":"8:00 AM - 9:30 AM","CONTACT_PHONE":"202-384-6738","ZIPCODE":"20019","STATE_REFERENCE":null},"geometry":{"type":"Point","coordinates":[-76.93993693965622,38.88724765063354]}},{"type":"Feature","properties":{"OBJECTID":202,"NAME":"Roosevelt HS @ MacFarland","ADDRESS":"4301 13TH STREET NW","PHONE":"(202) 939-2000","SPONSORING":"DC Public Schools","DATE_OPEN":"2016-06-27T00:00:00.000Z","DATE_CLOSE":null,"DAYS_OPEN":"M,T,W,TH,F","HOURS_OPEN":"9:00 AM - 2:00 PM","LUNCH_TIME":"11:30AM - 1:00 PM","SNACK_TIME":null,"DINNER_SUP":null,"MEAL_TYPES":"B , L","X":397468.88,"Y":141682.3,"WARD":"Ward 4","ADDRID":252605,"CONTACT_FI_NAME":"Kristen ","CONTACT_LAS_NAME":"Rowe","STATUS":"Open","ADDRESS2":null,"BREAKFEAST_TIME":"8:00 AM - 9:30 AM","CONTACT_PHONE":"202-384-6738","ZIPCODE":"20011","STATE_REFERENCE":null},"geometry":{"type":"Point","coordinates":[-77.02919914684153,38.94303689465275]}},{"type":"Feature","properties":{"OBJECTID":203,"NAME":"Roosevelt STAY @ MacFarland","ADDRESS":"4400 IOWA AVENUE NW","PHONE":"(202) 939-2000","SPONSORING":"DC Public Schools","DATE_OPEN":"2016-06-27T00:00:00.000Z","DATE_CLOSE":null,"DAYS_OPEN":"M,T,W,TH,F","HOURS_OPEN":"9:00 AM - 3:00 PM","LUNCH_TIME":"11:30AM - 1:00 PM","SNACK_TIME":null,"DINNER_SUP":null,"MEAL_TYPES":"B , L","X":397592.04,"Y":141746.55,"WARD":"Ward 4","ADDRID":294595,"CONTACT_FI_NAME":"Kristen ","CONTACT_LAS_NAME":"Rowe","STATUS":"Open","ADDRESS2":null,"BREAKFEAST_TIME":"8:00 AM - 9:30 AM","CONTACT_PHONE":"202-384-6738","ZIPCODE":"20011","STATE_REFERENCE":null},"geometry":{"type":"Point","coordinates":[-77.02777870282368,38.943616023377395]}},{"type":"Feature","properties":{"OBJECTID":204,"NAME":"Savoy ES","ADDRESS":"2400 SHANNON PLACE SE","PHONE":"(202) 645-9690","SPONSORING":"DC Public Schools","DATE_OPEN":"2016-06-27T00:00:00.000Z","DATE_CLOSE":"2016-08-05T00:00:00.000Z","DAYS_OPEN":"M,T,W,TH,F","HOURS_OPEN":"8:00 AM - 06:00PM","LUNCH_TIME":"11:30AM - 1:00 PM","SNACK_TIME":null,"DINNER_SUP":null,"MEAL_TYPES":"B , L","X":400555.08,"Y":132781.57,"WARD":"Ward 8","ADDRID":278153,"CONTACT_FI_NAME":"Kristen ","CONTACT_LAS_NAME":"Rowe","STATUS":"Open","ADDRESS2":null,"BREAKFEAST_TIME":null,"CONTACT_PHONE":"202-384-6738","ZIPCODE":"20020","STATE_REFERENCE":null},"geometry":{"type":"Point","coordinates":[-76.99360654064103,38.86285943336159]}},{"type":"Feature","properties":{"OBJECTID":205,"NAME":"Seaton ES","ADDRESS":"1503 10TH STREET NW","PHONE":"(202) 673-7215","SPONSORING":"DC Public Schools","DATE_OPEN":"2016-06-27T00:00:00.000Z","DATE_CLOSE":"2016-08-05T00:00:00.000Z","DAYS_OPEN":"M,T,W,TH,F","HOURS_OPEN":"08:00 AM - 05:00 PM","LUNCH_TIME":"11:30AM - 1:00 PM","SNACK_TIME":null,"DINNER_SUP":null,"MEAL_TYPES":"B , L","X":397841.92,"Y":138084.32,"WARD":"Ward 6","ADDRID":279203,"CONTACT_FI_NAME":"Kristen ","CONTACT_LAS_NAME":"Rowe","STATUS":"Open","ADDRESS2":null,"BREAKFEAST_TIME":"8:00 AM - 9:30 AM","CONTACT_PHONE":"202-384-6738","ZIPCODE":"20001","STATE_REFERENCE":null},"geometry":{"type":"Point","coordinates":[-77.02488475847085,38.91062615117742]}},{"type":"Feature","properties":{"OBJECTID":206,"NAME":"Simon ES","ADDRESS":"401 MISSISSIPPI AVENUE SE","PHONE":"(202) 645-3360","SPONSORING":"DC Public Schools","DATE_OPEN":"2016-06-27T00:00:00.000Z","DATE_CLOSE":"2016-08-05T00:00:00.000Z","DAYS_OPEN":"M,T,W,TH,F","HOURS_OPEN":"08:30 AM - 05:00 PM","LUNCH_TIME":"11:30AM - 1:00 PM","SNACK_TIME":null,"DINNER_SUP":null,"MEAL_TYPES":"B , L","X":399983.07,"Y":129798.63,"WARD":"Ward 8","ADDRID":294481,"CONTACT_FI_NAME":"Kristen ","CONTACT_LAS_NAME":"Rowe","STATUS":"Open","ADDRESS2":null,"BREAKFEAST_TIME":"8:00 AM - 9:30 AM","CONTACT_PHONE":"202-384-6738","ZIPCODE":"20032","STATE_REFERENCE":null},"geometry":{"type":"Point","coordinates":[-77.00019727700331,38.83598797717475]}},{"type":"Feature","properties":{"OBJECTID":207,"NAME":"Sousa MS","ADDRESS":"3650 ELY PLACE SE","PHONE":"(202) 729-3260","SPONSORING":"DC Public Schools","DATE_OPEN":"2016-06-27T00:00:00.000Z","DATE_CLOSE":"2016-08-05T00:00:00.000Z","DAYS_OPEN":"M,T,W,TH,F","HOURS_OPEN":"09:00 AM - 02:00 PM","LUNCH_TIME":"11:30AM - 1:00 PM","SNACK_TIME":null,"DINNER_SUP":null,"MEAL_TYPES":"B , L","X":404064.1,"Y":135118.46,"WARD":"Ward 7","ADDRID":294584,"CONTACT_FI_NAME":"Kristen ","CONTACT_LAS_NAME":"Rowe","STATUS":"Open","ADDRESS2":null,"BREAKFEAST_TIME":"8:00 AM - 9:30 AM","CONTACT_PHONE":"202-384-6738","ZIPCODE":"20019","STATE_REFERENCE":null},"geometry":{"type":"Point","coordinates":[-76.95316111317253,38.88390186232114]}},{"type":"Feature","properties":{"OBJECTID":208,"NAME":"Stanton ES","ADDRESS":"2701 NAYLOR ROAD SE","PHONE":"(202) 671-6180","SPONSORING":"DC Public Schools","DATE_OPEN":"2016-06-27T00:00:00.000Z","DATE_CLOSE":"2016-08-05T00:00:00.000Z","DAYS_OPEN":"M,T,W,TH,F","HOURS_OPEN":"08:30AM - 12:30 PM","LUNCH_TIME":"11:30AM - 1:00 PM","SNACK_TIME":null,"DINNER_SUP":null,"MEAL_TYPES":"B , L","X":402734.84,"Y":132384.63,"WARD":"Ward 8","ADDRID":294547,"CONTACT_FI_NAME":"Kristen ","CONTACT_LAS_NAME":"Rowe","STATUS":"Open","ADDRESS2":null,"BREAKFEAST_TIME":"8:00 AM - 9:30 AM","CONTACT_PHONE":"202-384-6738","ZIPCODE":"20020","STATE_REFERENCE":null},"geometry":{"type":"Point","coordinates":[-76.9684924980307,38.859279554952096]}},{"type":"Feature","properties":{"OBJECTID":209,"NAME":"Stuart-Hobson MS (Capitol Hill Cluster)","ADDRESS":"410 E STREET NE","PHONE":"(202) 671-6010","SPONSORING":"DC Public Schools","DATE_OPEN":"2016-06-27T00:00:00.000Z","DATE_CLOSE":"2016-08-05T00:00:00.000Z","DAYS_OPEN":"M,T,W,TH,F","HOURS_OPEN":"08:00 AM - 06:00 PM","LUNCH_TIME":"11:30AM - 1:00 PM","SNACK_TIME":null,"DINNER_SUP":null,"MEAL_TYPES":"B , L","X":399999.62,"Y":136494.28,"WARD":"Ward 6","ADDRID":294483,"CONTACT_FI_NAME":"Kristen ","CONTACT_LAS_NAME":"Rowe","STATUS":"Open","ADDRESS2":null,"BREAKFEAST_TIME":"8:00 AM - 9:30 AM","CONTACT_PHONE":"202-384-6738","ZIPCODE":"20002","STATE_REFERENCE":null},"geometry":{"type":"Point","coordinates":[-77.00000666379914,38.89630515733755]}},{"type":"Feature","properties":{"OBJECTID":210,"NAME":"Takoma Education Campus","ADDRESS":"7010 PINEY BRANCH ROAD NW","PHONE":"(202) 671-6050","SPONSORING":"DC Public Schools","DATE_OPEN":"2016-06-27T00:00:00.000Z","DATE_CLOSE":"2016-08-05T00:00:00.000Z","DAYS_OPEN":"M,T,W,TH,F","HOURS_OPEN":"08:00 AM -5:30 PM","LUNCH_TIME":"11:30AM - 1:00 PM","SNACK_TIME":null,"DINNER_SUP":null,"MEAL_TYPES":"B , L","X":398024.76,"Y":145235.93,"WARD":"Ward 4","ADDRID":250934,"CONTACT_FI_NAME":"Kristen ","CONTACT_LAS_NAME":"Rowe","STATUS":"Open","ADDRESS2":null,"BREAKFEAST_TIME":"8:00 AM - 9:30 AM","CONTACT_PHONE":"202-384-6738","ZIPCODE":"20012","STATE_REFERENCE":null},"geometry":{"type":"Point","coordinates":[-77.0227972230375,38.97505034301654]}},{"type":"Feature","properties":{"OBJECTID":211,"NAME":"Thomson ES","ADDRESS":"650 ANACOSTIA AVENUE NE","PHONE":"(202) 576-6202","SPONSORING":"DC Public Schools","DATE_OPEN":"2016-06-27T00:00:00.000Z","DATE_CLOSE":"2016-08-05T00:00:00.000Z","DAYS_OPEN":"M,T,W,TH,F","HOURS_OPEN":"08:00 AM - 5:30PM","LUNCH_TIME":"11:30AM - 1:00 PM","SNACK_TIME":null,"DINNER_SUP":null,"MEAL_TYPES":"B , L","X":404154.01,"Y":137048.33,"WARD":"Ward 7","ADDRID":294493,"CONTACT_FI_NAME":"Kristen ","CONTACT_LAS_NAME":"Rowe","STATUS":"Open","ADDRESS2":null,"BREAKFEAST_TIME":"8:00 AM - 9:30 AM","CONTACT_PHONE":"202-384-6738","ZIPCODE":"20019","STATE_REFERENCE":null},"geometry":{"type":"Point","coordinates":[-76.95211317978585,38.90128642690779]}},{"type":"Feature","properties":{"OBJECTID":212,"NAME":"Truesdell EC","ADDRESS":"800 INGRAHAM STREET NW","PHONE":"(202) 576-6202","SPONSORING":"DC Public Schools","DATE_OPEN":"2016-06-27T00:00:00.000Z","DATE_CLOSE":"2016-08-05T00:00:00.000Z","DAYS_OPEN":"M,T,W,TH,F","HOURS_OPEN":"08:00 AM - 5:30PM","LUNCH_TIME":"11:30AM - 1:00 PM","SNACK_TIME":null,"DINNER_SUP":null,"MEAL_TYPES":"B , L","X":397826.84,"Y":142896.55,"WARD":"Ward 4","ADDRID":294497,"CONTACT_FI_NAME":"Kristen ","CONTACT_LAS_NAME":"Rowe","STATUS":"Open","ADDRESS2":null,"BREAKFEAST_TIME":"8:00 AM - 9:30 AM","CONTACT_PHONE":"202-384-6738","ZIPCODE":"20011","STATE_REFERENCE":null},"geometry":{"type":"Point","coordinates":[-77.02507387055014,38.953976155311054]}},{"type":"Feature","properties":{"OBJECTID":213,"NAME":"Tubman ES","ADDRESS":"3101 13TH STREET NW","PHONE":"(202) 673-7285","SPONSORING":"DC Public Schools","DATE_OPEN":"2016-06-27T00:00:00.000Z","DATE_CLOSE":"2016-08-05T00:00:00.000Z","DAYS_OPEN":"M,T,W,TH,F","HOURS_OPEN":"12:00 PM - 4:00 PM","LUNCH_TIME":"11:30AM - 1:00 PM","SNACK_TIME":null,"DINNER_SUP":null,"MEAL_TYPES":"L","X":397447.02,"Y":140146.96,"WARD":"Ward 1","ADDRID":294555,"CONTACT_FI_NAME":"Kristen ","CONTACT_LAS_NAME":"Rowe","STATUS":"Open","ADDRESS2":null,"BREAKFEAST_TIME":null,"CONTACT_PHONE":"202-384-6738","ZIPCODE":"20010","STATE_REFERENCE":null},"geometry":{"type":"Point","coordinates":[-77.029445592325,38.929206028480316]}},{"type":"Feature","properties":{"OBJECTID":214,"NAME":"Turner ES","ADDRESS":"3264 STANTON ROAD SE","PHONE":"(202) 645-3470","SPONSORING":"DC Public Schools","DATE_OPEN":"2016-06-27T00:00:00.000Z","DATE_CLOSE":"2016-08-05T00:00:00.000Z","DAYS_OPEN":"M,T,W,TH,F","HOURS_OPEN":"08:00 AM - 01:00 PM","LUNCH_TIME":"11:30AM - 1:00 PM","SNACK_TIME":null,"DINNER_SUP":null,"MEAL_TYPES":"B , L","X":401708.96,"Y":131092.7,"WARD":"Ward 8","ADDRID":294561,"CONTACT_FI_NAME":"Kristen ","CONTACT_LAS_NAME":"Rowe","STATUS":"Open","ADDRESS2":null,"BREAKFEAST_TIME":"8:00 AM - 9:30 AM","CONTACT_PHONE":"202-384-6738","ZIPCODE":"20020","STATE_REFERENCE":null},"geometry":{"type":"Point","coordinates":[-76.98031550483384,38.84764388232177]}},{"type":"Feature","properties":{"OBJECTID":215,"NAME":"Walker-Jones EC","ADDRESS":"1125 NEW JERSEY AVENUE NW","PHONE":"(202) 939-5934","SPONSORING":"DC Public Schools","DATE_OPEN":"2016-06-27T00:00:00.000Z","DATE_CLOSE":"2016-08-05T00:00:00.000Z","DAYS_OPEN":"M,T,W,TH,F","HOURS_OPEN":"08:00 AM - 05:30 PM","LUNCH_TIME":"11:30AM - 1:00 PM","SNACK_TIME":null,"DINNER_SUP":null,"MEAL_TYPES":"B , L","X":398792.97,"Y":137370.7,"WARD":"Ward 6","ADDRID":307735,"CONTACT_FI_NAME":"Kristen ","CONTACT_LAS_NAME":"Rowe","STATUS":"Open","ADDRESS2":null,"BREAKFEAST_TIME":"8:00 AM - 9:30 AM","CONTACT_PHONE":"202-384-6738","ZIPCODE":"20001","STATE_REFERENCE":null},"geometry":{"type":"Point","coordinates":[-77.01391798047297,38.90419943483584]}},{"type":"Feature","properties":{"OBJECTID":216,"NAME":"West EC","ADDRESS":"1338 FARRAGUT STREET NW","PHONE":"(202) 576-6226","SPONSORING":"DC Public Schools","DATE_OPEN":"2016-06-27T00:00:00.000Z","DATE_CLOSE":"2016-08-05T00:00:00.000Z","DAYS_OPEN":"M,T,W,TH,F","HOURS_OPEN":"08:00 AM - 4:00 PM","LUNCH_TIME":"11:30AM - 1:00 PM","SNACK_TIME":null,"DINNER_SUP":null,"MEAL_TYPES":"L","X":397204.26,"Y":142607.98,"WARD":"Ward 4","ADDRID":294517,"CONTACT_FI_NAME":"Kristen ","CONTACT_LAS_NAME":"Rowe","STATUS":"Open","ADDRESS2":null,"BREAKFEAST_TIME":"8:00 AM - 9:30 AM","CONTACT_PHONE":"202-384-6738","ZIPCODE":"20011","STATE_REFERENCE":null},"geometry":{"type":"Point","coordinates":[-77.03225535232298,38.95137487737547]}},{"type":"Feature","properties":{"OBJECTID":217,"NAME":"Whittier EC","ADDRESS":"6201 5TH STREET NW","PHONE":" (202) 576-6156","SPONSORING":"DC Public Schools","DATE_OPEN":"2016-06-27T00:00:00.000Z","DATE_CLOSE":"2016-08-12T00:00:00.000Z","DAYS_OPEN":"M,T,W,TH,F","HOURS_OPEN":"8:00 AM - 6:00 PM","LUNCH_TIME":"11:30AM - 1:00 PM","SNACK_TIME":null,"DINNER_SUP":null,"MEAL_TYPES":"B , L","X":398332.71,"Y":144216.17,"WARD":"Ward 4","ADDRID":294614,"CONTACT_FI_NAME":"Kristen ","CONTACT_LAS_NAME":"Rowe","STATUS":"Open","ADDRESS2":null,"BREAKFEAST_TIME":"8:00 AM - 9:30 AM","CONTACT_PHONE":"202-384-6738","ZIPCODE":"20011","STATE_REFERENCE":null},"geometry":{"type":"Point","coordinates":[-77.01924089573717,38.96586473944469]}},{"type":"Feature","properties":{"OBJECTID":218,"NAME":"Woodson, H.D. HS","ADDRESS":"540 55TH STREET NE","PHONE":"(202) 939-2030","SPONSORING":"DC Public Schools","DATE_OPEN":"2016-06-27T00:00:00.000Z","DATE_CLOSE":"2016-08-05T00:00:00.000Z","DAYS_OPEN":"M,T,W,TH,F","HOURS_OPEN":null,"LUNCH_TIME":"11:30AM - 1:00 PM","SNACK_TIME":null,"DINNER_SUP":null,"MEAL_TYPES":"B , L","X":406737.85,"Y":136551.42,"WARD":"Ward 7","ADDRID":309633,"CONTACT_FI_NAME":"Kristen ","CONTACT_LAS_NAME":"Rowe","STATUS":"Open","ADDRESS2":null,"BREAKFEAST_TIME":"8:00 AM - 9:30 AM","CONTACT_PHONE":"202-384-6738","ZIPCODE":"20019","STATE_REFERENCE":null},"geometry":{"type":"Point","coordinates":[-76.92233051487088,38.89679407657987]}},{"type":"Feature","properties":{"OBJECTID":219,"NAME":"Brookland Manor","ADDRESS":"2423 14TH STREET NE","PHONE":"2027445027","SPONSORING":"Capital Area Food Bank","DATE_OPEN":"2016-06-27T00:00:00.000Z","DATE_CLOSE":"2016-08-05T00:00:00.000Z","DAYS_OPEN":"M,T,W,TH,F","HOURS_OPEN":"9:00 AM-6:00 PM","LUNCH_TIME":"12:00 PM-12:30 PM","SNACK_TIME":null,"DINNER_SUP":null,"MEAL_TYPES":"B , L","X":401290.53,"Y":139373.19,"WARD":"Ward 5","ADDRID":150414,"CONTACT_FI_NAME":"Linda","CONTACT_LAS_NAME":"Wilson","STATUS":"Open","ADDRESS2":null,"BREAKFEAST_TIME":"10:00 AM-10:30 AM","CONTACT_PHONE":"202-529-6529","ZIPCODE":"20018","STATE_REFERENCE":null},"geometry":{"type":"Point","coordinates":[-76.98512016363874,38.922238425180936]}},{"type":"Feature","properties":{"OBJECTID":220,"NAME":"C.H.I.L.D. Center","ADDRESS":"202 RIGGS ROAD NE","PHONE":"2027445027","SPONSORING":"Capital Area Food Bank","DATE_OPEN":"2016-06-27T00:00:00.000Z","DATE_CLOSE":"2016-08-19T00:00:00.000Z","DAYS_OPEN":"M,T,W,TH,F","HOURS_OPEN":"5:00 AM-6:00 PM","LUNCH_TIME":"12:00 PM-1:00 PM","SNACK_TIME":null,"DINNER_SUP":null,"MEAL_TYPES":"B , L","X":399701.63,"Y":143160.74,"WARD":"Ward 4","ADDRID":302032,"CONTACT_FI_NAME":"Jacqueline","CONTACT_LAS_NAME":"Oliver","STATUS":"Open","ADDRESS2":null,"BREAKFEAST_TIME":"7:30 AM-8:30 AM","CONTACT_PHONE":"202-269-6805","ZIPCODE":"20011","STATE_REFERENCE":null},"geometry":{"type":"Point","coordinates":[-77.00344467428359,38.956358687771264]}},{"type":"Feature","properties":{"OBJECTID":221,"NAME":"Cedar Heights Community Center","ADDRESS":"1528 BUTLER STREET SE","PHONE":"202-735-0490","SPONSORING":"Capital Area Food Bank","DATE_OPEN":"2016-06-27T00:00:00.000Z","DATE_CLOSE":"2016-08-05T00:00:00.000Z","DAYS_OPEN":"M,T,W,TH,F","HOURS_OPEN":"9:00 AM-6:00 PM","LUNCH_TIME":"12:00 PM-12:30 PM","SNACK_TIME":null,"DINNER_SUP":null,"MEAL_TYPES":"B , L","X":401380.75,"Y":132737.97,"WARD":"Ward 8","ADDRID":286301,"CONTACT_FI_NAME":"Cynthia","CONTACT_LAS_NAME":"Wynn","STATUS":"Open","ADDRESS2":null,"BREAKFEAST_TIME":"9:00 AM-9:30 AM","CONTACT_PHONE":"202-735-0490","ZIPCODE":"20020","STATE_REFERENCE":null},"geometry":{"type":"Point","coordinates":[-76.98409309661592,38.862465757988865]}},{"type":"Feature","properties":{"OBJECTID":222,"NAME":"Congress Park","ADDRESS":"1345 SAVANNAH STREET SE","PHONE":"202 563-2406","SPONSORING":"Capital Area Food Bank","DATE_OPEN":"2016-06-27T00:00:00.000Z","DATE_CLOSE":"2016-07-29T00:00:00.000Z","DAYS_OPEN":"M,T,W,TH,F","HOURS_OPEN":"9:00 AM-6:00 PM","LUNCH_TIME":null,"SNACK_TIME":null,"DINNER_SUP":"3:00 PM-3:45 PM","MEAL_TYPES":"B , S","X":401181.85,"Y":130646.39,"WARD":"Ward 8","ADDRID":295931,"CONTACT_FI_NAME":"Lesley","CONTACT_LAS_NAME":"Wilkerson","STATUS":"Open","ADDRESS2":null,"BREAKFEAST_TIME":"9:30 AM-10:00 AM","CONTACT_PHONE":"202 315-6155","ZIPCODE":"20032","STATE_REFERENCE":null},"geometry":{"type":"Point","coordinates":[-76.98638844156136,38.84362418961935]}},{"type":"Feature","properties":{"OBJECTID":223,"NAME":"Diamond Cubs Summer Youth Enrichment program","ADDRESS":"3127 MARTIN LUTHER KING JR AVENUE SE","PHONE":"2025917129","SPONSORING":"Capital Area Food Bank","DATE_OPEN":"2016-06-27T00:00:00.000Z","DATE_CLOSE":"2016-07-29T00:00:00.000Z","DAYS_OPEN":"M,T,W,TH,F","HOURS_OPEN":"5:00 AM-3:00 PM","LUNCH_TIME":"12:00 PM-12:30 PM","SNACK_TIME":null,"DINNER_SUP":null,"MEAL_TYPES":"B , L","X":399977.59,"Y":130608.37,"WARD":"Ward 8","ADDRID":307897,"CONTACT_FI_NAME":"Diamond","CONTACT_LAS_NAME":"Anderson","STATUS":"Open","ADDRESS2":null,"BREAKFEAST_TIME":"8:00 AM-9:00 AM","CONTACT_PHONE":"2025917129","ZIPCODE":"20032","STATE_REFERENCE":null},"geometry":{"type":"Point","coordinates":[-77.00026042169091,38.84328248152292]}},{"type":"Feature","properties":{"OBJECTID":224,"NAME":"Frederick Douglass","ADDRESS":"1427 CEDAR STREET SE","PHONE":"202-889-3850","SPONSORING":"Capital Area Food Bank","DATE_OPEN":"2016-06-27T00:00:00.000Z","DATE_CLOSE":"2016-07-22T00:00:00.000Z","DAYS_OPEN":"M,T,W,TH,F","HOURS_OPEN":"9:00 AM-9:00 PM","LUNCH_TIME":null,"SNACK_TIME":null,"DINNER_SUP":"3:00 PM-3:30 PM","MEAL_TYPES":"B , S","X":401203.76,"Y":132650.5,"WARD":"Ward 8","ADDRID":148134,"CONTACT_FI_NAME":"Toni","CONTACT_LAS_NAME":"Smith","STATUS":"Open","ADDRESS2":null,"BREAKFEAST_TIME":"9:30 AM-10:00 AM","CONTACT_PHONE":"202-889-3850","ZIPCODE":"20020","STATE_REFERENCE":null},"geometry":{"type":"Point","coordinates":[-76.9861325519133,38.86167805152053]}},{"type":"Feature","properties":{"OBJECTID":225,"NAME":"Horton's Kids","ADDRESS":"2500 POMEROY ROAD SE","PHONE":"202 909 5689","SPONSORING":"Capital Area Food Bank","DATE_OPEN":"2016-06-27T00:00:00.000Z","DATE_CLOSE":"2016-08-05T00:00:00.000Z","DAYS_OPEN":"M,T,W,TH,F","HOURS_OPEN":"11:00 AM-6:00 PM","LUNCH_TIME":null,"SNACK_TIME":null,"DINNER_SUP":"4:00 PM-5:30 PM","MEAL_TYPES":"B , S","X":400906.61,"Y":131902.13,"WARD":"Ward 8","ADDRID":289831,"CONTACT_FI_NAME":"Jennifer","CONTACT_LAS_NAME":"Renjel","STATUS":"Open","ADDRESS2":null,"BREAKFEAST_TIME":null,"CONTACT_PHONE":"202 909 5689","ZIPCODE":"20020","STATE_REFERENCE":null},"geometry":{"type":"Point","coordinates":[-76.98955730197764,38.85493677279744]}},{"type":"Feature","properties":{"OBJECTID":226,"NAME":"Imagine Hope Lamond","ADDRESS":"6200 KANSAS AVENUE NE","PHONE":"202.722.4421","SPONSORING":"Capital Area Food Bank","DATE_OPEN":"2016-06-27T00:00:00.000Z","DATE_CLOSE":"2016-08-05T00:00:00.000Z","DAYS_OPEN":"M,T,W,TH,F","HOURS_OPEN":"6:30 AM-6:00 PM","LUNCH_TIME":"11:00 AM-12:00 PM","SNACK_TIME":null,"DINNER_SUP":null,"MEAL_TYPES":"B , L","X":399254.07,"Y":144200.69,"WARD":"Ward 4","ADDRID":304055,"CONTACT_FI_NAME":"Trina","CONTACT_LAS_NAME":"Williams","STATUS":"Open","ADDRESS2":null,"BREAKFEAST_TIME":"8:00 AM-8:30 AM","CONTACT_PHONE":"202.722.4421","ZIPCODE":"20011","STATE_REFERENCE":null},"geometry":{"type":"Point","coordinates":[-77.00860944473003,38.96572655801233]}},{"type":"Feature","properties":{"OBJECTID":227,"NAME":"Little Lights 1212 Center","ADDRESS":"1212 I STREET SE","PHONE":"202-591-1376","SPONSORING":"Capital Area Food Bank","DATE_OPEN":"2016-06-27T00:00:00.000Z","DATE_CLOSE":"2016-08-05T00:00:00.000Z","DAYS_OPEN":"M,T,W,TH,F","HOURS_OPEN":"10:00 AM-5:00 PM","LUNCH_TIME":"12:00 PM-1:00 PM","SNACK_TIME":"3:00 PM-4:00 PM","DINNER_SUP":null,"MEAL_TYPES":"L , A","X":400913.37,"Y":134678.54,"WARD":"Ward 6","ADDRID":290336,"CONTACT_FI_NAME":"Abby","CONTACT_LAS_NAME":"Maraya","STATUS":"Open","ADDRESS2":null,"BREAKFEAST_TIME":null,"CONTACT_PHONE":"202-591-1376","ZIPCODE":"20003","STATE_REFERENCE":null},"geometry":{"type":"Point","coordinates":[-76.98947573367961,38.8799478088468]}},{"type":"Feature","properties":{"OBJECTID":228,"NAME":"Little Lights 1430 Center","ADDRESS":"1430 L STREET SE","PHONE":"202-548-4021","SPONSORING":"Capital Area Food Bank","DATE_OPEN":"2016-06-27T00:00:00.000Z","DATE_CLOSE":"2016-08-05T00:00:00.000Z","DAYS_OPEN":"M,T,W,TH,F","HOURS_OPEN":"10:00 AM-5:00 PM","LUNCH_TIME":"12:00 PM-1:00 PM","SNACK_TIME":"3:00 PM-4:00 PM","DINNER_SUP":null,"MEAL_TYPES":"L , A","X":401292.22,"Y":134431.65,"WARD":"Ward 6","ADDRID":63579,"CONTACT_FI_NAME":"Meredith","CONTACT_LAS_NAME":"Daniel","STATUS":"Open","ADDRESS2":"Apt 104","BREAKFEAST_TIME":null,"CONTACT_PHONE":"202-548-4021","ZIPCODE":"20003","STATE_REFERENCE":null},"geometry":{"type":"Point","coordinates":[-76.98510996838905,38.87772325153552]}},{"type":"Feature","properties":{"OBJECTID":229,"NAME":"Little Lights Center","ADDRESS":"760 7TH STREET SE","PHONE":"202-548-4021","SPONSORING":"Capital Area Food Bank","DATE_OPEN":"2016-06-27T00:00:00.000Z","DATE_CLOSE":"2016-08-05T00:00:00.000Z","DAYS_OPEN":"M,T,W,TH,F","HOURS_OPEN":"10:00 AM-5:00 PM","LUNCH_TIME":"12:00 PM-1:00 PM","SNACK_TIME":"3:00 PM-4:00 PM","DINNER_SUP":null,"MEAL_TYPES":"L , A","X":400347.52,"Y":134628.8,"WARD":"Ward 6","ADDRID":79100,"CONTACT_FI_NAME":"Isaac","CONTACT_LAS_NAME":"Choi","STATUS":"Open","ADDRESS2":null,"BREAKFEAST_TIME":null,"CONTACT_PHONE":"202-548-4021","ZIPCODE":"20003","STATE_REFERENCE":null},"geometry":{"type":"Point","coordinates":[-76.99599715487565,38.87950013687733]}},{"type":"Feature","properties":{"OBJECTID":230,"NAME":"Little Lights Hopkins Center","ADDRESS":"1000 12TH STREET SE","PHONE":"202-600-2248","SPONSORING":"Capital Area Food Bank","DATE_OPEN":"2016-06-28T00:00:00.000Z","DATE_CLOSE":"2016-08-06T00:00:00.000Z","DAYS_OPEN":"M,T,W,TH,F","HOURS_OPEN":"10:00 AM-5:00 PM","LUNCH_TIME":"12:00 PM-1:00 PM","SNACK_TIME":"3:00 PM-4:00 PM","DINNER_SUP":null,"MEAL_TYPES":"L , A","X":400890.19,"Y":134484.78,"WARD":"Ward 6","ADDRID":280103,"CONTACT_FI_NAME":"Karmen","CONTACT_LAS_NAME":"Taylor","STATUS":"Open","ADDRESS2":null,"BREAKFEAST_TIME":null,"CONTACT_PHONE":"202-600-2248","ZIPCODE":"20003","STATE_REFERENCE":null},"geometry":{"type":"Point","coordinates":[-76.98974313299678,38.87820236630556]}},{"type":"Feature","properties":{"OBJECTID":231,"NAME":"National Baptist Memorial Church","ADDRESS":"1501 COLUMBIA ROAD NW","PHONE":"202-265-1410","SPONSORING":"Capital Area Food Bank","DATE_OPEN":"2016-06-28T00:00:00.000Z","DATE_CLOSE":"2016-08-04T00:00:00.000Z","DAYS_OPEN":"M,T,W,TH,F","HOURS_OPEN":"8:00 AM-5:00 PM","LUNCH_TIME":null,"SNACK_TIME":null,"DINNER_SUP":"4:00 PM-5:00 PM","MEAL_TYPES":"B , S","X":396874.22,"Y":139902.78,"WARD":"Ward 1","ADDRID":297688,"CONTACT_FI_NAME":"Kieran","CONTACT_LAS_NAME":"McGuinness","STATUS":"Open","ADDRESS2":null,"BREAKFEAST_TIME":"8:30 AM-9:30 AM","CONTACT_PHONE":"915-217-5674","ZIPCODE":"20009","STATE_REFERENCE":null},"geometry":{"type":"Point","coordinates":[-77.03605053451805,38.927004527383716]}},{"type":"Feature","properties":{"OBJECTID":232,"NAME":"RCCG New Wine Assembly","ADDRESS":"1615 OLIVE STREET NE","PHONE":"202-398-2211 or 301-675-4057","SPONSORING":"Capital Area Food Bank","DATE_OPEN":"2016-06-29T00:00:00.000Z","DATE_CLOSE":"2016-08-05T00:00:00.000Z","DAYS_OPEN":"M,T,W,TH,F","HOURS_OPEN":"8:30 AM-2:00 PM","LUNCH_TIME":"11:00 AM-12:30 PM","SNACK_TIME":null,"DINNER_SUP":null,"MEAL_TYPES":"B , L","X":405801.21,"Y":138080.98,"WARD":"Ward 7","ADDRID":59681,"CONTACT_FI_NAME":"Muriel","CONTACT_LAS_NAME":"Francis","STATUS":"Open","ADDRESS2":null,"BREAKFEAST_TIME":"8:30 AM-9:00 AM","CONTACT_PHONE":"202-491-5917","ZIPCODE":"20019","STATE_REFERENCE":null},"geometry":{"type":"Point","coordinates":[-76.93311487708591,38.91057957092684]}},{"type":"Feature","properties":{"OBJECTID":233,"NAME":"Tutoring Cafe","ADDRESS":"6906 4TH STREET NW","PHONE":"202-726-2233","SPONSORING":"Capital Area Food Bank","DATE_OPEN":"2016-06-29T00:00:00.000Z","DATE_CLOSE":"2016-08-19T00:00:00.000Z","DAYS_OPEN":"M,T,W,TH,F","HOURS_OPEN":"8:00 AM-6:00 PM","LUNCH_TIME":"12:00 PM-1:00 PM","SNACK_TIME":"3:30 PM-4:00 PM","DINNER_SUP":null,"MEAL_TYPES":"L , A","X":398408.63,"Y":145116.69,"WARD":"Ward 4","ADDRID":280100,"CONTACT_FI_NAME":"Sybil","CONTACT_LAS_NAME":"Davis","STATUS":"Open","ADDRESS2":null,"BREAKFEAST_TIME":null,"CONTACT_PHONE":"202-726-2233","ZIPCODE":"20012","STATE_REFERENCE":null},"geometry":{"type":"Point","coordinates":[-77.01836695718228,38.97397698113073]}},{"type":"Feature","properties":{"OBJECTID":234,"NAME":"Wardman Court Community Center","ADDRESS":"1350 CLIFTON STREET NW","PHONE":"202-689-5683","SPONSORING":"Capital Area Food Bank","DATE_OPEN":"2016-06-29T00:00:00.000Z","DATE_CLOSE":"2016-08-19T00:00:00.000Z","DAYS_OPEN":"M,T,W,TH,F","HOURS_OPEN":"8:45 AM-5:45 PM","LUNCH_TIME":"12:00 PM-1:30 PM","SNACK_TIME":null,"DINNER_SUP":null,"MEAL_TYPES":"B , L","X":397278.89,"Y":139359.48,"WARD":"Ward 1","ADDRID":232074,"CONTACT_FI_NAME":"Wilma","CONTACT_LAS_NAME":"Harvey","STATUS":"Open","ADDRESS2":null,"BREAKFEAST_TIME":"8:45 AM-9:30 AM","CONTACT_PHONE":"202-462-3921","ZIPCODE":"20009","STATE_REFERENCE":null},"geometry":{"type":"Point","coordinates":[-77.03138149931895,38.92211165400155]}},{"type":"Feature","properties":{"OBJECTID":235,"NAME":"Beacon House - Lower Campus","ADDRESS":"601 EDGEWOOD STREET NE","PHONE":"202-529-7376","SPONSORING":"Beacon House","DATE_OPEN":"2016-06-29T00:00:00.000Z","DATE_CLOSE":"2016-08-19T00:00:00.000Z","DAYS_OPEN":"M,T,W,TH,F","HOURS_OPEN":null,"LUNCH_TIME":"11:30 AM - 1:00 PM","SNACK_TIME":null,"DINNER_SUP":null,"MEAL_TYPES":"B, L","X":400216.99,"Y":139558.38,"WARD":"Ward 5","ADDRID":289571,"CONTACT_FI_NAME":"Danielle","CONTACT_LAS_NAME":"Schmutz","STATUS":"Open","ADDRESS2":null,"BREAKFEAST_TIME":"8:00 AM - 9:00 AM","CONTACT_PHONE":"202-529-7376","ZIPCODE":"20017","STATE_REFERENCE":null},"geometry":{"type":"Point","coordinates":[-76.99749994327286,38.923907596754255]}},{"type":"Feature","properties":{"OBJECTID":236,"NAME":"Beacon House - Upper Campus","ADDRESS":"601 EDGEWOOD STREET NE","PHONE":"202-529-7376","SPONSORING":"Beacon House","DATE_OPEN":"2016-06-30T00:00:00.000Z","DATE_CLOSE":"2016-08-05T00:00:00.000Z","DAYS_OPEN":"M,T,W,TH,F","HOURS_OPEN":null,"LUNCH_TIME":"11:30 AM - 1:00 PM","SNACK_TIME":null,"DINNER_SUP":null,"MEAL_TYPES":"B, L","X":400216.99,"Y":139558.38,"WARD":"Ward 5","ADDRID":289571,"CONTACT_FI_NAME":"Danielle","CONTACT_LAS_NAME":"Schmutz","STATUS":"Open","ADDRESS2":null,"BREAKFEAST_TIME":"8:00 AM - 9:00 AM","CONTACT_PHONE":"202-529-7376","ZIPCODE":"20017","STATE_REFERENCE":null},"geometry":{"type":"Point","coordinates":[-76.99749994327286,38.923907596754255]}},{"type":"Feature","properties":{"OBJECTID":237,"NAME":"Emmanuel Baptist Church","ADDRESS":"2409 AINGER PLACE SE","PHONE":"202-678-0884","SPONSORING":"Emmanuel Baptist Church","DATE_OPEN":"2016-06-30T00:00:00.000Z","DATE_CLOSE":"2016-08-04T00:00:00.000Z","DAYS_OPEN":"M,T,W,TH,F","HOURS_OPEN":"8:30 AM - 2:00 PM","LUNCH_TIME":"12:00 PM - 12:30 PM","SNACK_TIME":null,"DINNER_SUP":null,"MEAL_TYPES":"B, L","X":402442.92,"Y":132083.3,"WARD":"Ward 8","ADDRID":150401,"CONTACT_FI_NAME":"Deborah","CONTACT_LAS_NAME":"Short","STATUS":"Open","ADDRESS2":null,"BREAKFEAST_TIME":"8:30 AM -9:00 AM","CONTACT_PHONE":"202-368-2668","ZIPCODE":"20020","STATE_REFERENCE":null},"geometry":{"type":"Point","coordinates":[-76.97185695889968,38.85656590527931]}},{"type":"Feature","properties":{"OBJECTID":238,"NAME":"EW Stokes School","ADDRESS":"3700 OAKVIEW TERRACE NE","PHONE":"202-265-7237","SPONSORING":"Elsie Whitlow Stokes Public Charter School","DATE_OPEN":"2016-07-01T00:00:00.000Z","DATE_CLOSE":"2016-08-04T00:00:00.000Z","DAYS_OPEN":"M,T,W,TH,F","HOURS_OPEN":"8:30am-1:00pm","LUNCH_TIME":"11:30 AM - 12.30 PM","SNACK_TIME":null,"DINNER_SUP":null,"MEAL_TYPES":"B, L","X":400859.44,"Y":140789.48,"WARD":"Ward 5","ADDRID":289754,"CONTACT_FI_NAME":"Kimberly","CONTACT_LAS_NAME":"Williams","STATUS":"Open","ADDRESS2":null,"BREAKFEAST_TIME":"8:30 AM -9:30 AM","CONTACT_PHONE":"202-265-7237 ext 222","ZIPCODE":"20017","STATE_REFERENCE":null},"geometry":{"type":"Point","coordinates":[-76.99008963035809,38.934997335851484]}},{"type":"Feature","properties":{"OBJECTID":239,"NAME":"LAMB School","ADDRESS":"1800 PERRY STREET NE","PHONE":"202-529-4400","SPONSORING":"Elsie Whitlow Stokes Public Charter School","DATE_OPEN":"2016-07-01T00:00:00.000Z","DATE_CLOSE":"2016-07-31T00:00:00.000Z","DAYS_OPEN":"M,T,W,TH,F","HOURS_OPEN":"7:30am-1:00pm","LUNCH_TIME":"11:30 AM - 12:30 PM","SNACK_TIME":null,"DINNER_SUP":null,"MEAL_TYPES":"B, L","X":401855.75,"Y":140990.2,"WARD":"Ward 5","ADDRID":294529,"CONTACT_FI_NAME":"Betsy","CONTACT_LAS_NAME":"Romero","STATUS":"Open","ADDRESS2":null,"BREAKFEAST_TIME":"8:00 AM -9:00 AM","CONTACT_PHONE":"202-529-4400","ZIPCODE":"20018","STATE_REFERENCE":null},"geometry":{"type":"Point","coordinates":[-76.9785977940712,38.93680394287589]}},{"type":"Feature","properties":{"OBJECTID":240,"NAME":"Armstrong Academy","ADDRESS":"1400 1ST STREET NW","PHONE":"202-518-3928","SPONSORING":"Friendship  Public Charter School","DATE_OPEN":"2016-07-05T00:00:00.000Z","DATE_CLOSE":"2016-08-12T00:00:00.000Z","DAYS_OPEN":"M,T,W,TH,F","HOURS_OPEN":"7:00 AM - 6:00 PM","LUNCH_TIME":null,"SNACK_TIME":null,"DINNER_SUP":"5:00 PM - 6:00 PM","MEAL_TYPES":"B, S","X":398853.47,"Y":137913.33,"WARD":"Ward 5","ADDRID":238253,"CONTACT_FI_NAME":"Paula","CONTACT_LAS_NAME":"Ray","STATUS":"Open","ADDRESS2":null,"BREAKFEAST_TIME":"7:00 AM - 8:15AM","CONTACT_PHONE":"202-518-3928","ZIPCODE":"20001","STATE_REFERENCE":null},"geometry":{"type":"Point","coordinates":[-77.01322138980201,38.909087716502]}},{"type":"Feature","properties":{"OBJECTID":241,"NAME":"Blow Pierce Junior Academy","ADDRESS":"725 19TH STREET NE","PHONE":"202-399-4354","SPONSORING":"Friendship  Public Charter School","DATE_OPEN":"2016-07-05T00:00:00.000Z","DATE_CLOSE":"2016-08-12T00:00:00.000Z","DAYS_OPEN":"M,T,W,TH,F","HOURS_OPEN":"7:00 AM - 6:00 PM","LUNCH_TIME":null,"SNACK_TIME":null,"DINNER_SUP":"5:00 PM - 6:00 PM","MEAL_TYPES":"B, S","X":402040.17,"Y":136663.58,"WARD":"Ward 7","ADDRID":288919,"CONTACT_FI_NAME":"Karen","CONTACT_LAS_NAME":"Sellers","STATUS":"Open","ADDRESS2":null,"BREAKFEAST_TIME":"7:00 AM - 8:15AM","CONTACT_PHONE":"202-399-4354","ZIPCODE":"20002","STATE_REFERENCE":null},"geometry":{"type":"Point","coordinates":[-76.97648352133622,38.89782790696176]}},{"type":"Feature","properties":{"OBJECTID":242,"NAME":"Chamberlain Elementary and Middle","ADDRESS":"1345 POTOMAC AVENUE SE","PHONE":"202-547-5800 X 1034","SPONSORING":"Friendship  Public Charter School","DATE_OPEN":"2016-07-05T00:00:00.000Z","DATE_CLOSE":"2016-08-12T00:00:00.000Z","DAYS_OPEN":"M,T,W,TH,F","HOURS_OPEN":"7:00 AM - 6:00 PM","LUNCH_TIME":null,"SNACK_TIME":null,"DINNER_SUP":"5:00 PM - 6:00 PM","MEAL_TYPES":"B, S","X":401145.15,"Y":134616.92,"WARD":"Ward 6","ADDRID":66334,"CONTACT_FI_NAME":"Andrea","CONTACT_LAS_NAME":"Johnson","STATUS":"Open","ADDRESS2":null,"BREAKFEAST_TIME":"7:00 AM - 8:15AM","CONTACT_PHONE":"202-547-5800 X 1034","ZIPCODE":"20003","STATE_REFERENCE":null},"geometry":{"type":"Point","coordinates":[-76.9868045821557,38.87939244049106]}},{"type":"Feature","properties":{"OBJECTID":243,"NAME":"Collegiate Academy","ADDRESS":"4095 MINNESOTA AVENUE NE","PHONE":"202-396-5500","SPONSORING":"Friendship  Public Charter School","DATE_OPEN":"2016-07-05T00:00:00.000Z","DATE_CLOSE":"2016-08-12T00:00:00.000Z","DAYS_OPEN":"M,T,W,TH,F","HOURS_OPEN":"7:00 AM - 6:00 PM","LUNCH_TIME":null,"SNACK_TIME":null,"DINNER_SUP":"5:00 PM - 6:00 PM","MEAL_TYPES":"B, S","X":404654.26,"Y":136634.64,"WARD":"Ward 7","ADDRID":288100,"CONTACT_FI_NAME":"Aldena ","CONTACT_LAS_NAME":"Richardson","STATUS":"Open","ADDRESS2":null,"BREAKFEAST_TIME":"7:00 AM - 8:15AM","CONTACT_PHONE":"202-396-5500","ZIPCODE":"20019","STATE_REFERENCE":null},"geometry":{"type":"Point","coordinates":[-76.94634889992794,38.89755725243379]}},{"type":"Feature","properties":{"OBJECTID":244,"NAME":"Southeast Academy","ADDRESS":"645 MILWAUKEE PLACE SE","PHONE":"202-562-2972 X121","SPONSORING":"Friendship  Public Charter School","DATE_OPEN":"2016-07-05T00:00:00.000Z","DATE_CLOSE":"2016-08-12T00:00:00.000Z","DAYS_OPEN":"M,T,W,TH,F","HOURS_OPEN":"7:00 AM - 6:00 PM","LUNCH_TIME":null,"SNACK_TIME":null,"DINNER_SUP":"5:00 PM - 6:00 PM","MEAL_TYPES":"B, S","X":400259.75,"Y":131109.73,"WARD":"Ward 8","ADDRID":1655,"CONTACT_FI_NAME":"Theresia","CONTACT_LAS_NAME":"Williams","STATUS":"Open","ADDRESS2":null,"BREAKFEAST_TIME":"7:00 AM - 8:15AM","CONTACT_PHONE":"202-562-2972 X121","ZIPCODE":"20032","STATE_REFERENCE":null},"geometry":{"type":"Point","coordinates":[-76.9970100213184,38.84779891710694]}},{"type":"Feature","properties":{"OBJECTID":245,"NAME":"Tech Prep Academy","ADDRESS":"2705 MARTIN LUTHER KING JR AVENUE SE","PHONE":"202-562-1681 X8133","SPONSORING":"Friendship  Public Charter School","DATE_OPEN":"2016-07-05T00:00:00.000Z","DATE_CLOSE":"2016-08-12T00:00:00.000Z","DAYS_OPEN":"M,T,W,TH,F","HOURS_OPEN":"7:00 AM - 6:00 PM","LUNCH_TIME":null,"SNACK_TIME":null,"DINNER_SUP":"5:00 PM - 6:00 PM","MEAL_TYPES":"B, S","X":400331.09,"Y":131166.09,"WARD":"Ward 8","ADDRID":289904,"CONTACT_FI_NAME":"Michia","CONTACT_LAS_NAME":"Slaughter-Coles","STATUS":"Open","ADDRESS2":null,"BREAKFEAST_TIME":"7:00 AM - 8:15AM","CONTACT_PHONE":"202-562-1681 X8133","ZIPCODE":"20032","STATE_REFERENCE":null},"geometry":{"type":"Point","coordinates":[-76.99618817416676,38.84830660888015]}},{"type":"Feature","properties":{"OBJECTID":246,"NAME":"Woodridge Elementary and Middle","ADDRESS":"2959 CARLTON AVENUE NE","PHONE":"202-635-6500 X3009","SPONSORING":"Friendship  Public Charter School","DATE_OPEN":"2016-07-05T00:00:00.000Z","DATE_CLOSE":"2016-08-12T00:00:00.000Z","DAYS_OPEN":"M,T,W,TH,F","HOURS_OPEN":"7:00 AM - 6:00 PM","LUNCH_TIME":null,"SNACK_TIME":null,"DINNER_SUP":"5:00 PM - 6:00 PM","MEAL_TYPES":"B, S","X":402903.45,"Y":140185.72,"WARD":"Ward 5","ADDRID":42808,"CONTACT_FI_NAME":"Katrina ","CONTACT_LAS_NAME":"Fitzgerald","STATUS":"Open","ADDRESS2":null,"BREAKFEAST_TIME":"7:00 AM - 8:15AM","CONTACT_PHONE":"202-635-6500 X3009","ZIPCODE":"20018","STATE_REFERENCE":null},"geometry":{"type":"Point","coordinates":[-76.96651687320974,38.92955410479759]}},{"type":"Feature","properties":{"OBJECTID":247,"NAME":"Greater Love Church (formerly ","ADDRESS":"4421 JAY STREET NE","PHONE":"202 396 5600","SPONSORING":"DC Central Kitchen","DATE_OPEN":"2016-07-11T00:00:00.000Z","DATE_CLOSE":"2016-07-15T00:00:00.000Z","DAYS_OPEN":"M,T,W, TH,F","HOURS_OPEN":"8am-6pm","LUNCH_TIME":"1:00pm-3:00m","SNACK_TIME":null,"DINNER_SUP":null,"MEAL_TYPES":"B, L","X":405413.62,"Y":137048.52,"WARD":"Ward 7","ADDRID":21682,"CONTACT_FI_NAME":"Karen ","CONTACT_LAS_NAME":"Bonner","STATUS":"Open","ADDRESS2":null,"BREAKFEAST_TIME":"9am-11am","CONTACT_PHONE":"240 423 4633","ZIPCODE":"20019","STATE_REFERENCE":null},"geometry":{"type":"Point","coordinates":[-76.93759188982965,38.90128128401056]}},{"type":"Feature","properties":{"OBJECTID":248,"NAME":"Columbia Heights Farmers Market","ADDRESS":"1402 PARK ROAD NW","PHONE":"(202)854-8759","SPONSORING":"CentroNia","DATE_OPEN":null,"DATE_CLOSE":"2016-08-01T00:00:00.000Z","DAYS_OPEN":"W","HOURS_OPEN":"4:00 PM - 7:30 PM","LUNCH_TIME":null,"SNACK_TIME":null,"DINNER_SUP":"4-5:30 PM","MEAL_TYPES":"S","X":397123.65,"Y":140261.91,"WARD":"Ward 1","ADDRID":234397,"CONTACT_FI_NAME":"Dalila","CONTACT_LAS_NAME":"Boclin","STATUS":"Open","ADDRESS2":null,"BREAKFEAST_TIME":null,"CONTACT_PHONE":"(202)854-8759","ZIPCODE":"20010","STATE_REFERENCE":null},"geometry":{"type":"Point","coordinates":[-77.03317547326694,38.93024053459764]}},{"type":"Feature","properties":{"OBJECTID":249,"NAME":"Rhode Island Row Farmers Market","ADDRESS":"2300 WASHINGTON PLACE NE","PHONE":"(301)802-6112","SPONSORING":"CentroNia","DATE_OPEN":null,"DATE_CLOSE":"2016-08-01T00:00:00.000Z","DAYS_OPEN":"TH","HOURS_OPEN":"4:00 PM - 7:30 PM","LUNCH_TIME":null,"SNACK_TIME":null,"DINNER_SUP":"4-5:30 PM","MEAL_TYPES":"S","X":400395.44,"Y":139171.79,"WARD":"Ward 5","ADDRID":306518,"CONTACT_FI_NAME":"Hugo","CONTACT_LAS_NAME":"Mogollon","STATUS":"Open","ADDRESS2":null,"BREAKFEAST_TIME":null,"CONTACT_PHONE":"(301)802-6112","ZIPCODE":"20018","STATE_REFERENCE":null},"geometry":{"type":"Point","coordinates":[-76.99544226962885,38.92042500673296]}},{"type":"Feature","properties":{"OBJECTID":250,"NAME":"Arcadia Mobile Market Ledroit Park","ADDRESS":"3RD STREET NW AND ELM STREET NW","PHONE":"(703)599-2553","SPONSORING":"CentroNia","DATE_OPEN":null,"DATE_CLOSE":"2016-08-01T00:00:00.000Z","DAYS_OPEN":"W","HOURS_OPEN":"4:00 PM - 7:00 PM","LUNCH_TIME":null,"SNACK_TIME":null,"DINNER_SUP":"4-5:30 PM","MEAL_TYPES":"S","X":398616.09999667,"Y":138848.67999828,"WARD":null,"ADDRID":906248,"CONTACT_FI_NAME":"Jeremy","CONTACT_LAS_NAME":"Mauck","STATUS":"Open","ADDRESS2":null,"BREAKFEAST_TIME":null,"CONTACT_PHONE":"(703)599-2553","ZIPCODE":null,"STATE_REFERENCE":null},"geometry":{"type":"Point","coordinates":[-77.01596007177444,38.91751332407186]}},{"type":"Feature","properties":{"OBJECTID":251,"NAME":"Arcardia Mobile Market Community of Hope Family Health & Birth Center","ADDRESS":"801 17TH STREET NE","PHONE":"(703)599-2553","SPONSORING":"CentroNia","DATE_OPEN":null,"DATE_CLOSE":"2016-08-01T00:00:00.000Z","DAYS_OPEN":"TH","HOURS_OPEN":"3:00 PM - 6:00 PM","LUNCH_TIME":null,"SNACK_TIME":null,"DINNER_SUP":"4-5:30 PM","MEAL_TYPES":"S","X":401888.91,"Y":136995.37,"WARD":"Ward 5","ADDRID":288960,"CONTACT_FI_NAME":"Jeremy","CONTACT_LAS_NAME":"Mauck","STATUS":"Open","ADDRESS2":null,"BREAKFEAST_TIME":null,"CONTACT_PHONE":"(703)599-2553","ZIPCODE":"20002","STATE_REFERENCE":null},"geometry":{"type":"Point","coordinates":[-76.97822631080221,38.900817129071406]}},{"type":"Feature","properties":{"OBJECTID":252,"NAME":"The Monroe School","ADDRESS":"601 50TH STREET NE","PHONE":"202-506-7823","SPONSORING":"MAYA Foundation","DATE_OPEN":null,"DATE_CLOSE":null,"DAYS_OPEN":"M, T, W, TH, F","HOURS_OPEN":"7:30 a.m. -2:00pm","LUNCH_TIME":"12:30pm-1:30pm","SNACK_TIME":null,"DINNER_SUP":null,"MEAL_TYPES":"B, L","X":406151.54,"Y":136534.58,"WARD":"Ward 7","ADDRID":289784,"CONTACT_FI_NAME":"Ruth","CONTACT_LAS_NAME":"Logan","STATUS":"Open","ADDRESS2":null,"BREAKFEAST_TIME":"7:30am-8:30am","CONTACT_PHONE":"240-876-9297","ZIPCODE":"20019","STATE_REFERENCE":null},"geometry":{"type":"Point","coordinates":[-76.92908945598248,38.89664667384323]}}]}